"","volcano.number","volcano.name","country","primary.volcano.type","activity.evidence","last.known.eruption","region","subregion","lat","long","elevation..m.","dominant.rock.type","tectonic.setting","file","slab.dip","slab.depth","slab.strike","mx","my","optional"
"544",283010,"Izu-Tobu","Japan","Pyroclastic cone(s)","Eruption Observed","1989 CE","Japan, Taiwan, Marianas","Honshu",34.9,139.098,1406,"Basalt / Picro-Basalt","Subduction zone / Continental crust (>25 km)","Holocene",43.0662651137552,-126.283309868692,165.331192001404,139.098,34.9,TRUE
"545",283020,"Hakoneyama","Japan","Complex","Eruption Dated","2015 CE","Japan, Taiwan, Marianas","Honshu",35.233,139.021,1438,"Andesite / Basaltic Andesite","Subduction zone / Continental crust (>25 km)","Holocene",NA,NA,NA,139.021,35.233,TRUE
"546",283030,"Fujisan","Japan","Stratovolcano","Eruption Observed","1708 CE","Japan, Taiwan, Marianas","Honshu",35.361,138.728,3776,"Basalt / Picro-Basalt","Subduction zone / Continental crust (>25 km)","Holocene",NA,NA,NA,138.728,35.361,TRUE
"548",283040,"Ontakesan","Japan","Complex","Eruption Observed","2014 CE","Japan, Taiwan, Marianas","Honshu",35.893,137.48,3067,"Andesite / Basaltic Andesite","Subduction zone / Continental crust (>25 km)","Holocene",NA,NA,NA,137.48,35.893,TRUE
"586",284010,"Izu-Oshima","Japan","Stratovolcano","Eruption Observed","1990 CE","Japan, Taiwan, Marianas","Izu, Volcano, and Mariana Islands",34.724,139.394,758,"Basalt / Picro-Basalt","Subduction zone / Oceanic crust (< 15 km)","Holocene",41.5800704880233,-105.496548910995,170.047541281074,139.394,34.724,TRUE
"587",284011,"Toshima","Japan","Stratovolcano","Eruption Dated","4550 BCE","Japan, Taiwan, Marianas","Izu, Volcano, and Mariana Islands",34.52,139.279,508,"Basalt / Picro-Basalt","Subduction zone / Oceanic crust (< 15 km)","Holocene",41.7094590921872,-117.294529329732,176.064458197263,139.279,34.52,TRUE
"588",284020,"Niijima","Japan","Lava dome(s)","Eruption Observed","886 CE","Japan, Taiwan, Marianas","Izu, Volcano, and Mariana Islands",34.397,139.27,432,"Rhyolite","Subduction zone / Oceanic crust (< 15 km)","Holocene",41.6389808620732,-119.237909899282,177.839365635256,139.27,34.397,TRUE
"589",284030,"Kozushima","Japan","Lava dome(s)","Eruption Observed","838 CE","Japan, Taiwan, Marianas","Izu, Volcano, and Mariana Islands",34.219,139.153,572,"Rhyolite","Subduction zone / Oceanic crust (< 15 km)","Holocene",42.9600969869401,-129.70896905939,176.500595105308,139.153,34.219,TRUE
"590",284040,"Miyakejima","Japan","Stratovolcano","Eruption Observed","2010 CE","Japan, Taiwan, Marianas","Izu, Volcano, and Mariana Islands",34.094,139.526,775,"Basalt / Picro-Basalt","Subduction zone / Oceanic crust (< 15 km)","Holocene",38.2162539025843,-99.6056238324604,176.422220874457,139.526,34.094,TRUE
"591",284041,"Mikurajima","Japan","Stratovolcano","Eruption Dated","4100 BCE","Japan, Taiwan, Marianas","Izu, Volcano, and Mariana Islands",33.874,139.602,851,"Basalt / Picro-Basalt","Subduction zone / Oceanic crust (< 15 km)","Holocene",38.0090497143363,-96.8140614321341,172.093363458934,139.602,33.874,TRUE
"592",284042,"Kurose Hole","Japan","Submarine","Evidence Uncertain","Unknown","Japan, Taiwan, Marianas","Izu, Volcano, and Mariana Islands",33.4,139.68,-107,"Dacite","Subduction zone / Oceanic crust (< 15 km)","Holocene",39.9550870092219,-98.8241856298634,167.477945963522,139.68,33.4,TRUE
"593",284050,"Hachijojima","Japan","Stratovolcano(es)","Eruption Observed","1606 CE","Japan, Taiwan, Marianas","Izu, Volcano, and Mariana Islands",33.137,139.766,854,"Basalt / Picro-Basalt","Subduction zone / Oceanic crust (< 15 km)","Holocene",38.9768557925896,-97.6133091686686,169.048592453,139.766,33.137,TRUE
"594",284060,"Aogashima","Japan","Stratovolcano","Eruption Observed","1785 CE","Japan, Taiwan, Marianas","Izu, Volcano, and Mariana Islands",32.458,139.759,423,"Basalt / Picro-Basalt","Subduction zone / Oceanic crust (< 15 km)","Holocene",41.205479920813,-106.030052128757,174.65086364845,139.759,32.458,TRUE
"595",284061,"Kita-Bayonnaise","Japan","Submarine","Evidence Uncertain","Unknown","Japan, Taiwan, Marianas","Izu, Volcano, and Mariana Islands",32.1,139.85,-360,"Rhyolite","Subduction zone / Oceanic crust (< 15 km)","Holocene",40.4921836641982,-101.991371101666,175.726760864394,139.85,32.1,TRUE
"596",284070,"Myojinsho","Japan","Submarine","Eruption Observed","1970 CE","Japan, Taiwan, Marianas","Izu, Volcano, and Mariana Islands",31.888,139.918,11,"Dacite","Subduction zone / Oceanic crust (< 15 km)","Holocene",38.8416752059564,-98.3399174494006,175.221145631255,139.918,31.888,TRUE
"597",284080,"Sumisujima","Japan","Submarine","Eruption Observed","1916 CE","Japan, Taiwan, Marianas","Izu, Volcano, and Mariana Islands",31.44,140.051,136,"Dacite","Subduction zone / Oceanic crust (< 15 km)","Holocene",35.8806749705755,-93.730697582036,168.796763110549,140.051,31.44,TRUE
"598",284090,"Izu-Torishima","Japan","Stratovolcano","Eruption Observed","2002 CE","Japan, Taiwan, Marianas","Izu, Volcano, and Mariana Islands",30.484,140.303,394,"Basalt / Picro-Basalt","Subduction zone / Oceanic crust (< 15 km)","Holocene",39.645422604542,-94.5418700580143,167.773412077273,140.303,30.484,TRUE
"599",284091,"Sofugan","Japan","Stratovolcano","Evidence Uncertain","Unknown","Japan, Taiwan, Marianas","Izu, Volcano, and Mariana Islands",29.794,140.342,99,"Basalt / Picro-Basalt","Subduction zone / Oceanic crust (< 15 km)","Holocene",45.8462104608388,-110.487899699457,156.896560683487,140.342,29.794,TRUE
"600",284093,"Suiyo Seamount","Japan","Submarine","Unrest / Holocene","Unknown","Japan, Taiwan, Marianas","Izu, Volcano, and Mariana Islands",28.575,140.633,-991,"Andesite / Basaltic Andesite","Subduction zone / Crustal thickness unknown","Holocene",52.6160422327987,-123.399693723058,177.952217944621,140.633,28.575,TRUE
"601",284094,"Mokuyo Seamount","Japan","Submarine","Unrest / Holocene","Unknown","Japan, Taiwan, Marianas","Izu, Volcano, and Mariana Islands",28.327,140.572,-933,"Andesite / Basaltic Andesite","Subduction zone / Crustal thickness unknown","Holocene",54.1726675931291,-133.366029438402,177.201282085503,140.572,28.327,TRUE
"602",284095,"Doyo Seamount","Japan","Submarine","Unrest / Holocene","Unknown","Japan, Taiwan, Marianas","Izu, Volcano, and Mariana Islands",27.68,140.8,-590,"Basalt / Picro-Basalt","Subduction zone / Crustal thickness unknown","Holocene",47.8139393868695,-116.456893842037,167.926371252102,140.8,27.68,TRUE
"603",284096,"Nishinoshima","Japan","Caldera","Eruption Observed","2019 CE","Japan, Taiwan, Marianas","Izu, Volcano, and Mariana Islands",27.247,140.874,25,"Andesite / Basaltic Andesite","Subduction zone / Crustal thickness unknown","Holocene",48.659662852004,-121.547014787731,165.833663945881,140.874,27.247,TRUE
"604",284097,"Kaikata Seamount","Japan","Submarine","Unrest / Holocene","Unknown","Japan, Taiwan, Marianas","Izu, Volcano, and Mariana Islands",26.667,140.929,-165,"Andesite / Basaltic Andesite","Subduction zone / Crustal thickness unknown","Holocene",55.5362362039357,-134.747504229129,165.787562057793,140.929,26.667,TRUE
"605",284100,"Kaitoku Seamount","Japan","Submarine","Eruption Observed","1984 CE","Japan, Taiwan, Marianas","Izu, Volcano, and Mariana Islands",26.127,141.102,-95,"Basalt / Picro-Basalt","Subduction zone / Crustal thickness unknown","Holocene",57.7819022894466,-128.710825488039,168.931025196898,141.102,26.127,TRUE
"606",284110,"Kita-Ioto","Japan","Stratovolcano","Eruption Observed","1945 CE","Japan, Taiwan, Marianas","Izu, Volcano, and Mariana Islands",25.424,141.284,792,"Basalt / Picro-Basalt","Subduction zone / Crustal thickness unknown","Holocene",59.5415759488209,-136.798760168901,157.618242055454,141.284,25.424,TRUE
"607",284120,"Ioto","Japan","Caldera","Eruption Observed","2012 CE","Japan, Taiwan, Marianas","Izu, Volcano, and Mariana Islands",24.751,141.289,169,"Trachyandesite / Basaltic Trachyandesite","Subduction zone / Crustal thickness unknown","Holocene",63.2980664484128,-191.049321328215,156.103307095381,141.289,24.751,TRUE
"608",284121,"Kita-Fukutokutai","Japan","Submarine","Eruption Observed","1954 CE","Japan, Taiwan, Marianas","Izu, Volcano, and Mariana Islands",24.417,141.417,-73,"No Data (checked)","Subduction zone / Crustal thickness unknown","Holocene",65.1833572297789,-195.54807348581,158.045605135034,141.417,24.417,TRUE
"609",284130,"Fukutoku-Oka-no-Ba","Japan","Submarine","Eruption Observed","2010 CE","Japan, Taiwan, Marianas","Izu, Volcano, and Mariana Islands",24.285,141.481,-29,"Trachyandesite / Basaltic Trachyandesite","Subduction zone / Crustal thickness unknown","Holocene",65.5596440552155,-193.480287161438,159.741253323613,141.481,24.285,TRUE
"610",284131,"Minami-Hiyoshi","Japan","Submarine","Eruption Observed","1975 CE","Japan, Taiwan, Marianas","Izu, Volcano, and Mariana Islands",23.5,141.935,-107,"Trachyandesite / Basaltic Trachyandesite","Subduction zone / Crustal thickness unknown","Holocene",60.5979576100902,-155.066675678742,160.751113883719,141.935,23.5,TRUE
"611",284132,"Nikko","Japan","Submarine","Unrest / Holocene","Unknown","Japan, Taiwan, Marianas","Izu, Volcano, and Mariana Islands",23.078,142.326,-392,"Basalt / Picro-Basalt","Subduction zone / Crustal thickness unknown","Holocene",57.6119651722781,-131.602279524097,143.874393041715,142.326,23.078,TRUE
"612",284133,"Fukujin","United States","Submarine","Eruption Observed","1974 CE","Japan, Taiwan, Marianas","Izu, Volcano, and Mariana Islands",21.93,143.47,-217,"Andesite / Basaltic Andesite","Subduction zone / Crustal thickness unknown","Holocene",57.5491434604446,-136.20431674142,135.623745390746,143.47,21.93,TRUE
"613",284134,"Kasuga 1","United States","Submarine","Eruption Observed","1959 CE","Japan, Taiwan, Marianas","Izu, Volcano, and Mariana Islands",21.765,143.71,-598,"Andesite / Basaltic Andesite","Subduction zone / Crustal thickness unknown","Holocene",57.3118896348245,-128.138408099495,134.290896950095,143.71,21.765,TRUE
"614",284135,"Kasuga 2","United States","Submarine","Evidence Credible","Unknown","Japan, Taiwan, Marianas","Izu, Volcano, and Mariana Islands",21.6,143.637,-274,"Basalt / Picro-Basalt","Subduction zone / Crustal thickness unknown","Holocene",60.2725651942948,-160.149113819247,132.578440353624,143.637,21.6,TRUE
"615",284136,"NW Eifuku","United States","Submarine","Unrest / Holocene","Unknown","Japan, Taiwan, Marianas","Izu, Volcano, and Mariana Islands",21.485,144.043,-1535,"Basalt / Picro-Basalt","Subduction zone / Crustal thickness unknown","Holocene",58.6911976959127,-127.358235531704,132.248738612831,144.043,21.485,TRUE
"616",284137,"Daikoku","United States","Submarine","Unrest / Holocene","Unknown","Japan, Taiwan, Marianas","Izu, Volcano, and Mariana Islands",21.324,144.194,-323,"Andesite / Basaltic Andesite","Subduction zone / Crustal thickness unknown","Holocene",59.8682670398798,-132.580591685768,133.562784834812,144.194,21.324,TRUE
"617",284140,"Farallon de Pajaros","United States","Stratovolcano","Eruption Observed","1967 CE","Japan, Taiwan, Marianas","Izu, Volcano, and Mariana Islands",20.546,144.893,337,"Andesite / Basaltic Andesite","Subduction zone / Crustal thickness unknown","Holocene",55.9060668639395,-119.260742062796,151.93586730285,144.893,20.546,TRUE
"618",284141,"Ahyi","United States","Submarine","Eruption Dated","2014 CE","Japan, Taiwan, Marianas","Izu, Volcano, and Mariana Islands",20.42,145.03,-75,"Andesite / Basaltic Andesite","Subduction zone / Crustal thickness unknown","Holocene",53.5465036723837,-111.54176997025,153.077619761216,145.03,20.42,TRUE
"619",284142,"Supply Reef","United States","Submarine","Eruption Dated","1989 CE","Japan, Taiwan, Marianas","Izu, Volcano, and Mariana Islands",20.13,145.1,-8,"Andesite / Basaltic Andesite","Subduction zone / Crustal thickness unknown","Holocene",55.9596900674015,-122.850484086728,152.682815553049,145.1,20.13,TRUE
"620",284143,"Maug Islands","United States","Stratovolcano","Unrest / Holocene","Unknown","Japan, Taiwan, Marianas","Izu, Volcano, and Mariana Islands",20.02,145.22,227,"Basalt / Picro-Basalt","Subduction zone / Crustal thickness unknown","Holocene",54.543062819409,-116.103638422278,151.653162641398,145.22,20.02,TRUE
"621",284150,"Asuncion","United States","Stratovolcano","Eruption Observed","1906 CE","Japan, Taiwan, Marianas","Izu, Volcano, and Mariana Islands",19.671,145.406,857,"Andesite / Basaltic Andesite","Subduction zone / Crustal thickness unknown","Holocene",55.6342213696997,-119.024663164346,151.265289308144,145.406,19.671,TRUE
"622",284160,"Agrigan","United States","Stratovolcano","Eruption Observed","1917 CE","Japan, Taiwan, Marianas","Izu, Volcano, and Mariana Islands",18.77,145.67,965,"Basalt / Picro-Basalt","Subduction zone / Crustal thickness unknown","Holocene",59.0192366465811,-140.732099612628,164.877790652017,145.67,18.77,TRUE
"623",284170,"Pagan","United States","Stratovolcano(es)","Eruption Observed","2012 CE","Japan, Taiwan, Marianas","Izu, Volcano, and Mariana Islands",18.13,145.8,570,"Basalt / Picro-Basalt","Subduction zone / Crustal thickness unknown","Holocene",56.7283655572063,-136.475611264127,176.048273714748,145.8,18.13,TRUE
"624",284180,"Alamagan","United States","Stratovolcano","Eruption Dated","870 CE","Japan, Taiwan, Marianas","Izu, Volcano, and Mariana Islands",17.6,145.83,744,"Andesite / Basaltic Andesite","Subduction zone / Crustal thickness unknown","Holocene",56.2877069874043,-133.440643208704,180.213562011051,145.83,17.6,TRUE
"625",284190,"Guguan","United States","Stratovolcano","Eruption Observed","1883 CE","Japan, Taiwan, Marianas","Izu, Volcano, and Mariana Islands",17.307,145.845,287,"Andesite / Basaltic Andesite","Subduction zone / Crustal thickness unknown","Holocene",55.7625884763821,-129.980590727181,181.700515745127,145.845,17.307,TRUE
"626",284191,"Zealandia Bank","United States","Stratovolcano","Unrest / Holocene","Unknown","Japan, Taiwan, Marianas","Izu, Volcano, and Mariana Islands",16.88,145.85,0,"Basalt / Picro-Basalt","Subduction zone / Crustal thickness unknown","Holocene",55.3920224248871,-126.379712335359,184.317230223508,145.85,16.88,TRUE
"627",284192,"Sarigan","United States","Stratovolcano","Evidence Credible","Unknown","Japan, Taiwan, Marianas","Izu, Volcano, and Mariana Islands",16.708,145.78,538,"Andesite / Basaltic Andesite","Subduction zone / Crustal thickness unknown","Holocene",57.7667388668937,-134.652689515685,185.033935545921,145.78,16.708,TRUE
"628",284193,"South Sarigan Seamount","United States","Submarine","Eruption Observed","2010 CE","Japan, Taiwan, Marianas","Izu, Volcano, and Mariana Islands",16.58,145.78,-184,"No Data (checked)","Subduction zone / Crustal thickness unknown","Holocene",57.4094093925445,-132.750661116552,185.6165686695,145.78,16.58,TRUE
"629",284200,"Anatahan","United States","Stratovolcano","Eruption Observed","2008 CE","Japan, Taiwan, Marianas","Izu, Volcano, and Mariana Islands",16.35,145.67,790,"Andesite / Basaltic Andesite","Subduction zone / Crustal thickness unknown","Holocene",61.0121116425043,-148.819549453582,187.044291173316,145.67,16.35,TRUE
"630",284201,"East Diamante","United States","Submarine","Unrest / Holocene","Unknown","Japan, Taiwan, Marianas","Izu, Volcano, and Mariana Islands",15.93,145.67,-127,"Dacite","Subduction zone / Crustal thickness unknown","Holocene",57.8914536174683,-137.152582715829,190.176879874638,145.67,15.93,TRUE
"631",284202,"Ruby","United States","Submarine","Eruption Observed","1995 CE","Japan, Taiwan, Marianas","Izu, Volcano, and Mariana Islands",15.62,145.57,-230,"Basalt / Picro-Basalt","Subduction zone / Crustal thickness unknown","Holocene",58.4137734146823,-142.100326455377,194.167946699968,145.57,15.62,TRUE
"632",284210,"Esmeralda Bank","United States","Submarine","Unrest / Holocene","Unknown","Japan, Taiwan, Marianas","Izu, Volcano, and Mariana Islands",15,145.25,-43,"Basalt / Picro-Basalt","Subduction zone / Crustal thickness unknown","Holocene",61.3097038148067,-162.673507612158,199.741592402127,145.25,15,TRUE
"633",284211,"NW Rota-1","United States","Submarine","Eruption Observed","2010 CE","Japan, Taiwan, Marianas","Izu, Volcano, and Mariana Islands",14.601,144.775,-517,"Basalt / Picro-Basalt","Subduction zone / Crustal thickness unknown","Holocene",67.577301018405,-224.354130988938,209.820353174598,144.775,14.601,TRUE
"634",284220,"Forecast Seamount","United States","Submarine","Unrest / Holocene","Unknown","Japan, Taiwan, Marianas","Izu, Volcano, and Mariana Islands",13.4,143.92,-1456,"No Data (checked)","Subduction zone / Crustal thickness unknown","Holocene",62.5294253048993,-129.966133151252,240.089304604088,143.92,13.4,TRUE
"635",284230,"Seamount X","United States","Submarine","Unrest / Holocene","Unknown","Japan, Taiwan, Marianas","Izu, Volcano, and Mariana Islands",13.25,144.02,-1230,"Basalt / Picro-Basalt","Subduction zone / Crustal thickness unknown","Holocene",57.5189793926899,-95.1755574846671,240.966812129804,144.02,13.25,TRUE
"636",284305,"Mariana Back-Arc Segment at 15.5Â°N","United States","Submarine","Eruption Dated","2015 CE","Japan, Taiwan, Marianas","Izu, Volcano, and Mariana Islands",15.406,144.506,-4100,"","Subduction zone / Oceanic crust (< 15 km)","Holocene",NA,NA,NA,144.506,15.406,TRUE
"1882",283807,"Yokote","Japan","Pyroclastic cone(s)",NA,NA,"Japan, Taiwan, Marianas","Honshu",35.201,133.267,967,NA,"Subduction zone / Continental crust (>25 km)","Pleistocene",NA,NA,NA,133.267,35.201,TRUE
"1883",283808,"Noro","Japan","Pyroclastic cone",NA,NA,"Japan, Taiwan, Marianas","Honshu",35.41,133.182,180,NA,"Subduction zone / Continental crust (>25 km)","Pleistocene",NA,NA,NA,133.182,35.41,TRUE
"1884",283809,"Daikon-jima","Japan","Pyroclastic cone",NA,NA,"Japan, Taiwan, Marianas","Honshu",35.493,133.174,42,NA,"Subduction zone / Continental crust (>25 km)","Pleistocene",NA,NA,NA,133.174,35.493,TRUE
"1885",283810,"Tsuruta","Japan","Pyroclastic cone(s)",NA,NA,"Japan, Taiwan, Marianas","Honshu",35.338,133.422,301,NA,"Subduction zone / Continental crust (>25 km)","Pleistocene",NA,NA,NA,133.422,35.338,TRUE
"1886",283811,"Daisen","Japan","Stratovolcano",NA,NA,"Japan, Taiwan, Marianas","Honshu",35.368,133.549,1729,NA,"Subduction zone / Continental crust (>25 km)","Pleistocene",NA,NA,NA,133.549,35.368,TRUE
"1887",283812,"Ogino-Sen","Japan","Pyroclastic cone(s)",NA,NA,"Japan, Taiwan, Marianas","Honshu",35.437,134.444,1310,NA,"Subduction zone / Continental crust (>25 km)","Pleistocene",NA,NA,NA,134.444,35.437,TRUE
"1888",283813,"Takara","Japan","Shield",NA,NA,"Japan, Taiwan, Marianas","Honshu",35.343,134.922,350,NA,"Subduction zone / Continental crust (>25 km)","Pleistocene",NA,NA,NA,134.922,35.343,TRUE
"1889",283814,"Nanzaki","Japan","Pyroclastic cone",NA,NA,"Japan, Taiwan, Marianas","Honshu",34.604,138.832,106,NA,"Subduction zone / Continental crust (>25 km)","Pleistocene",39.8968187948322,-152.48045343561,171.304885868275,138.832,34.604,TRUE
"1890",283815,"Jaishi","Japan","Shield",NA,NA,"Japan, Taiwan, Marianas","Honshu",34.71,138.786,520,NA,"Subduction zone / Continental crust (>25 km)","Pleistocene",38.688005660945,-154.30841398038,168.52473619312,138.786,34.71,TRUE
"1891",283816,"Tanaba","Japan","Stratovolcano",NA,NA,"Japan, Taiwan, Marianas","Honshu",34.907,138.852,1035,NA,"Subduction zone / Continental crust (>25 km)","Pleistocene",39.6627769617754,-145.85026544241,165.208175647767,138.852,34.907,TRUE
"1892",283817,"Daruma","Japan","Stratovolcano",NA,NA,"Japan, Taiwan, Marianas","Honshu",34.952,138.843,982,NA,"Subduction zone / Continental crust (>25 km)","Pleistocene",40.0620117347786,-144.620452818744,164.078994739775,138.843,34.952,TRUE
"1893",283818,"Tenshi","Japan","Stratovolcano",NA,NA,"Japan, Taiwan, Marianas","Honshu",34.924,138.968,608,NA,"Subduction zone / Continental crust (>25 km)","Pleistocene",41.6497578229622,-136.577302656574,164.948211655553,138.968,34.924,TRUE
"1894",283819,"Usami","Japan","Stratovolcano",NA,NA,"Japan, Taiwan, Marianas","Honshu",34.968,139.063,592,NA,"Subduction zone / Continental crust (>25 km)","Pleistocene",43.2377497443407,-127.148048332123,163.6825730937,139.063,34.968,TRUE
"1895",283820,"Taga","Japan","Stratovolcano",NA,NA,"Japan, Taiwan, Marianas","Honshu",35.078,139.031,798,NA,"Subduction zone / Continental crust (>25 km)","Pleistocene",NA,NA,NA,139.031,35.078,TRUE
"1896",283821,"Yugawara","Japan","Stratovolcano",NA,NA,"Japan, Taiwan, Marianas","Honshu",35.173,139.029,1004,NA,"Subduction zone / Continental crust (>25 km)","Pleistocene",NA,NA,NA,139.029,35.173,TRUE
"1897",283822,"Ashitaka","Japan","Stratovolcano",NA,NA,"Japan, Taiwan, Marianas","Honshu",35.238,138.794,1504,NA,"Subduction zone / Continental crust (>25 km)","Pleistocene",NA,NA,NA,138.794,35.238,TRUE
"1898",283823,"Kurofuji","Japan","Stratovolcano(es)",NA,NA,"Japan, Taiwan, Marianas","Honshu",35.8,138.513,1764,NA,"Subduction zone / Continental crust (>25 km)","Pleistocene",NA,NA,NA,138.513,35.8,TRUE
"1899",283824,"Yatsugatake","Japan","Stratovolcano(es)",NA,NA,"Japan, Taiwan, Marianas","Honshu",35.968,138.373,2899,NA,"Subduction zone / Continental crust (>25 km)","Pleistocene",NA,NA,NA,138.373,35.968,TRUE
"1902",283827,"Ueno","Japan","Shield",NA,NA,"Japan, Taiwan, Marianas","Honshu",35.59,137.505,606,NA,"Subduction zone / Continental crust (>25 km)","Pleistocene",NA,NA,NA,137.505,35.59,TRUE
"1903",283828,"Yuga-mine","Japan","Lava dome",NA,NA,"Japan, Taiwan, Marianas","Honshu",35.802,137.284,1067,NA,"Subduction zone / Continental crust (>25 km)","Pleistocene",NA,NA,NA,137.284,35.802,TRUE
"1904",283829,"Eboshi-Washigatake","Japan","Stratovolcano",NA,NA,"Japan, Taiwan, Marianas","Honshu",35.937,136.974,1672,NA,"Subduction zone / Continental crust (>25 km)","Pleistocene",NA,NA,NA,136.974,35.937,TRUE
"1905",283830,"Bishamon-dake","Japan","Stratovolcano",NA,NA,"Japan, Taiwan, Marianas","Honshu",35.936,136.795,1386,NA,"Subduction zone / Continental crust (>25 km)","Pleistocene",NA,NA,NA,136.795,35.936,TRUE
"1906",283831,"Dainichiga-take","Japan","Stratovolcano",NA,NA,"Japan, Taiwan, Marianas","Honshu",35.998,136.841,1709,NA,"Subduction zone / Continental crust (>25 km)","Pleistocene",NA,NA,NA,136.841,35.998,TRUE
"1968",283896,"Kannabe","Japan","Shield",NA,NA,"Japan, Taiwan, Marianas","Honshu",35.504,134.678,460,NA,"Subduction zone / Continental crust (>25 km)","Pleistocene",NA,NA,NA,134.678,35.504,TRUE
"1971",284043,"Mikura Seamount","Japan","Submarine",NA,NA,"Japan, Taiwan, Marianas","Izu, Volcano, and Mariana Islands",33.725,139.408,-321,NA,"Subduction zone / Oceanic crust (< 15 km)","Pleistocene",43.2661921035606,-115.014704321802,168.472376515785,139.408,33.725,TRUE
"1972",284086,"Nichiyo Seamount","Japan","Submarine",NA,NA,"Japan, Taiwan, Marianas","Izu, Volcano, and Mariana Islands",29.482,140.327,-1042,NA,"Subduction zone / Crustal thickness unknown","Pleistocene",50.5843895677153,-129.213126188341,153.450190230622,140.327,29.482,TRUE
"1973",284087,"Getsuyo Seamount","Japan","Submarine",NA,NA,"Japan, Taiwan, Marianas","Izu, Volcano, and Mariana Islands",29.306,140.471,-1095,NA,"Subduction zone / Crustal thickness unknown","Pleistocene",51.5042686362593,-125.173095602618,158.27789306823,140.471,29.306,TRUE
"1974",284088,"Kayo Seamount","Japan","Submarine",NA,NA,"Japan, Taiwan, Marianas","Izu, Volcano, and Mariana Islands",29.064,140.537,-814,NA,"Subduction zone / Crustal thickness unknown","Pleistocene",52.8564169088635,-127.531811085765,166.049309616175,140.537,29.064,TRUE
"1975",284089,"Kinyo Seamount","Japan","Submarine",NA,NA,"Japan, Taiwan, Marianas","Izu, Volcano, and Mariana Islands",28.084,140.802,-838,NA,"Subduction zone / Crustal thickness unknown","Pleistocene",47.1252085123261,-107.854275948703,172.459121705658,140.802,28.084,TRUE
"1976",284144,"Kasuga 3","United States","Submarine",NA,NA,"Japan, Taiwan, Marianas","Izu, Volcano, and Mariana Islands",21.399,143.626,-1325,NA,"","Pleistocene",62.8286170865724,-191.060719637903,129.851862596499,143.626,21.399,TRUE
"1977",284145,"Eifuku","United States","Submarine",NA,NA,"Japan, Taiwan, Marianas","Izu, Volcano, and Mariana Islands",21.409,144.161,-551,NA,"","Pleistocene",58.4557435582396,-122.955503531935,132.85450405955,144.161,21.409,TRUE
"1978",284800,"Udonejima","Japan","Stratovolcano",NA,NA,"Japan, Taiwan, Marianas","Izu, Volcano, and Mariana Islands",34.469,139.297,209,NA,"Subduction zone / Oceanic crust (< 15 km)","Pleistocene",41.536796566643,-116.229993130641,176.967783598247,139.297,34.469,TRUE
"1979",284801,"Onoharajima","Japan","Lava dome",NA,NA,"Japan, Taiwan, Marianas","Izu, Volcano, and Mariana Islands",34.045,139.387,114,NA,"Subduction zone / Oceanic crust (< 15 km)","Pleistocene",41.177153256906,-111.410318955418,175.0198923891,139.387,34.045,TRUE
"1980",284802,"Inamba-jima","Japan","Lava dome",NA,NA,"Japan, Taiwan, Marianas","Izu, Volcano, and Mariana Islands",33.648,139.302,74,NA,"Subduction zone / Oceanic crust (< 15 km)","Pleistocene",45.0229644669752,-125.325866629525,167.423355109588,139.302,33.648,TRUE
"1981",284803,"Tracey Seamount","United States","Submarine",NA,NA,"Japan, Taiwan, Marianas","Izu, Volcano, and Mariana Islands",13.65,144.42,-900,NA,"Subduction zone / Crustal thickness unknown","Pleistocene",61.2285741186953,-121.831576049917,235.888641343114,144.42,13.65,TRUE
