"","volcano.number","volcano.name","country","primary.volcano.type","activity.evidence","last.known.eruption","region","subregion","lat","long","elevation..m.","dominant.rock.type","tectonic.setting","file","slab.dip","slab.depth","slab.strike","mx","my","optional"
"541",283001,"Abu","Japan","Shield(s)","Eruption Dated","6850 BCE","Japan, Taiwan, Marianas","Honshu",34.5,131.6,641,"Andesite / Basaltic Andesite","Subduction zone / Continental crust (>25 km)","Holocene",NA,NA,NA,131.6,34.5,TRUE
"542",283002,"Sanbesan","Japan","Stratovolcano","Eruption Dated","650 CE","Japan, Taiwan, Marianas","Honshu",35.141,132.622,1126,"Dacite","Subduction zone / Continental crust (>25 km)","Holocene",NA,NA,NA,132.622,35.141,TRUE
"543",283003,"Oki-Dogo","Japan","Shield","Evidence Credible","Unknown","Japan, Taiwan, Marianas","Honshu",36.176,133.334,151,"Basalt / Picro-Basalt","Subduction zone / Continental crust (>25 km)","Holocene",24.2022686004639,-413.705963134766,175.491882324219,133.334,36.176,TRUE
"544",283010,"Izu-Tobu","Japan","Pyroclastic cone(s)","Eruption Observed","1989 CE","Japan, Taiwan, Marianas","Honshu",34.9,139.098,1406,"Basalt / Picro-Basalt","Subduction zone / Continental crust (>25 km)","Holocene",NA,NA,NA,139.098,34.9,TRUE
"545",283020,"Hakoneyama","Japan","Complex","Eruption Dated","2015 CE","Japan, Taiwan, Marianas","Honshu",35.233,139.021,1438,"Andesite / Basaltic Andesite","Subduction zone / Continental crust (>25 km)","Holocene",39.3925514221191,-116.298614501953,166.835174560547,139.021,35.233,TRUE
"546",283030,"Fujisan","Japan","Stratovolcano","Eruption Observed","1708 CE","Japan, Taiwan, Marianas","Honshu",35.361,138.728,3776,"Basalt / Picro-Basalt","Subduction zone / Continental crust (>25 km)","Holocene",40.6041297912598,-134.662399291992,167.598388671875,138.728,35.361,TRUE
"547",283031,"Yokodake","Japan","Stratovolcano(es)","Eruption Dated","1200 CE","Japan, Taiwan, Marianas","Honshu",36.087,138.32,2480,"Andesite / Basaltic Andesite","Subduction zone / Continental crust (>25 km)","Holocene",36.9523086547852,-159.735641479492,182.145706176758,138.32,36.087,TRUE
"548",283040,"Ontakesan","Japan","Complex","Eruption Observed","2014 CE","Japan, Taiwan, Marianas","Honshu",35.893,137.48,3067,"Andesite / Basaltic Andesite","Subduction zone / Continental crust (>25 km)","Holocene",34.6999320983887,-218.254623413086,164.901641845703,137.48,35.893,TRUE
"549",283050,"Hakusan","Japan","Stratovolcano","Eruption Observed","1659 CE","Japan, Taiwan, Marianas","Honshu",36.155,136.771,2702,"Andesite / Basaltic Andesite","Subduction zone / Continental crust (>25 km)","Holocene",31.1604328155518,-253.194488525391,170.564193725586,136.771,36.155,TRUE
"550",283060,"Norikuradake","Japan","Stratovolcano(es)","Eruption Dated","50 BCE","Japan, Taiwan, Marianas","Honshu",36.106,137.554,3026,"Andesite / Basaltic Andesite","Subduction zone / Continental crust (>25 km)","Holocene",34.336612701416,-210.809005737305,169.349273681641,137.554,36.106,TRUE
"551",283069,"Akandanayama","Japan","Stratovolcano","Evidence Credible","Unknown","Japan, Taiwan, Marianas","Honshu",36.2,137.573,2109,"","","Holocene",33.920223236084,-208.550888061523,171.5048828125,137.573,36.2,TRUE
"552",283070,"Yakedake","Japan","Stratovolcano(es)","Eruption Observed","1995 CE","Japan, Taiwan, Marianas","Honshu",36.227,137.587,2455,"Andesite / Basaltic Andesite","Subduction zone / Continental crust (>25 km)","Holocene",33.8654899597168,-207.213943481445,172.308120727539,137.587,36.227,TRUE
"553",283071,"Washiba-Kumonotaira","Japan","Shield(s)","Evidence Credible","Unknown","Japan, Taiwan, Marianas","Honshu",36.408,137.594,2924,"Andesite / Basaltic Andesite","Subduction zone / Continental crust (>25 km)","Holocene",33.1756744384766,-204.92578125,175.433135986328,137.594,36.408,TRUE
"554",283080,"Midagahara","Japan","Stratovolcano","Eruption Observed","1839 CE","Japan, Taiwan, Marianas","Honshu",36.571,137.59,2621,"Andesite / Basaltic Andesite","Subduction zone / Continental crust (>25 km)","Holocene",32.5419692993164,-205.203826904297,177.943069458008,137.59,36.571,TRUE
"555",283090,"Niigata-Yakeyama","Japan","Lava dome","Eruption Observed","1998 CE","Japan, Taiwan, Marianas","Honshu",36.921,138.036,2400,"Andesite / Basaltic Andesite","Subduction zone / Continental crust (>25 km)","Holocene",32.1288261413574,-180.412811279297,184.915390014648,138.036,36.921,TRUE
"556",283100,"Myokosan","Japan","Stratovolcano","Eruption Dated","750 BCE","Japan, Taiwan, Marianas","Honshu",36.891,138.114,2454,"Andesite / Basaltic Andesite","Subduction zone / Continental crust (>25 km)","Holocene",32.2417640686035,-175.562210083008,185.159805297852,138.114,36.891,TRUE
"557",283110,"Asamayama","Japan","Complex","Eruption Observed","2019 CE","Japan, Taiwan, Marianas","Honshu",36.406,138.523,2568,"Andesite / Basaltic Andesite","Subduction zone / Continental crust (>25 km)","Holocene",34.0339469909668,-149.148483276367,186.600402832031,138.523,36.406,TRUE
"558",283120,"Kusatsu-Shiranesan","Japan","Stratovolcano(es)","Eruption Observed","2018 CE","Japan, Taiwan, Marianas","Honshu",36.618,138.528,2165,"Andesite / Basaltic Andesite","Subduction zone / Continental crust (>25 km)","Holocene",32.8860206604004,-150.023315429688,186.882904052734,138.528,36.618,TRUE
"559",283121,"Shiga","Japan","Shield(s)","Evidence Uncertain","Unknown","Japan, Taiwan, Marianas","Honshu",36.688,138.519,2041,"Andesite / Basaltic Andesite","Subduction zone / Continental crust (>25 km)","Holocene",32.6342277526855,-151.545394897461,186.941619873047,138.519,36.688,TRUE
"560",283122,"Harunasan","Japan","Stratovolcano","Eruption Dated","550 CE","Japan, Taiwan, Marianas","Honshu",36.477,138.851,1449,"Andesite / Basaltic Andesite","Subduction zone / Continental crust (>25 km)","Holocene",32.7265701293945,-130.571075439453,190.158599853516,138.851,36.477,TRUE
"561",283130,"Akagisan","Japan","Stratovolcano","Evidence Uncertain","Unknown","Japan, Taiwan, Marianas","Honshu",36.56,139.193,1828,"Andesite / Basaltic Andesite","Subduction zone / Continental crust (>25 km)","Holocene",30.5036926269531,-112.857475280762,193.696655273438,139.193,36.56,TRUE
"562",283131,"Hiuchigatake","Japan","Stratovolcano","Eruption Observed","1544 CE","Japan, Taiwan, Marianas","Honshu",36.955,139.285,2356,"Andesite / Basaltic Andesite","Subduction zone / Continental crust (>25 km)","Holocene",29.0526466369629,-114.472915649414,194.285949707031,139.285,36.955,TRUE
"563",283140,"Nikko-Shiranesan","Japan","Shield","Eruption Observed","1952 CE","Japan, Taiwan, Marianas","Honshu",36.799,139.376,2578,"Andesite / Basaltic Andesite","Subduction zone / Continental crust (>25 km)","Holocene",28.6463985443115,-107.442230224609,194.611419677734,139.376,36.799,TRUE
"564",283141,"Nantaisan","Japan","Stratovolcano","Eruption Dated","9540 BCE","Japan, Taiwan, Marianas","Honshu",36.765,139.491,2486,"Andesite / Basaltic Andesite","Subduction zone / Continental crust (>25 km)","Holocene",28.0006847381592,-102.287887573242,195.386276245117,139.491,36.765,TRUE
"565",283142,"Omanago Group","Japan","Lava dome(s)","Eruption Dated","3050 BCE","Japan, Taiwan, Marianas","Honshu",36.795,139.507,2341,"Dacite","Subduction zone / Continental crust (>25 km)","Holocene",27.8447589874268,-102.047721862793,195.48046875,139.507,36.795,TRUE
"566",283143,"Takaharayama","Japan","Stratovolcano","Eruption Dated","4570 BCE","Japan, Taiwan, Marianas","Honshu",36.9,139.777,1795,"Andesite / Basaltic Andesite","Subduction zone / Continental crust (>25 km)","Holocene",25.7467842102051,-91.4297637939453,197.387573242188,139.777,36.9,TRUE
"567",283150,"Nasudake","Japan","Stratovolcano(es)","Eruption Observed","1963 CE","Japan, Taiwan, Marianas","Honshu",37.125,139.963,1915,"Andesite / Basaltic Andesite","Subduction zone / Continental crust (>25 km)","Holocene",24.6664295196533,-87.6661605834961,198.721923828125,139.963,37.125,TRUE
"568",283151,"Numazawa","Japan","Shield","Eruption Dated","3400 BCE","Japan, Taiwan, Marianas","Honshu",37.444,139.566,835,"Dacite","Subduction zone / Continental crust (>25 km)","Holocene",27.499361038208,-109.912940979004,197.963317871094,139.566,37.444,TRUE
"569",283160,"Bandaisan","Japan","Stratovolcano","Eruption Observed","1888 CE","Japan, Taiwan, Marianas","Honshu",37.601,140.072,1816,"Andesite / Basaltic Andesite","Subduction zone / Continental crust (>25 km)","Holocene",24.9942874908447,-91.9517517089844,199.274291992188,140.072,37.601,TRUE
"570",283170,"Adatarayama","Japan","Stratovolcano(es)","Eruption Observed","1996 CE","Japan, Taiwan, Marianas","Honshu",37.647,140.281,1728,"Andesite / Basaltic Andesite","Subduction zone / Continental crust (>25 km)","Holocene",23.8062152862549,-84.6158905029297,199.29963684082,140.281,37.647,TRUE
"571",283180,"Azumayama","Japan","Stratovolcano(es)","Eruption Observed","1977 CE","Japan, Taiwan, Marianas","Honshu",37.735,140.244,1949,"Andesite / Basaltic Andesite","Subduction zone / Continental crust (>25 km)","Holocene",24.2366847991943,-87.2062301635742,199.113662719727,140.244,37.735,TRUE
"572",283190,"Zaozan [Zaosan]","Japan","Complex","Eruption Observed","1940 CE","Japan, Taiwan, Marianas","Honshu",38.144,140.44,1841,"Andesite / Basaltic Andesite","Subduction zone / Continental crust (>25 km)","Holocene",24.3267574310303,-86.9164810180664,197.453414916992,140.44,38.144,TRUE
"573",283191,"Hijiori","Japan","Caldera","Evidence Credible","Unknown","Japan, Taiwan, Marianas","Honshu",38.599,140.162,552,"Dacite","Subduction zone / Continental crust (>25 km)","Holocene",26.7783737182617,-104.424987792969,195.49787902832,140.162,38.599,TRUE
"574",283200,"Naruko","Japan","Caldera","Eruption Observed","837 CE","Japan, Taiwan, Marianas","Honshu",38.729,140.734,470,"Rhyolite","Subduction zone / Continental crust (>25 km)","Holocene",24.1073398590088,-83.5091094970703,193.888854980469,140.734,38.729,TRUE
"575",283210,"Kurikomayama","Japan","Stratovolcano","Eruption Observed","1950 CE","Japan, Taiwan, Marianas","Honshu",38.961,140.788,1627,"Andesite / Basaltic Andesite","Subduction zone / Continental crust (>25 km)","Holocene",24.3129653930664,-84.2748794555664,192.481491088867,140.788,38.961,TRUE
"576",283220,"Chokaisan","Japan","Stratovolcano(es)","Eruption Observed","1974 CE","Japan, Taiwan, Marianas","Honshu",39.099,140.049,2236,"Andesite / Basaltic Andesite","Subduction zone / Continental crust (>25 km)","Holocene",28.0083255767822,-116.46556854248,192.294952392578,140.049,39.099,TRUE
"577",283230,"Akita-Komagatake","Japan","Stratovolcano(es)","Eruption Observed","1971 CE","Japan, Taiwan, Marianas","Honshu",39.761,140.799,1637,"Basalt / Picro-Basalt","Subduction zone / Continental crust (>25 km)","Holocene",25.1824588775635,-90.8782119750977,187.985107421875,140.799,39.761,TRUE
"578",283240,"Iwatesan","Japan","Complex","Eruption Observed","1919 CE","Japan, Taiwan, Marianas","Honshu",39.853,141.001,2038,"Basalt / Picro-Basalt","Subduction zone / Continental crust (>25 km)","Holocene",24.0818214416504,-83.7061767578125,187.916641235352,141.001,39.853,TRUE
"579",283250,"Hachimantai","Japan","Stratovolcano","Eruption Dated","5350 BCE","Japan, Taiwan, Marianas","Honshu",39.958,140.854,1613,"Andesite / Basaltic Andesite","Subduction zone / Continental crust (>25 km)","Holocene",24.9617328643799,-90.1621170043945,187.263061523438,140.854,39.958,TRUE
"580",283260,"Akita-Yakeyama","Japan","Stratovolcano","Eruption Observed","1997 CE","Japan, Taiwan, Marianas","Honshu",39.964,140.757,1366,"Andesite / Basaltic Andesite","Subduction zone / Continental crust (>25 km)","Holocene",25.528112411499,-94.257568359375,187.025466918945,140.757,39.964,TRUE
"581",283262,"Megata","Japan","Maar(s)","Eruption Dated","2050 BCE","Japan, Taiwan, Marianas","Honshu",39.95,139.73,291,"Andesite / Basaltic Andesite","Subduction zone / Continental crust (>25 km)","Holocene",29.3691368103027,-139.573669433594,186.480728149414,139.73,39.95,TRUE
"582",283270,"Iwakisan","Japan","Stratovolcano","Eruption Observed","1863 CE","Japan, Taiwan, Marianas","Honshu",40.656,140.303,1625,"Andesite / Basaltic Andesite","Subduction zone / Continental crust (>25 km)","Holocene",27.7246494293213,-117.13151550293,184.86213684082,140.303,40.656,TRUE
"583",283271,"Towada","Japan","Caldera","Eruption Observed","915 CE","Japan, Taiwan, Marianas","Honshu",40.51,140.88,1011,"Andesite / Basaltic Andesite","Subduction zone / Continental crust (>25 km)","Holocene",24.6286544799805,-92.2335968017578,186.527648925781,140.88,40.51,TRUE
"584",283280,"Hakkodasan","Japan","Stratovolcano(es)","Eruption Dated","1550 CE","Japan, Taiwan, Marianas","Honshu",40.659,140.877,1585,"Andesite / Basaltic Andesite","Subduction zone / Continental crust (>25 km)","Holocene",24.530574798584,-93.1218032836914,186.907516479492,140.877,40.659,TRUE
"585",283290,"Osorezan","Japan","Stratovolcano","Eruption Observed","1787 CE","Japan, Taiwan, Marianas","Honshu",41.279,141.12,878,"Andesite / Basaltic Andesite","Subduction zone / Continental crust (>25 km)","Holocene",22.7486171722412,-89.7626419067383,194.124160766602,141.12,41.279,TRUE
"586",284010,"Izu-Oshima","Japan","Stratovolcano","Eruption Observed","1990 CE","Japan, Taiwan, Marianas","Izu, Volcano, and Mariana Islands",34.724,139.394,758,"Basalt / Picro-Basalt","Subduction zone / Oceanic crust (< 15 km)","Holocene",NA,NA,NA,139.394,34.724,TRUE
"587",284011,"Toshima","Japan","Stratovolcano","Eruption Dated","4550 BCE","Japan, Taiwan, Marianas","Izu, Volcano, and Mariana Islands",34.52,139.279,508,"Basalt / Picro-Basalt","Subduction zone / Oceanic crust (< 15 km)","Holocene",NA,NA,NA,139.279,34.52,TRUE
"588",284020,"Niijima","Japan","Lava dome(s)","Eruption Observed","886 CE","Japan, Taiwan, Marianas","Izu, Volcano, and Mariana Islands",34.397,139.27,432,"Rhyolite","Subduction zone / Oceanic crust (< 15 km)","Holocene",NA,NA,NA,139.27,34.397,TRUE
"589",284030,"Kozushima","Japan","Lava dome(s)","Eruption Observed","838 CE","Japan, Taiwan, Marianas","Izu, Volcano, and Mariana Islands",34.219,139.153,572,"Rhyolite","Subduction zone / Oceanic crust (< 15 km)","Holocene",NA,NA,NA,139.153,34.219,TRUE
"590",284040,"Miyakejima","Japan","Stratovolcano","Eruption Observed","2010 CE","Japan, Taiwan, Marianas","Izu, Volcano, and Mariana Islands",34.094,139.526,775,"Basalt / Picro-Basalt","Subduction zone / Oceanic crust (< 15 km)","Holocene",NA,NA,NA,139.526,34.094,TRUE
"637",285010,"Oshima-Oshima","Japan","Stratovolcano","Eruption Observed","1790 CE","Japan, Taiwan, Marianas","Hokkaido",41.51,139.367,732,"Basalt / Picro-Basalt","Subduction zone / Continental crust (>25 km)","Holocene",29.3010406494141,-164.540481567383,184.942153930664,139.367,41.51,TRUE
"638",285011,"Esan","Japan","Lava dome(s)","Eruption Observed","1874 CE","Japan, Taiwan, Marianas","Hokkaido",41.805,141.166,618,"Andesite / Basaltic Andesite","Subduction zone / Continental crust (>25 km)","Holocene",22.9089202880859,-96.0495910644531,205.209884643555,141.166,41.805,TRUE
"639",285020,"Hokkaido-Komagatake","Japan","Stratovolcano","Eruption Observed","2000 CE","Japan, Taiwan, Marianas","Hokkaido",42.063,140.677,1131,"Andesite / Basaltic Andesite","Subduction zone / Continental crust (>25 km)","Holocene",24.7313442230225,-117.75016784668,206.252548217773,140.677,42.063,TRUE
"640",285030,"Toya","Japan","Stratovolcano","Eruption Observed","2001 CE","Japan, Taiwan, Marianas","Hokkaido",42.544,140.839,733,"Basalt / Picro-Basalt","Subduction zone / Continental crust (>25 km)","Holocene",25.0647830963135,-126.630363464355,220.499404907227,140.839,42.544,TRUE
"641",285031,"Niseko","Japan","Stratovolcano(es)","Eruption Dated","4900 BCE","Japan, Taiwan, Marianas","Hokkaido",42.875,140.659,1308,"Andesite / Basaltic Andesite","Subduction zone / Continental crust (>25 km)","Holocene",25.1460781097412,-142.644653320312,226.331390380859,140.659,42.875,TRUE
"642",285032,"Yoteizan","Japan","Stratovolcano","Eruption Dated","1050 BCE","Japan, Taiwan, Marianas","Hokkaido",42.827,140.812,1888,"Andesite / Basaltic Andesite","Subduction zone / Continental crust (>25 km)","Holocene",25.4711399078369,-137.4052734375,227.14453125,140.812,42.827,TRUE
"643",285034,"Kuttara","Japan","Stratovolcano(es)","Eruption Dated","1820 CE","Japan, Taiwan, Marianas","Hokkaido",42.491,141.16,549,"Basalt / Picro-Basalt","Subduction zone / Continental crust (>25 km)","Holocene",24.9883556365967,-114.77702331543,222.488876342773,141.16,42.491,TRUE
"644",285040,"Shikotsu","Japan","Caldera","Eruption Observed","1979 CE","Japan, Taiwan, Marianas","Hokkaido",42.688,141.38,1320,"Andesite / Basaltic Andesite","Subduction zone / Continental crust (>25 km)","Holocene",25.8680648803711,-116.486801147461,228.999328613281,141.38,42.688,TRUE
"645",285041,"Rishirizan","Japan","Stratovolcano","Eruption Dated","5830 BCE","Japan, Taiwan, Marianas","Hokkaido",45.179,141.242,1721,"Andesite / Basaltic Andesite","Subduction zone / Continental crust (>25 km)","Holocene",31.9066734313965,-254.235687255859,255.349594116211,141.242,45.179,TRUE
"646",285050,"Tokachidake","Japan","Stratovolcano(es)","Eruption Observed","2004 CE","Japan, Taiwan, Marianas","Hokkaido",43.418,142.686,2077,"Andesite / Basaltic Andesite","Subduction zone / Continental crust (>25 km)","Holocene",30.5267696380615,-124.962707519531,245.461044311523,142.686,43.418,TRUE
"647",285060,"Taisetsuzan","Japan","Stratovolcano(es)","Eruption Dated","1739 CE","Japan, Taiwan, Marianas","Hokkaido",43.664,142.854,2291,"Andesite / Basaltic Andesite","Subduction zone / Continental crust (>25 km)","Holocene",31.4096431732178,-137.024337768555,247.075469970703,142.854,43.664,TRUE
"648",285061,"Maruyama","Japan","Stratovolcano(es)","Eruption Observed","1898 CE","Japan, Taiwan, Marianas","Hokkaido",43.418,143.031,2013,"Andesite / Basaltic Andesite","Subduction zone / Continental crust (>25 km)","Holocene",30.8838157653809,-118.005081176758,245.43424987793,143.031,43.418,TRUE
"649",285070,"Akan","Japan","Caldera","Eruption Observed","2008 CE","Japan, Taiwan, Marianas","Hokkaido",43.384,144.013,1499,"Andesite / Basaltic Andesite","Subduction zone / Continental crust (>25 km)","Holocene",33.4045524597168,-93.0095443725586,239.255935668945,144.013,43.384,TRUE
"650",285080,"Kussharo","Japan","Caldera","Eruption Dated","1320 CE","Japan, Taiwan, Marianas","Hokkaido",43.615,144.427,574,"Dacite","Subduction zone / Continental crust (>25 km)","Holocene",35.543888092041,-97.7734222412109,244.09440612793,144.427,43.615,TRUE
"651",285081,"Mashu","Japan","Caldera","Eruption Dated","1080 CE","Japan, Taiwan, Marianas","Hokkaido",43.572,144.561,857,"Andesite / Basaltic Andesite","Subduction zone / Continental crust (>25 km)","Holocene",35.069709777832,-90.8970260620117,243.953598022461,144.561,43.572,TRUE
"652",285082,"Rausudake","Japan","Stratovolcano","Eruption Dated","1800 CE","Japan, Taiwan, Marianas","Hokkaido",44.076,145.122,1660,"Andesite / Basaltic Andesite","Subduction zone / Continental crust (>25 km)","Holocene",37.5848045349121,-115.830619812012,245.277847290039,145.122,44.076,TRUE
"653",285083,"Tenchozan","Japan","Crater rows","Eruption Dated","Unknown","Japan, Taiwan, Marianas","Hokkaido",44.044,145.086,1046,"","","Holocene",37.5463943481445,-114.09644317627,245.246170043945,145.086,44.044,TRUE
"654",285090,"Shiretoko-Iozan","Japan","Stratovolcano","Eruption Observed","1936 CE","Japan, Taiwan, Marianas","Hokkaido",44.133,145.161,1562,"Andesite / Basaltic Andesite","Subduction zone / Continental crust (>25 km)","Holocene",37.6280288696289,-118.437622070312,245.320877075195,145.161,44.133,TRUE
"655",290010,"Tomariyama [Golovnin]","Japan - administered by Russia","Caldera","Eruption Observed","1848 CE","Kuril Islands","Kuril Islands",43.844,145.504,535,"Andesite / Basaltic Andesite","Subduction zone / Intermediate crust (15-25 km)","Holocene",35.6604194641113,-88.5548324584961,245.783798217773,145.504,43.844,TRUE
"656",290020,"Raususan [Mendeleev]","Japan - administered by Russia","Stratovolcano","Eruption Observed","1880 CE","Kuril Islands","Kuril Islands",43.979,145.733,882,"Andesite / Basaltic Andesite","Subduction zone / Intermediate crust (15-25 km)","Holocene",35.9718704223633,-92.7494812011719,245.077926635742,145.733,43.979,TRUE
"657",290021,"Ruruidake [Smirnov]","Japan - administered by Russia","Stratovolcano","Evidence Credible","Unknown","Kuril Islands","Kuril Islands",44.454,146.139,1486,"Andesite / Basaltic Andesite","Subduction zone / Intermediate crust (15-25 km)","Holocene",37.2788772583008,-114.531890869141,234.226028442383,146.139,44.454,TRUE
"658",290030,"Chachadake [Tiatia]","Japan - administered by Russia","Stratovolcano","Eruption Observed","1981 CE","Kuril Islands","Kuril Islands",44.353,146.252,1822,"Basalt / Picro-Basalt","Subduction zone / Intermediate crust (15-25 km)","Holocene",37.0693702697754,-103.561729431152,233.673843383789,146.252,44.353,TRUE
"659",290040,"Berutarubesan [Berutarube]","Japan - administered by Russia","Stratovolcano","Evidence Credible","Unknown","Kuril Islands","Kuril Islands",44.462,146.932,1221,"Andesite / Basaltic Andesite","Subduction zone / Intermediate crust (15-25 km)","Holocene",36.0634269714355,-85.9796142578125,232.478210449219,146.932,44.462,TRUE
"660",290041,"Moekeshiwan [Lvinaya Past]","Japan - administered by Russia","Stratovolcano","Eruption Dated","7480 BCE","Kuril Islands","Kuril Islands",44.608,146.994,528,"Andesite / Basaltic Andesite","Subduction zone / Intermediate crust (15-25 km)","Holocene",36.7250823974609,-92.3929061889648,233.905883789062,146.994,44.608,TRUE
"661",290050,"Etorofu-Atosanupuri [Atosanupuri]","Japan - administered by Russia","Stratovolcano","Eruption Observed","1932 CE","Kuril Islands","Kuril Islands",44.808,147.131,1206,"Andesite / Basaltic Andesite","Subduction zone / Intermediate crust (15-25 km)","Holocene",37.331714630127,-101.592758178711,235.976699829102,147.131,44.808,TRUE
"662",290060,"Nishihitokappuyama [Bogatyr Ridge]","Japan - administered by Russia","Stratovolcano","Evidence Credible","Unknown","Kuril Islands","Kuril Islands",44.833,147.342,1634,"Andesite / Basaltic Andesite","Subduction zone / Intermediate crust (15-25 km)","Holocene",37.5845565795898,-96.6869583129883,236.313171386719,147.342,44.833,TRUE
"663",290061,"Unnamed","Japan - administered by Russia","Submarine","Evidence Uncertain","Unknown","Kuril Islands","Kuril Islands",45.022,147.019,-195,"No Data (checked)","Subduction zone / Intermediate crust (15-25 km)","Holocene",36.8986358642578,-120.715446472168,236.780990600586,147.019,45.022,TRUE
"664",290070,"Etorofu-Yakeyama [Grozny Group]","Japan - administered by Russia","Complex(es)","Eruption Observed","2013 CE","Kuril Islands","Kuril Islands",45.012,147.871,1158,"Andesite / Basaltic Andesite","Subduction zone / Intermediate crust (15-25 km)","Holocene",38.9142913818359,-92.3130493164062,236.912719726562,147.871,45.012,TRUE
"665",290072,"Odamoisan [Tebenkov]","Japan - administered by Russia","Stratovolcano","Evidence Uncertain","Unknown","Kuril Islands","Kuril Islands",45.028,147.918,1208,"","Subduction zone / Intermediate crust (15-25 km)","Holocene",39.0278396606445,-91.8416061401367,237.1630859375,147.918,45.028,TRUE
"666",290080,"Sashiusudake [Baransky]","Japan - administered by Russia","Stratovolcano","Eruption Observed","1951 CE","Kuril Islands","Kuril Islands",45.1,148.019,1125,"Andesite / Basaltic Andesite","Subduction zone / Intermediate crust (15-25 km)","Holocene",39.3578987121582,-93.5111694335938,238.056365966797,148.019,45.1,TRUE
"667",290090,"Chirippusan [Chirip]","Japan - administered by Russia","Stratovolcano(es)","Eruption Observed","1860 CE","Kuril Islands","Kuril Islands",45.338,147.92,1587,"Basalt / Picro-Basalt","Subduction zone / Intermediate crust (15-25 km)","Holocene",38.9804916381836,-115.018920898438,240.014038085938,147.92,45.338,TRUE
"668",290091,"Rucharuyama [Golets-Tornyi Group]","Japan - administered by Russia","Pyroclastic cone(s)","Evidence Uncertain","Unknown","Kuril Islands","Kuril Islands",45.25,148.35,442,"Andesite / Basaltic Andesite","Subduction zone / Intermediate crust (15-25 km)","Holocene",40.3717803955078,-94.2842407226562,239.967254638672,148.35,45.25,TRUE
"669",290100,"Moyorodake [Medvezhia]","Japan - administered by Russia","Stratovolcano","Eruption Observed","1999 CE","Kuril Islands","Kuril Islands",45.389,148.838,1124,"Andesite / Basaltic Andesite","Subduction zone / Intermediate crust (15-25 km)","Holocene",41.2080764770508,-88.844352722168,238.917495727539,148.838,45.389,TRUE
"670",290110,"Rakkibetsudake [Demon]","Japan - administered by Russia","Stratovolcano","Evidence Credible","Unknown","Kuril Islands","Kuril Islands",45.5,148.85,1205,"No Data (checked)","Subduction zone / Intermediate crust (15-25 km)","Holocene",41.4766082763672,-98.02880859375,238.610214233398,148.85,45.5,TRUE
"671",290111,"Ivao Group","Russia","Pyroclastic cone(s)","Evidence Credible","Unknown","Kuril Islands","Kuril Islands",45.77,149.68,1426,"No Data (checked)","Subduction zone / Intermediate crust (15-25 km)","Holocene",41.6329231262207,-87.997314453125,233.621978759766,149.68,45.77,TRUE
"672",290112,"Rudakov","Russia","Stratovolcano","Evidence Uncertain","Unknown","Kuril Islands","Kuril Islands",45.874,149.819,532,"Andesite / Basaltic Andesite","Subduction zone / Intermediate crust (15-25 km)","Holocene",41.809741973877,-90.3507080078125,232.138519287109,149.819,45.874,TRUE
"673",290113,"Tri Sestry","Russia","Stratovolcano","Evidence Uncertain","Unknown","Kuril Islands","Kuril Islands",45.93,149.92,998,"Andesite / Basaltic Andesite","Subduction zone / Intermediate crust (15-25 km)","Holocene",41.9263191223145,-91.2372970581055,230.883865356445,149.92,45.93,TRUE
"674",290120,"Kolokol Group","Russia","Stratovolcano","Eruption Observed","1973 CE","Kuril Islands","Kuril Islands",46.042,150.083,1328,"Andesite / Basaltic Andesite","Subduction zone / Intermediate crust (15-25 km)","Holocene",42.1472282409668,-92.653938293457,228.542495727539,150.083,46.042,TRUE
"675",290150,"Chirpoi","Russia","Caldera","Eruption Observed","2016 CE","Kuril Islands","Kuril Islands",46.532,150.871,742,"Andesite / Basaltic Andesite","Subduction zone / Oceanic crust (< 15 km)","Holocene",40.8816909790039,-89.497184753418,225.602294921875,150.871,46.532,TRUE
"676",290160,"Unnamed","Russia","Submarine","Eruption Dated","1972 CE","Kuril Islands","Kuril Islands",46.47,151.28,-502,"No Data (checked)","Subduction zone / Oceanic crust (< 15 km)","Holocene",36.5069160461426,-67.5585250854492,226.903656005859,151.28,46.47,TRUE
"677",290161,"Milna","Russia","Stratovolcano","Eruption Observed","1914 CE","Kuril Islands","Kuril Islands",46.815,151.786,1504,"Andesite / Basaltic Andesite","Subduction zone / Oceanic crust (< 15 km)","Holocene",37.2759284973145,-67.9735641479492,222.882293701172,151.786,46.815,TRUE
"678",290180,"Zavaritzki Caldera","Russia","Caldera","Eruption Observed","1957 CE","Kuril Islands","Kuril Islands",46.925,151.95,624,"Andesite / Basaltic Andesite","Subduction zone / Oceanic crust (< 15 km)","Holocene",37.4981689453125,-66.514518737793,221.660766601562,151.95,46.925,TRUE
"679",290190,"Prevo Peak","Russia","Stratovolcano","Eruption Observed","1825 CE","Kuril Islands","Kuril Islands",47.02,152.12,1360,"Basalt / Picro-Basalt","Subduction zone / Oceanic crust (< 15 km)","Holocene",37.6471176147461,-64.8504333496094,221.068420410156,152.12,47.02,TRUE
"680",290191,"Uratman","Russia","Stratovolcano","Evidence Credible","Unknown","Kuril Islands","Kuril Islands",47.12,152.25,678,"Andesite / Basaltic Andesite","Subduction zone / Oceanic crust (< 15 km)","Holocene",37.913745880127,-64.6250839233398,221.359420776367,152.25,47.12,TRUE
"681",290200,"Ketoi","Russia","Stratovolcano","Eruption Observed","1960 CE","Kuril Islands","Kuril Islands",47.35,152.475,1172,"Andesite / Basaltic Andesite","Subduction zone / Oceanic crust (< 15 km)","Holocene",38.8714179992676,-68.847282409668,223.066467285156,152.475,47.35,TRUE
"682",290210,"Ushishur","Russia","Caldera","Eruption Observed","1884 CE","Kuril Islands","Kuril Islands",47.52,152.8,401,"Andesite / Basaltic Andesite","Subduction zone / Oceanic crust (< 15 km)","Holocene",37.812629699707,-64.4878005981445,222.964569091797,152.8,47.52,TRUE
"683",290211,"Srednii","Russia","Submarine","Evidence Credible","Unknown","Kuril Islands","Kuril Islands",47.6,152.92,36,"No Data (checked)","Subduction zone / Oceanic crust (< 15 km)","Holocene",37.7570037841797,-64.3193817138672,221.706344604492,152.92,47.6,TRUE
"684",290220,"Rasshua","Russia","Stratovolcano","Eruption Observed","1957 CE","Kuril Islands","Kuril Islands",47.77,153.02,956,"Andesite / Basaltic Andesite","Subduction zone / Oceanic crust (< 15 km)","Holocene",38.6552429199219,-69.3071670532227,219.153335571289,153.02,47.77,TRUE
"685",290240,"Sarychev Peak","Russia","Stratovolcano","Eruption Observed","2019 CE","Kuril Islands","Kuril Islands",48.092,153.2,1496,"Andesite / Basaltic Andesite","Subduction zone / Intermediate crust (15-25 km)","Holocene",39.9438400268555,-78.5931854248047,215.084579467773,153.2,48.092,TRUE
"686",290250,"Raikoke","Russia","Stratovolcano","Eruption Observed","2019 CE","Kuril Islands","Kuril Islands",48.292,153.25,551,"Basalt / Picro-Basalt","Subduction zone / Intermediate crust (15-25 km)","Holocene",40.611873626709,-86.6797027587891,213.963470458984,153.25,48.292,TRUE
"687",290260,"Chirinkotan","Russia","Stratovolcano","Eruption Observed","2017 CE","Kuril Islands","Kuril Islands",48.98,153.48,724,"Andesite / Basaltic Andesite","Subduction zone / Intermediate crust (15-25 km)","Holocene",40.8128623962402,-110.200050354004,212.997634887695,153.48,48.98,TRUE
"688",290270,"Ekarma","Russia","Stratovolcano","Eruption Observed","2010 CE","Kuril Islands","Kuril Islands",48.958,153.93,1170,"Andesite / Basaltic Andesite","Subduction zone / Intermediate crust (15-25 km)","Holocene",38.4876174926758,-85.9205169677734,215.504119873047,153.93,48.958,TRUE
"689",290290,"Sinarka","Russia","Stratovolcano","Eruption Observed","1878 CE","Kuril Islands","Kuril Islands",48.873,154.182,911,"Andesite / Basaltic Andesite","Subduction zone / Intermediate crust (15-25 km)","Holocene",36.8841400146484,-70.2951126098633,217.109405517578,154.182,48.873,TRUE
"690",290300,"Kharimkotan","Russia","Stratovolcano","Eruption Observed","1933 CE","Kuril Islands","Kuril Islands",49.12,154.508,1145,"Andesite / Basaltic Andesite","Subduction zone / Intermediate crust (15-25 km)","Holocene",35.7076110839844,-69.6014709472656,219.490676879883,154.508,49.12,TRUE
"691",290310,"Tao-Rusyr Caldera","Russia","Stratovolcano","Eruption Observed","1952 CE","Kuril Islands","Kuril Islands",49.35,154.7,1325,"Andesite / Basaltic Andesite","Subduction zone / Intermediate crust (15-25 km)","Holocene",35.1843795776367,-73.6507339477539,220.849685668945,154.7,49.35,TRUE
"692",290320,"Nemo Peak","Russia","Caldera","Eruption Observed","1938 CE","Kuril Islands","Kuril Islands",49.57,154.808,1018,"Andesite / Basaltic Andesite","Subduction zone / Intermediate crust (15-25 km)","Holocene",35.126823425293,-80.8495101928711,220.303649902344,154.808,49.57,TRUE
"693",290331,"Shirinki","Russia","Stratovolcano","Evidence Credible","Unknown","Kuril Islands","Kuril Islands",50.2,154.98,761,"Andesite / Basaltic Andesite","Subduction zone / Continental crust (>25 km)","Holocene",38.3013877868652,-105.739616394043,218.998596191406,154.98,50.2,TRUE
"694",290340,"Fuss Peak","Russia","Stratovolcano","Eruption Observed","1854 CE","Kuril Islands","Kuril Islands",50.267,155.246,1742,"Andesite / Basaltic Andesite","Subduction zone / Continental crust (>25 km)","Holocene",38.4717178344727,-97.5977630615234,217.428192138672,155.246,50.267,TRUE
"695",290350,"Karpinsky Group","Russia","Cone(s)","Eruption Observed","1952 CE","Kuril Islands","Kuril Islands",50.148,155.373,1326,"Andesite / Basaltic Andesite","Subduction zone / Continental crust (>25 km)","Holocene",36.8488693237305,-86.4834442138672,215.906768798828,155.373,50.148,TRUE
"696",290360,"Chikurachki","Russia","Stratovolcano(es)","Eruption Observed","2016 CE","Kuril Islands","Kuril Islands",50.324,155.461,1781,"Basalt / Picro-Basalt","Subduction zone / Continental crust (>25 km)","Holocene",38.419620513916,-90.4269104003906,216.04670715332,155.461,50.324,TRUE
"697",290370,"Vernadskii Ridge","Russia","Pyroclastic cone(s)","Evidence Credible","Unknown","Kuril Islands","Kuril Islands",50.55,155.97,1183,"Andesite / Basaltic Andesite","Subduction zone / Continental crust (>25 km)","Holocene",37.4151077270508,-79.8894882202148,216.880950927734,155.97,50.55,TRUE
"698",290380,"Ebeko","Russia","Stratovolcano","Eruption Observed","2019 CE","Kuril Islands","Kuril Islands",50.686,156.014,1103,"Andesite / Basaltic Andesite","Subduction zone / Continental crust (>25 km)","Holocene",38.6931114196777,-84.7171859741211,217.477676391602,156.014,50.686,TRUE
"699",290390,"Alaid","Russia","Stratovolcano","Eruption Observed","2018 CE","Kuril Islands","Kuril Islands",50.861,155.565,2285,"Basalt / Picro-Basalt","Subduction zone / Continental crust (>25 km)","Holocene",45.0414848327637,-118.803619384766,218.304748535156,155.565,50.861,TRUE
"700",300001,"Mashkovtsev","Russia","Stratovolcano","Evidence Credible","Unknown","Kamchatka and Mainland Asia","Kamchatka Peninsula",51.1,156.72,503,"Basalt / Picro-Basalt","Subduction zone / Continental crust (>25 km)","Holocene",35.8303298950195,-76.1199722290039,215.765625,156.72,51.1,TRUE
"701",300010,"Kambalny","Russia","Stratovolcano","Eruption Dated","2017 CE","Kamchatka and Mainland Asia","Kamchatka Peninsula",51.306,156.875,2116,"Basalt / Picro-Basalt","Subduction zone / Continental crust (>25 km)","Holocene",35.9736442565918,-79.2852935791016,215.164810180664,156.875,51.306,TRUE
"702",300020,"Koshelev","Russia","Stratovolcano","Eruption Observed","1690 CE","Kamchatka and Mainland Asia","Kamchatka Peninsula",51.356,156.753,1822,"Basalt / Picro-Basalt","Subduction zone / Continental crust (>25 km)","Holocene",37.8804626464844,-86.6594314575195,214.295455932617,156.753,51.356,TRUE
"703",300021,"Yavinsky","Russia","Stratovolcano","Eruption Dated","4050 BCE","Kamchatka and Mainland Asia","Kamchatka Peninsula",51.533,156.629,646,"Basalt / Picro-Basalt","Subduction zone / Continental crust (>25 km)","Holocene",41.3712348937988,-101.534767150879,212.38703918457,156.629,51.533,TRUE
"704",300022,"Diky Greben","Russia","Lava dome(s)","Eruption Dated","350 CE","Kamchatka and Mainland Asia","Kamchatka Peninsula",51.452,156.978,1040,"Dacite","Subduction zone / Continental crust (>25 km)","Holocene",35.7935829162598,-81.4427337646484,215.154327392578,156.978,51.452,TRUE
"705",300023,"Kurile Lake","Russia","Caldera","Eruption Dated","6440 BCE","Kamchatka and Mainland Asia","Kamchatka Peninsula",51.45,157.12,81,"Dacite","Subduction zone / Continental crust (>25 km)","Holocene",34.4509887695312,-76.159797668457,215.910293579102,157.12,51.45,TRUE
"706",300030,"Iliinsky","Russia","Stratovolcano","Eruption Observed","1901 CE","Kamchatka and Mainland Asia","Kamchatka Peninsula",51.498,157.203,1555,"Andesite / Basaltic Andesite","Subduction zone / Continental crust (>25 km)","Holocene",34.0003547668457,-75.2064971923828,216.151412963867,157.203,51.498,TRUE
"707",300040,"Zheltovsky","Russia","Stratovolcano","Eruption Observed","1923 CE","Kamchatka and Mainland Asia","Kamchatka Peninsula",51.577,157.328,1926,"Basalt / Picro-Basalt","Subduction zone / Continental crust (>25 km)","Holocene",33.3193664550781,-73.917106628418,216.442199707031,157.328,51.577,TRUE
"708",300041,"Kell","Russia","Stratovolcano(es)","Evidence Credible","Unknown","Kamchatka and Mainland Asia","Kamchatka Peninsula",51.65,157.35,900,"Basalt / Picro-Basalt","Subduction zone / Continental crust (>25 km)","Holocene",33.5107040405273,-76.19677734375,216.163696289062,157.35,51.65,TRUE
"709",300042,"Belenkaya","Russia","Stratovolcano","Evidence Credible","Unknown","Kamchatka and Mainland Asia","Kamchatka Peninsula",51.75,157.27,892,"Basalt / Picro-Basalt","Subduction zone / Continental crust (>25 km)","Holocene",34.8215980529785,-83.7626113891602,215.130355834961,157.27,51.75,TRUE
"710",300050,"Ksudach","Russia","Stratovolcano","Eruption Observed","1907 CE","Kamchatka and Mainland Asia","Kamchatka Peninsula",51.844,157.572,1079,"Andesite / Basaltic Andesite","Subduction zone / Continental crust (>25 km)","Holocene",32.4012641906738,-76.8865280151367,216.059860229492,157.572,51.844,TRUE
"711",300051,"Ozernoy","Russia","Shield","Evidence Credible","Unknown","Kamchatka and Mainland Asia","Kamchatka Peninsula",51.88,157.38,562,"Basalt / Picro-Basalt","Subduction zone / Continental crust (>25 km)","Holocene",34.4529724121094,-85.0804443359375,214.643188476562,157.38,51.88,TRUE
"712",300052,"Olkoviy Volcanic Group","Russia","Volcanic field","Evidence Credible","Unknown","Kamchatka and Mainland Asia","Kamchatka Peninsula",52.02,157.53,681,"Basalt / Picro-Basalt","Subduction zone / Continental crust (>25 km)","Holocene",33.5636940002441,-85.018196105957,214.266174316406,157.53,52.02,TRUE
"713",300053,"Khodutka","Russia","Stratovolcano(es)","Eruption Dated","300 BCE","Kamchatka and Mainland Asia","Kamchatka Peninsula",52.062,157.711,2039,"Andesite / Basaltic Andesite","Subduction zone / Continental crust (>25 km)","Holocene",31.6096992492676,-80.4496994018555,215.219131469727,157.711,52.062,TRUE
"714",300054,"Piratkovsky","Russia","Stratovolcano","Evidence Credible","Unknown","Kamchatka and Mainland Asia","Kamchatka Peninsula",52.113,157.849,1322,"No Data (checked)","Subduction zone / Continental crust (>25 km)","Holocene",30.2505836486816,-77.9412002563477,215.848129272461,157.849,52.113,TRUE
"715",300055,"Ostanets","Russia","Shield(s)","Evidence Credible","Unknown","Kamchatka and Mainland Asia","Kamchatka Peninsula",52.146,157.322,719,"Basalt / Picro-Basalt","Subduction zone / Continental crust (>25 km)","Holocene",37.1838531494141,-99.5442504882812,212.028656005859,157.322,52.146,TRUE
"716",300056,"Otdelniy","Russia","Shield(s)","Evidence Credible","Unknown","Kamchatka and Mainland Asia","Kamchatka Peninsula",52.221,157.435,814,"Basalt / Picro-Basalt","Subduction zone / Continental crust (>25 km)","Holocene",36.2375411987305,-97.4298095703125,211.794830322266,157.435,52.221,TRUE
"717",300057,"Golaya","Russia","Stratovolcano","Evidence Credible","Unknown","Kamchatka and Mainland Asia","Kamchatka Peninsula",52.263,157.787,858,"Basalt / Picro-Basalt","Subduction zone / Continental crust (>25 km)","Holocene",31.761739730835,-85.8724594116211,213.451171875,157.787,52.263,TRUE
"718",300058,"Asacha","Russia","Complex","Evidence Credible","Unknown","Kamchatka and Mainland Asia","Kamchatka Peninsula",52.355,157.827,1910,"Basalt / Picro-Basalt","Subduction zone / Continental crust (>25 km)","Holocene",31.6264553070068,-87.242561340332,212.82698059082,157.827,52.355,TRUE
"719",300059,"Visokiy","Russia","Stratovolcano","Evidence Credible","Unknown","Kamchatka and Mainland Asia","Kamchatka Peninsula",52.43,157.93,1234,"Basalt / Picro-Basalt","Subduction zone / Continental crust (>25 km)","Holocene",30.9562377929688,-86.8068542480469,212.414093017578,157.93,52.43,TRUE
"720",300060,"Mutnovsky","Russia","Complex","Eruption Observed","2000 CE","Kamchatka and Mainland Asia","Kamchatka Peninsula",52.449,158.196,2288,"Basalt / Picro-Basalt","Subduction zone / Continental crust (>25 km)","Holocene",28.7483673095703,-78.6805191040039,212.162826538086,158.196,52.449,TRUE
"721",300070,"Gorely","Russia","Caldera","Eruption Observed","2010 CE","Kamchatka and Mainland Asia","Kamchatka Peninsula",52.559,158.03,1799,"Basalt / Picro-Basalt","Subduction zone / Continental crust (>25 km)","Holocene",30.947338104248,-88.0563583374023,211.414657592773,158.03,52.559,TRUE
"722",300080,"Opala","Russia","Caldera","Eruption Observed","1776 CE","Kamchatka and Mainland Asia","Kamchatka Peninsula",52.543,157.339,2439,"Basalt / Picro-Basalt","Subduction zone / Continental crust (>25 km)","Holocene",41.1281852722168,-117.016258239746,209.093460083008,157.339,52.543,TRUE
"723",300082,"Tolmachev Dol","Russia","Pyroclastic cone(s)","Eruption Dated","300 CE","Kamchatka and Mainland Asia","Kamchatka Peninsula",52.63,157.58,1021,"Basalt / Picro-Basalt","Subduction zone / Continental crust (>25 km)","Holocene",38.1764106750488,-108.544960021973,209.541076660156,157.58,52.63,TRUE
"724",300083,"Vilyuchik","Russia","Stratovolcano","Eruption Dated","8050 BCE","Kamchatka and Mainland Asia","Kamchatka Peninsula",52.7,158.28,2173,"Andesite / Basaltic Andesite","Subduction zone / Continental crust (>25 km)","Holocene",30.1781482696533,-84.0053329467773,210.205856323242,158.28,52.7,TRUE
"725",300084,"Barkhatnaya Sopka","Russia","Lava dome(s)","Eruption Dated","3550 BCE","Kamchatka and Mainland Asia","Kamchatka Peninsula",52.802,158.24,874,"Basalt / Picro-Basalt","Subduction zone / Continental crust (>25 km)","Holocene",31.576587677002,-89.0930480957031,210.544586181641,158.24,52.802,TRUE
"726",300087,"Bolshe-Bannaya","Russia","Lava dome(s)","Evidence Credible","Unknown","Kamchatka and Mainland Asia","Kamchatka Peninsula",52.9,157.78,1200,"Basalt / Picro-Basalt","Subduction zone / Continental crust (>25 km)","Holocene",38.3021469116211,-110.991539001465,210.555770874023,157.78,52.9,TRUE
"727",300090,"Koryaksky","Russia","Stratovolcano","Eruption Observed","2009 CE","Kamchatka and Mainland Asia","Kamchatka Peninsula",53.321,158.712,3430,"Andesite / Basaltic Andesite","Subduction zone / Continental crust (>25 km)","Holocene",34.2862396240234,-90.9417953491211,213.272201538086,158.712,53.321,TRUE
"728",300100,"Avachinsky","Russia","Stratovolcano","Eruption Observed","2001 CE","Kamchatka and Mainland Asia","Kamchatka Peninsula",53.256,158.836,2717,"Andesite / Basaltic Andesite","Subduction zone / Continental crust (>25 km)","Holocene",32.704891204834,-83.9642562866211,212.56623840332,158.836,53.256,TRUE
"729",300110,"Dzenzursky","Russia","Compound","Evidence Credible","Unknown","Kamchatka and Mainland Asia","Kamchatka Peninsula",53.637,158.922,2285,"Andesite / Basaltic Andesite","Subduction zone / Continental crust (>25 km)","Holocene",36.7629089355469,-96.7824249267578,212.481262207031,158.922,53.637,TRUE
"730",300120,"Zhupanovsky","Russia","Compound","Eruption Observed","2016 CE","Kamchatka and Mainland Asia","Kamchatka Peninsula",53.589,159.15,2899,"Andesite / Basaltic Andesite","Subduction zone / Continental crust (>25 km)","Holocene",34.5448875427246,-85.2980499267578,211.165267944336,159.15,53.589,TRUE
"731",300121,"Veer","Russia","Pyroclastic cone(s)","Eruption Dated","390 CE","Kamchatka and Mainland Asia","Kamchatka Peninsula",53.75,158.45,520,"Basalt / Picro-Basalt","Subduction zone / Continental crust (>25 km)","Holocene",41.542308807373,-123.464134216309,214.589233398438,158.45,53.75,TRUE
"732",300122,"Kostakan","Russia","Pyroclastic cone(s)","Eruption Dated","1350 CE","Kamchatka and Mainland Asia","Kamchatka Peninsula",53.83,158.05,1150,"Basalt / Picro-Basalt","Subduction zone / Continental crust (>25 km)","Holocene",46.5571556091309,-149.299453735352,214.875457763672,158.05,53.83,TRUE
"733",300123,"Bakening","Russia","Stratovolcano","Eruption Dated","550 BCE","Kamchatka and Mainland Asia","Kamchatka Peninsula",53.905,158.07,2278,"Andesite / Basaltic Andesite","Subduction zone / Continental crust (>25 km)","Holocene",47.2923851013184,-152.882843017578,215.086517333984,158.07,53.905,TRUE
"734",300124,"Zavaritsky","Russia","Pyroclastic cone(s)","Eruption Dated","800 BCE","Kamchatka and Mainland Asia","Kamchatka Peninsula",53.905,158.385,1567,"Basalt / Picro-Basalt","Subduction zone / Continental crust (>25 km)","Holocene",44.0337982177734,-135.560272216797,214.650115966797,158.385,53.905,TRUE
"735",300125,"Akademia Nauk","Russia","Stratovolcano(es)","Eruption Observed","1996 CE","Kamchatka and Mainland Asia","Kamchatka Peninsula",53.98,159.45,1180,"Andesite / Basaltic Andesite","Subduction zone / Continental crust (>25 km)","Holocene",36.6968269348145,-88.7663192749023,208.292587280273,159.45,53.98,TRUE
"736",300130,"Karymsky","Russia","Stratovolcano","Eruption Observed","2019 CE","Kamchatka and Mainland Asia","Kamchatka Peninsula",54.049,159.443,1513,"Andesite / Basaltic Andesite","Subduction zone / Continental crust (>25 km)","Holocene",37.451545715332,-91.4100341796875,208.139892578125,159.443,54.049,TRUE
"737",300140,"Maly Semyachik","Russia","Caldera","Eruption Observed","1952 CE","Kamchatka and Mainland Asia","Kamchatka Peninsula",54.135,159.674,1527,"Basalt / Picro-Basalt","Subduction zone / Continental crust (>25 km)","Holocene",36.2657012939453,-85.2658538818359,207.325088500977,159.674,54.135,TRUE
"738",300150,"Bolshoi Semiachik","Russia","Stratovolcano(es)","Eruption Dated","4450 BCE","Kamchatka and Mainland Asia","Kamchatka Peninsula",54.32,160.02,1720,"Basalt / Picro-Basalt","Subduction zone / Continental crust (>25 km)","Holocene",34.3564376831055,-77.3572540283203,206.345703125,160.02,54.32,TRUE
"739",300160,"Taunshits","Russia","Stratovolcano","Eruption Dated","550 BCE","Kamchatka and Mainland Asia","Kamchatka Peninsula",54.528,159.804,2301,"Andesite / Basaltic Andesite","Subduction zone / Continental crust (>25 km)","Holocene",39.9269256591797,-95.0004959106445,206.930404663086,159.804,54.528,TRUE
"740",300170,"Uzon","Russia","Caldera(s)","Eruption Dated","200 CE","Kamchatka and Mainland Asia","Kamchatka Peninsula",54.5,159.97,1617,"Andesite / Basaltic Andesite","Subduction zone / Continental crust (>25 km)","Holocene",37.3276481628418,-85.9782791137695,206.534362792969,159.97,54.5,TRUE
"741",300180,"Kikhpinych","Russia","Stratovolcano(es)","Eruption Dated","1550 CE","Kamchatka and Mainland Asia","Kamchatka Peninsula",54.489,160.251,1506,"Basalt / Picro-Basalt","Subduction zone / Continental crust (>25 km)","Holocene",33.1769371032715,-73.8249969482422,206.827850341797,160.251,54.489,TRUE
"742",300190,"Krasheninnikov","Russia","Caldera","Eruption Dated","1550 CE","Kamchatka and Mainland Asia","Kamchatka Peninsula",54.596,160.27,1816,"Basalt / Picro-Basalt","Subduction zone / Continental crust (>25 km)","Holocene",34.281494140625,-77.1315078735352,207.466491699219,160.27,54.596,TRUE
"743",300200,"Kronotsky","Russia","Stratovolcano","Eruption Observed","1923 CE","Kamchatka and Mainland Asia","Kamchatka Peninsula",54.753,160.533,3482,"Basalt / Picro-Basalt","Subduction zone / Continental crust (>25 km)","Holocene",32.4894371032715,-72.4745864868164,209.739532470703,160.533,54.753,TRUE
"744",300201,"Schmidt","Russia","Shield","Evidence Credible","Unknown","Kamchatka and Mainland Asia","Kamchatka Peninsula",54.92,160.63,2020,"Basalt / Picro-Basalt","Subduction zone / Continental crust (>25 km)","Holocene",33.3800621032715,-75.0069198608398,211.222244262695,160.63,54.92,TRUE
"745",300210,"Gamchen","Russia","Complex","Eruption Dated","550 BCE","Kamchatka and Mainland Asia","Kamchatka Peninsula",54.974,160.703,2539,"Basalt / Picro-Basalt","Subduction zone / Continental crust (>25 km)","Holocene",33.2979621887207,-74.5174102783203,211.509704589844,160.703,54.974,TRUE
"746",300220,"Komarov","Russia","Stratovolcano","Eruption Dated","950 CE","Kamchatka and Mainland Asia","Kamchatka Peninsula",55.033,160.725,2065,"Basalt / Picro-Basalt","Subduction zone / Continental crust (>25 km)","Holocene",33.9939270019531,-76.5047760009766,211.663619995117,160.725,55.033,TRUE
"747",300221,"Vysoky","Russia","Stratovolcano","Eruption Dated","550 BCE","Kamchatka and Mainland Asia","Kamchatka Peninsula",55.064,160.765,2129,"Andesite / Basaltic Andesite","Subduction zone / Continental crust (>25 km)","Holocene",33.9014167785645,-75.989860534668,211.608917236328,160.765,55.064,TRUE
"748",300230,"Kizimen","Russia","Stratovolcano","Eruption Observed","2013 CE","Kamchatka and Mainland Asia","Kamchatka Peninsula",55.131,160.32,2334,"Andesite / Basaltic Andesite","Subduction zone / Continental crust (>25 km)","Holocene",41.4361228942871,-97.6782073974609,211.142425537109,160.32,55.131,TRUE
"749",300240,"Tolbachik","Russia","Shield","Eruption Observed","2013 CE","Kamchatka and Mainland Asia","Kamchatka Peninsula",55.832,160.326,3611,"Basalt / Picro-Basalt","Subduction zone / Continental crust (>25 km)","Holocene",49.5313568115234,-133.293472290039,199.947784423828,160.326,55.832,TRUE
"750",300241,"Udina","Russia","Stratovolcano(es)","Evidence Credible","Unknown","Kamchatka and Mainland Asia","Kamchatka Peninsula",55.758,160.527,2886,"Andesite / Basaltic Andesite","Subduction zone / Continental crust (>25 km)","Holocene",46.1345863342285,-116.802848815918,200.666687011719,160.527,55.758,TRUE
"751",300242,"Zimina","Russia","Stratovolcano(es)","Evidence Credible","Unknown","Kamchatka and Mainland Asia","Kamchatka Peninsula",55.862,160.603,3057,"Andesite / Basaltic Andesite","Subduction zone / Continental crust (>25 km)","Holocene",46.5502014160156,-117.013740539551,196.847747802734,160.603,55.862,TRUE
"752",300250,"Bezymianny","Russia","Stratovolcano","Eruption Observed","2019 CE","Kamchatka and Mainland Asia","Kamchatka Peninsula",55.972,160.595,2882,"Andesite / Basaltic Andesite","Subduction zone / Continental crust (>25 km)","Holocene",47.6699981689453,-120.229537963867,194.487258911133,160.595,55.972,TRUE
"753",300251,"Kamen","Russia","Stratovolcano","Evidence Credible","Unknown","Kamchatka and Mainland Asia","Kamchatka Peninsula",56.02,160.593,4585,"Basalt / Picro-Basalt","Subduction zone / Continental crust (>25 km)","Holocene",48.2406997680664,-121.71858215332,193.569717407227,160.593,56.02,TRUE
"754",300260,"Klyuchevskoy","Russia","Stratovolcano","Eruption Observed","2019 CE","Kamchatka and Mainland Asia","Kamchatka Peninsula",56.056,160.642,4754,"Basalt / Picro-Basalt","Subduction zone / Continental crust (>25 km)","Holocene",47.8902053833008,-119.289688110352,192.706741333008,160.642,56.056,TRUE
"755",300261,"Ushkovsky","Russia","Compound","Eruption Observed","1890 CE","Kamchatka and Mainland Asia","Kamchatka Peninsula",56.113,160.509,3943,"Basalt / Picro-Basalt","Subduction zone / Continental crust (>25 km)","Holocene",50.6093559265137,-130.567504882812,193.012832641602,160.509,56.113,TRUE
"756",300270,"Sheveluch","Russia","Stratovolcano","Eruption Observed","2019 CE","Kamchatka and Mainland Asia","Kamchatka Peninsula",56.653,161.36,3283,"Andesite / Basaltic Andesite","Subduction zone / Continental crust (>25 km)","Holocene",33.1392631530762,-99.0307388305664,215.818283081055,161.36,56.653,TRUE
"757",300271,"Piip","Russia","Submarine","Eruption Dated","5050 BCE","Kamchatka and Mainland Asia","Kamchatka Peninsula",55.42,167.33,-300,"Dacite","Subduction zone / Intermediate crust (15-25 km)","Holocene",NA,NA,NA,167.33,55.42,TRUE
"758",300272,"Khangar","Russia","Stratovolcano","Eruption Dated","1500 CE","Kamchatka and Mainland Asia","Kamchatka Peninsula",54.761,157.407,1967,"Dacite","Subduction zone / Continental crust (>25 km)","Holocene",65.9693374633789,-303.331420898438,221.273590087891,157.407,54.761,TRUE
"759",300273,"Cherpuk Group","Russia","Pyroclastic cone(s)","Eruption Dated","4550 BCE","Kamchatka and Mainland Asia","Kamchatka Peninsula",55.55,157.47,1868,"Andesite / Basaltic Andesite","Subduction zone / Continental crust (>25 km)","Holocene",NA,NA,NA,157.47,55.55,TRUE
"760",300280,"Ichinsky","Russia","Stratovolcano","Eruption Observed","1740 CE","Kamchatka and Mainland Asia","Kamchatka Peninsula",55.678,157.718,3596,"Basalt / Picro-Basalt","Subduction zone / Continental crust (>25 km)","Holocene",NA,NA,NA,157.718,55.678,TRUE
"761",300290,"Maly Payalpan","Russia","Shield(s)","Evidence Uncertain","Unknown","Kamchatka and Mainland Asia","Kamchatka Peninsula",55.82,157.98,1802,"Andesite / Basaltic Andesite","Subduction zone / Continental crust (>25 km)","Holocene",NA,NA,NA,157.98,55.82,TRUE
"762",300300,"Bolshoi Payalpan","Russia","Shield(s)","Evidence Uncertain","Unknown","Kamchatka and Mainland Asia","Kamchatka Peninsula",55.88,157.78,1906,"Andesite / Basaltic Andesite","Subduction zone / Continental crust (>25 km)","Holocene",NA,NA,NA,157.78,55.88,TRUE
"763",300310,"Plosky","Russia","Shield","Evidence Uncertain","Unknown","Kamchatka and Mainland Asia","Kamchatka Peninsula",55.2,158.47,1236,"Basalt / Picro-Basalt","Subduction zone / Continental crust (>25 km)","Holocene",65.1789245605469,-245.202117919922,211.035308837891,158.47,55.2,TRUE
"764",300320,"Akhtang","Russia","Shield","Evidence Uncertain","Unknown","Kamchatka and Mainland Asia","Kamchatka Peninsula",55.43,158.65,1956,"Basalt / Picro-Basalt","Subduction zone / Continental crust (>25 km)","Holocene",65.9308700561523,-251.808807373047,209.360061645508,158.65,55.43,TRUE
"765",300330,"Kozyrevsky","Russia","Shield","Evidence Uncertain","Unknown","Kamchatka and Mainland Asia","Kamchatka Peninsula",55.58,158.38,2016,"Basalt / Picro-Basalt","Subduction zone / Continental crust (>25 km)","Holocene",NA,NA,NA,158.38,55.58,TRUE
"766",300340,"Romanovka","Russia","Stratovolcano","Evidence Uncertain","Unknown","Kamchatka and Mainland Asia","Kamchatka Peninsula",55.65,158.8,1442,"Basalt / Picro-Basalt","Subduction zone / Continental crust (>25 km)","Holocene",66.3372802734375,-259.346221923828,208.287536621094,158.8,55.65,TRUE
"767",300350,"Uksichan","Russia","Shield","Evidence Uncertain","Unknown","Kamchatka and Mainland Asia","Kamchatka Peninsula",56.08,158.38,1692,"Basalt / Picro-Basalt","Subduction zone / Continental crust (>25 km)","Holocene",NA,NA,NA,158.38,56.08,TRUE
"768",300360,"Bolshoi-Kekuknaysky","Russia","Shield(s)","Eruption Dated","5310 BCE","Kamchatka and Mainland Asia","Kamchatka Peninsula",56.483,157.917,1401,"Basalt / Picro-Basalt","Subduction zone / Continental crust (>25 km)","Holocene",NA,NA,NA,157.917,56.483,TRUE
"769",300370,"Kulkev","Russia","Shield","Evidence Uncertain","Unknown","Kamchatka and Mainland Asia","Kamchatka Peninsula",56.37,158.37,915,"Basalt / Picro-Basalt","Subduction zone / Continental crust (>25 km)","Holocene",NA,NA,NA,158.37,56.37,TRUE
"770",300380,"Geodesistoy","Russia","Shield","Evidence Uncertain","Unknown","Kamchatka and Mainland Asia","Kamchatka Peninsula",56.33,158.67,1170,"Basalt / Picro-Basalt","Subduction zone / Continental crust (>25 km)","Holocene",NA,NA,NA,158.67,56.33,TRUE
"771",300390,"Anaun","Russia","Stratovolcano","Evidence Uncertain","Unknown","Kamchatka and Mainland Asia","Kamchatka Peninsula",56.32,158.83,1828,"Basalt / Picro-Basalt","Subduction zone / Continental crust (>25 km)","Holocene",NA,NA,NA,158.83,56.32,TRUE
"772",300400,"Krainy","Russia","Shield","Evidence Uncertain","Unknown","Kamchatka and Mainland Asia","Kamchatka Peninsula",56.37,159.03,1554,"Basalt / Picro-Basalt","Subduction zone / Continental crust (>25 km)","Holocene",NA,NA,NA,159.03,56.37,TRUE
"773",300410,"Kekurny","Russia","Shield(s)","Evidence Uncertain","Unknown","Kamchatka and Mainland Asia","Kamchatka Peninsula",56.4,158.85,1377,"Basalt / Picro-Basalt","Subduction zone / Continental crust (>25 km)","Holocene",NA,NA,NA,158.85,56.4,TRUE
"774",300420,"Eggella","Russia","Shield","Evidence Uncertain","Unknown","Kamchatka and Mainland Asia","Kamchatka Peninsula",56.57,158.52,1046,"Basalt / Picro-Basalt","Subduction zone / Continental crust (>25 km)","Holocene",NA,NA,NA,158.52,56.57,TRUE
"775",300440,"Verkhovoy","Russia","Shield","Evidence Uncertain","Unknown","Kamchatka and Mainland Asia","Kamchatka Peninsula",56.52,159.53,1400,"Basalt / Picro-Basalt","Subduction zone / Continental crust (>25 km)","Holocene",68.3057861328125,-261.580413818359,201.147583007812,159.53,56.52,TRUE
"776",300450,"Alney-Chashakondzha","Russia","Stratovolcano","Eruption Dated","1600 CE","Kamchatka and Mainland Asia","Kamchatka Peninsula",56.656,159.647,2570,"Basalt / Picro-Basalt","Subduction zone / Continental crust (>25 km)","Holocene",68.8344268798828,-257.636474609375,199.683456420898,159.647,56.656,TRUE
"777",300460,"Cherny","Russia","Stratovolcano","Evidence Uncertain","Unknown","Kamchatka and Mainland Asia","Kamchatka Peninsula",56.82,159.67,1778,"Basalt / Picro-Basalt","Subduction zone / Continental crust (>25 km)","Holocene",69.6158828735352,-270.290893554688,199.129165649414,159.67,56.82,TRUE
"778",300470,"Pogranychny","Russia","Shield(s)","Evidence Uncertain","Unknown","Kamchatka and Mainland Asia","Kamchatka Peninsula",56.85,159.8,1427,"Basalt / Picro-Basalt","Subduction zone / Continental crust (>25 km)","Holocene",69.0602111816406,-254.186264038086,198.977996826172,159.8,56.85,TRUE
"779",300480,"Zaozerny","Russia","Shield(s)","Evidence Uncertain","Unknown","Kamchatka and Mainland Asia","Kamchatka Peninsula",56.88,159.95,1349,"Basalt / Picro-Basalt","Subduction zone / Continental crust (>25 km)","Holocene",67.9904632568359,-235.349807739258,199.408386230469,159.95,56.88,TRUE
"780",300490,"Bliznets","Russia","Stratovolcano","Evidence Uncertain","Unknown","Kamchatka and Mainland Asia","Kamchatka Peninsula",56.97,159.78,1244,"Basalt / Picro-Basalt","Subduction zone / Continental crust (>25 km)","Holocene",NA,NA,NA,159.78,56.97,TRUE
"781",300500,"Kebeney","Russia","Shield","Evidence Uncertain","Unknown","Kamchatka and Mainland Asia","Kamchatka Peninsula",57.1,159.93,1527,"Basalt / Picro-Basalt","Subduction zone / Continental crust (>25 km)","Holocene",NA,NA,NA,159.93,57.1,TRUE
"782",300510,"Fedotych","Russia","Shield","Evidence Uncertain","Unknown","Kamchatka and Mainland Asia","Kamchatka Peninsula",57.13,160.4,965,"Basalt / Picro-Basalt","Subduction zone / Continental crust (>25 km)","Holocene",NA,NA,NA,160.4,57.13,TRUE
"783",300511,"Shisheika","Russia","Lava dome","Eruption Dated","2240 BCE","Kamchatka and Mainland Asia","Kamchatka Peninsula",57.153,161.09,355,"Andesite / Basaltic Andesite","Subduction zone / Continental crust (>25 km)","Holocene",NA,NA,NA,161.09,57.153,TRUE
"784",300512,"Terpuk","Russia","Shield","Eruption Dated","800 BCE","Kamchatka and Mainland Asia","Kamchatka Peninsula",57.2,159.83,765,"Basalt / Picro-Basalt","Subduction zone / Continental crust (>25 km)","Holocene",NA,NA,NA,159.83,57.2,TRUE
"785",300520,"Sedankinsky","Russia","Shield","Eruption Dated","7050 BCE","Kamchatka and Mainland Asia","Kamchatka Peninsula",57.27,160.08,1241,"Basalt / Picro-Basalt","Subduction zone / Continental crust (>25 km)","Holocene",NA,NA,NA,160.08,57.27,TRUE
"786",300530,"Leutongey","Russia","Shield","Evidence Uncertain","Unknown","Kamchatka and Mainland Asia","Kamchatka Peninsula",57.306,159.827,1318,"Basalt / Picro-Basalt","Subduction zone / Continental crust (>25 km)","Holocene",NA,NA,NA,159.827,57.306,TRUE
"787",300540,"Tuzovsky","Russia","Shield(s)","Evidence Uncertain","Unknown","Kamchatka and Mainland Asia","Kamchatka Peninsula",57.32,159.967,1516,"Basalt / Picro-Basalt","Subduction zone / Continental crust (>25 km)","Holocene",NA,NA,NA,159.967,57.32,TRUE
"788",300550,"Gorny Institute","Russia","Stratovolcano","Eruption Dated","1250 CE","Kamchatka and Mainland Asia","Kamchatka Peninsula",57.33,160.2,2125,"Andesite / Basaltic Andesite","Subduction zone / Continental crust (>25 km)","Holocene",NA,NA,NA,160.2,57.33,TRUE
"789",300551,"Kinenin","Russia","Maar","Eruption Dated","850 CE","Kamchatka and Mainland Asia","Kamchatka Peninsula",57.35,160.97,583,"Basalt / Picro-Basalt","Subduction zone / Continental crust (>25 km)","Holocene",NA,NA,NA,160.97,57.35,TRUE
"790",300552,"Bliznetsy","Russia","Lava cone","Eruption Dated","1060 BCE","Kamchatka and Mainland Asia","Kamchatka Peninsula",57.35,161.37,265,"Andesite / Basaltic Andesite","Subduction zone / Continental crust (>25 km)","Holocene",NA,NA,NA,161.37,57.35,TRUE
"791",300560,"Titila","Russia","Shield(s)","Eruption Dated","550 BCE","Kamchatka and Mainland Asia","Kamchatka Peninsula",57.406,160.108,1523,"Basalt / Picro-Basalt","Subduction zone / Continental crust (>25 km)","Holocene",NA,NA,NA,160.108,57.406,TRUE
"792",300570,"Mezhdusopochny","Russia","Shield","Evidence Uncertain","Unknown","Kamchatka and Mainland Asia","Kamchatka Peninsula",57.47,160.25,1641,"Basalt / Picro-Basalt","Subduction zone / Continental crust (>25 km)","Holocene",NA,NA,NA,160.25,57.47,TRUE
"793",300580,"Shishel","Russia","Shield","Evidence Uncertain","Unknown","Kamchatka and Mainland Asia","Kamchatka Peninsula",57.45,160.37,2525,"Basalt / Picro-Basalt","Subduction zone / Continental crust (>25 km)","Holocene",NA,NA,NA,160.37,57.45,TRUE
"794",300590,"Elovsky","Russia","Shield(s)","Eruption Dated","7550 BCE","Kamchatka and Mainland Asia","Kamchatka Peninsula",57.55,160.53,1381,"Basalt / Picro-Basalt","Subduction zone / Continental crust (>25 km)","Holocene",NA,NA,NA,160.53,57.55,TRUE
"795",300600,"Alngey","Russia","Stratovolcano","Evidence Uncertain","Unknown","Kamchatka and Mainland Asia","Kamchatka Peninsula",57.702,160.418,1822,"Basalt / Picro-Basalt","Subduction zone / Continental crust (>25 km)","Holocene",NA,NA,NA,160.418,57.702,TRUE
"796",300610,"Uka","Russia","Shield","Evidence Uncertain","Unknown","Kamchatka and Mainland Asia","Kamchatka Peninsula",57.706,160.59,1607,"Basalt / Picro-Basalt","Subduction zone / Continental crust (>25 km)","Holocene",NA,NA,NA,160.59,57.706,TRUE
"797",300620,"Kaileney","Russia","Shield","Evidence Uncertain","Unknown","Kamchatka and Mainland Asia","Kamchatka Peninsula",57.8,160.67,1582,"Basalt / Picro-Basalt","Subduction zone / Continental crust (>25 km)","Holocene",NA,NA,NA,160.67,57.8,TRUE
"798",300630,"Plosky","Russia","Shield","Evidence Uncertain","Unknown","Kamchatka and Mainland Asia","Kamchatka Peninsula",57.83,160.25,1255,"Basalt / Picro-Basalt","Subduction zone / Continental crust (>25 km)","Holocene",NA,NA,NA,160.25,57.83,TRUE
"799",300640,"Bely","Russia","Shield(s)","Evidence Uncertain","Unknown","Kamchatka and Mainland Asia","Kamchatka Peninsula",57.88,160.53,2080,"Basalt / Picro-Basalt","Subduction zone / Continental crust (>25 km)","Holocene",NA,NA,NA,160.53,57.88,TRUE
"800",300650,"Nylgimelkin","Russia","Shield(s)","Eruption Dated","3550 BCE","Kamchatka and Mainland Asia","Kamchatka Peninsula",57.97,160.65,1764,"Basalt / Picro-Basalt","Subduction zone / Continental crust (>25 km)","Holocene",NA,NA,NA,160.65,57.97,TRUE
"801",300660,"Snezhniy","Russia","Shield","Evidence Uncertain","Unknown","Kamchatka and Mainland Asia","Kamchatka Peninsula",58.02,160.8,2169,"Basalt / Picro-Basalt","Subduction zone / Continental crust (>25 km)","Holocene",NA,NA,NA,160.8,58.02,TRUE
"802",300670,"Iktunup","Russia","Shield(s)","Evidence Uncertain","Unknown","Kamchatka and Mainland Asia","Kamchatka Peninsula",58.08,160.77,2300,"Basalt / Picro-Basalt","Subduction zone / Continental crust (>25 km)","Holocene",NA,NA,NA,160.77,58.08,TRUE
"803",300671,"Spokoiny","Russia","Stratovolcano","Eruption Dated","3450 BCE","Kamchatka and Mainland Asia","Kamchatka Peninsula",58.13,160.82,2171,"Dacite","Subduction zone / Continental crust (>25 km)","Holocene",NA,NA,NA,160.82,58.13,TRUE
"804",300680,"Ostry","Russia","Stratovolcano","Eruption Dated","2050 BCE","Kamchatka and Mainland Asia","Kamchatka Peninsula",58.18,160.82,2552,"Basalt / Picro-Basalt","Subduction zone / Continental crust (>25 km)","Holocene",NA,NA,NA,160.82,58.18,TRUE
"805",300690,"Snegovoy","Russia","Shield","Evidence Uncertain","Unknown","Kamchatka and Mainland Asia","Kamchatka Peninsula",58.2,160.97,2169,"Basalt / Picro-Basalt","Subduction zone / Continental crust (>25 km)","Holocene",NA,NA,NA,160.97,58.2,TRUE
"806",300700,"Severny","Russia","Shield","Eruption Dated","1550 BCE","Kamchatka and Mainland Asia","Kamchatka Peninsula",58.28,160.87,1936,"Basalt / Picro-Basalt","Subduction zone / Continental crust (>25 km)","Holocene",NA,NA,NA,160.87,58.28,TRUE
"807",300710,"Iettunup","Russia","Shield(s)","Evidence Uncertain","Unknown","Kamchatka and Mainland Asia","Kamchatka Peninsula",58.4,161.08,1340,"Basalt / Picro-Basalt","Subduction zone / Continental crust (>25 km)","Holocene",NA,NA,NA,161.08,58.4,TRUE
"808",300720,"Voyampolsky","Russia","Shield(s)","Evidence Uncertain","Unknown","Kamchatka and Mainland Asia","Kamchatka Peninsula",58.374,160.631,1103,"Basalt / Picro-Basalt","Subduction zone / Continental crust (>25 km)","Holocene",NA,NA,NA,160.631,58.374,TRUE
"819",305011,"Arxan-Chaihe","China","Pyroclastic cone(s)","Eruption Dated","0 CE","Kamchatka and Mainland Asia","China (eastern)",47.45,120.8,1677,"Basalt / Picro-Basalt","Intraplate / Continental crust (>25 km)","Holocene",NA,NA,NA,120.8,47.45,TRUE
"820",305020,"Keluo Group","China","Pyroclastic cone(s)","Evidence Credible","Unknown","Kamchatka and Mainland Asia","China (eastern)",49.37,125.92,670,"Trachybasalt / Tephrite Basanite","Intraplate / Continental crust (>25 km)","Holocene",NA,NA,NA,125.92,49.37,TRUE
"821",305030,"Wudalianchi","China","Volcanic field","Eruption Observed","1776 CE","Kamchatka and Mainland Asia","China (eastern)",48.72,126.12,597,"Trachybasalt / Tephrite Basanite","Intraplate / Continental crust (>25 km)","Holocene",NA,NA,NA,126.12,48.72,TRUE
"822",305040,"Jingbo","China","Volcanic field","Eruption Dated","520 BCE","Kamchatka and Mainland Asia","China (eastern)",44.08,128.83,1000,"Trachybasalt / Tephrite Basanite","Intraplate / Continental crust (>25 km)","Holocene",NA,NA,NA,128.83,44.08,TRUE
"823",305050,"Longgang Group","China","Pyroclastic cone(s)","Eruption Dated","350 CE","Kamchatka and Mainland Asia","China (eastern)",42.33,126.5,1000,"Basalt / Picro-Basalt","Intraplate / Continental crust (>25 km)","Holocene",NA,NA,NA,126.5,42.33,TRUE
"824",305060,"Changbaishan","China-North Korea","Stratovolcano","Eruption Observed","1903 CE","Kamchatka and Mainland Asia","China (eastern)",41.98,128.08,2744,"Trachyte / Trachydacite","Intraplate / Continental crust (>25 km)","Holocene",NA,NA,NA,128.08,41.98,TRUE
"825",306020,"Ch'uga-ryong","North Korea-South Korea","Shield","Evidence Uncertain","Unknown","Kamchatka and Mainland Asia","Korea",38.33,127.33,452,"Basalt / Picro-Basalt","Intraplate / Continental crust (>25 km)","Holocene",NA,NA,NA,127.33,38.33,TRUE
"826",306030,"Ulreung","South Korea","Stratovolcano","Eruption Dated","2990 BCE","Kamchatka and Mainland Asia","Korea",37.5,130.87,984,"Trachyandesite / Basaltic Trachyandesite","Intraplate / Continental crust (>25 km)","Holocene",18.3395519256592,-498.098052978516,184.650238037109,130.87,37.5,TRUE
"1876",283801,"Shikuma","Japan","Lava dome(s)",NA,NA,"Japan, Taiwan, Marianas","Honshu",34.098,131.761,504,NA,"Subduction zone / Continental crust (>25 km)","Pleistocene",NA,NA,NA,131.761,34.098,TRUE
"1877",283802,"Tokuyama-Mitake","Japan","Lava dome",NA,NA,"Japan, Taiwan, Marianas","Honshu",34.189,131.844,790,NA,"Subduction zone / Continental crust (>25 km)","Pleistocene",NA,NA,NA,131.844,34.189,TRUE
"1878",283803,"Sengoku","Japan","Lava dome(s)",NA,NA,"Japan, Taiwan, Marianas","Honshu",34.186,131.76,661,NA,"Subduction zone / Continental crust (>25 km)","Pleistocene",NA,NA,NA,131.76,34.186,TRUE
"1879",283804,"Chojagahara","Japan","Pyroclastic cone",NA,NA,"Japan, Taiwan, Marianas","Honshu",34.271,131.669,390,NA,"Subduction zone / Continental crust (>25 km)","Pleistocene",NA,NA,NA,131.669,34.271,TRUE
"1880",283805,"Aonoyama","Japan","Lava dome(s)",NA,NA,"Japan, Taiwan, Marianas","Honshu",34.459,131.798,908,NA,"Subduction zone / Continental crust (>25 km)","Pleistocene",NA,NA,NA,131.798,34.459,TRUE
"1881",283806,"Oetaka-yama","Japan","Lava dome(s)",NA,NA,"Japan, Taiwan, Marianas","Honshu",35.061,132.431,808,NA,"Subduction zone / Continental crust (>25 km)","Pleistocene",NA,NA,NA,132.431,35.061,TRUE
"1882",283807,"Yokote","Japan","Pyroclastic cone(s)",NA,NA,"Japan, Taiwan, Marianas","Honshu",35.201,133.267,967,NA,"Subduction zone / Continental crust (>25 km)","Pleistocene",NA,NA,NA,133.267,35.201,TRUE
"1883",283808,"Noro","Japan","Pyroclastic cone",NA,NA,"Japan, Taiwan, Marianas","Honshu",35.41,133.182,180,NA,"Subduction zone / Continental crust (>25 km)","Pleistocene",NA,NA,NA,133.182,35.41,TRUE
"1884",283809,"Daikon-jima","Japan","Pyroclastic cone",NA,NA,"Japan, Taiwan, Marianas","Honshu",35.493,133.174,42,NA,"Subduction zone / Continental crust (>25 km)","Pleistocene",23.3259220123291,-424.721252441406,168.753372192383,133.174,35.493,TRUE
"1885",283810,"Tsuruta","Japan","Pyroclastic cone(s)",NA,NA,"Japan, Taiwan, Marianas","Honshu",35.338,133.422,301,NA,"Subduction zone / Continental crust (>25 km)","Pleistocene",23.5210056304932,-416.724182128906,166.728424072266,133.422,35.338,TRUE
"1886",283811,"Daisen","Japan","Stratovolcano",NA,NA,"Japan, Taiwan, Marianas","Honshu",35.368,133.549,1729,NA,"Subduction zone / Continental crust (>25 km)","Pleistocene",23.665283203125,-411.33740234375,166.647933959961,133.549,35.368,TRUE
"1887",283812,"Ogino-Sen","Japan","Pyroclastic cone(s)",NA,NA,"Japan, Taiwan, Marianas","Honshu",35.437,134.444,1310,NA,"Subduction zone / Continental crust (>25 km)","Pleistocene",25.4892196655273,-374.894561767578,163.997772216797,134.444,35.437,TRUE
"1888",283813,"Takara","Japan","Shield",NA,NA,"Japan, Taiwan, Marianas","Honshu",35.343,134.922,350,NA,"Subduction zone / Continental crust (>25 km)","Pleistocene",27.555965423584,-356.268890380859,158.225540161133,134.922,35.343,TRUE
"1889",283814,"Nanzaki","Japan","Pyroclastic cone",NA,NA,"Japan, Taiwan, Marianas","Honshu",34.604,138.832,106,NA,"Subduction zone / Continental crust (>25 km)","Pleistocene",NA,NA,NA,138.832,34.604,TRUE
"1890",283815,"Jaishi","Japan","Shield",NA,NA,"Japan, Taiwan, Marianas","Honshu",34.71,138.786,520,NA,"Subduction zone / Continental crust (>25 km)","Pleistocene",NA,NA,NA,138.786,34.71,TRUE
"1891",283816,"Tanaba","Japan","Stratovolcano",NA,NA,"Japan, Taiwan, Marianas","Honshu",34.907,138.852,1035,NA,"Subduction zone / Continental crust (>25 km)","Pleistocene",NA,NA,NA,138.852,34.907,TRUE
"1892",283817,"Daruma","Japan","Stratovolcano",NA,NA,"Japan, Taiwan, Marianas","Honshu",34.952,138.843,982,NA,"Subduction zone / Continental crust (>25 km)","Pleistocene",NA,NA,NA,138.843,34.952,TRUE
"1893",283818,"Tenshi","Japan","Stratovolcano",NA,NA,"Japan, Taiwan, Marianas","Honshu",34.924,138.968,608,NA,"Subduction zone / Continental crust (>25 km)","Pleistocene",NA,NA,NA,138.968,34.924,TRUE
"1894",283819,"Usami","Japan","Stratovolcano",NA,NA,"Japan, Taiwan, Marianas","Honshu",34.968,139.063,592,NA,"Subduction zone / Continental crust (>25 km)","Pleistocene",NA,NA,NA,139.063,34.968,TRUE
"1895",283820,"Taga","Japan","Stratovolcano",NA,NA,"Japan, Taiwan, Marianas","Honshu",35.078,139.031,798,NA,"Subduction zone / Continental crust (>25 km)","Pleistocene",39.9512825012207,-118.400299072266,165.612426757812,139.031,35.078,TRUE
"1896",283821,"Yugawara","Japan","Stratovolcano",NA,NA,"Japan, Taiwan, Marianas","Honshu",35.173,139.029,1004,NA,"Subduction zone / Continental crust (>25 km)","Pleistocene",39.563892364502,-116.515548706055,166.171951293945,139.029,35.173,TRUE
"1897",283822,"Ashitaka","Japan","Stratovolcano",NA,NA,"Japan, Taiwan, Marianas","Honshu",35.238,138.794,1504,NA,"Subduction zone / Continental crust (>25 km)","Pleistocene",41.1701965332031,-132.525344848633,165.916061401367,138.794,35.238,TRUE
"1898",283823,"Kurofuji","Japan","Stratovolcano(es)",NA,NA,"Japan, Taiwan, Marianas","Honshu",35.8,138.513,1764,NA,"Subduction zone / Continental crust (>25 km)","Pleistocene",38.1981468200684,-145.500335693359,178.525405883789,138.513,35.8,TRUE
"1899",283824,"Yatsugatake","Japan","Stratovolcano(es)",NA,NA,"Japan, Taiwan, Marianas","Honshu",35.968,138.373,2899,NA,"Subduction zone / Continental crust (>25 km)","Pleistocene",37.7109184265137,-156.027297973633,180.887908935547,138.373,35.968,TRUE
"1900",283825,"Kirigamine","Japan","Shield",NA,NA,"Japan, Taiwan, Marianas","Honshu",36.1,138.2,1925,NA,"Subduction zone / Continental crust (>25 km)","Pleistocene",37.2719039916992,-167.693618774414,180.417129516602,138.2,36.1,TRUE
"1901",283826,"Utsukushigahara","Japan","Shield",NA,NA,"Japan, Taiwan, Marianas","Honshu",36.223,138.111,2034,NA,"Subduction zone / Continental crust (>25 km)","Pleistocene",36.2712135314941,-173.359008789062,180.227752685547,138.111,36.223,TRUE
"1902",283827,"Ueno","Japan","Shield",NA,NA,"Japan, Taiwan, Marianas","Honshu",35.59,137.505,606,NA,"Subduction zone / Continental crust (>25 km)","Pleistocene",35.9961471557617,-224.453674316406,162.419326782227,137.505,35.59,TRUE
"1903",283828,"Yuga-mine","Japan","Lava dome",NA,NA,"Japan, Taiwan, Marianas","Honshu",35.802,137.284,1067,NA,"Subduction zone / Continental crust (>25 km)","Pleistocene",32.5297050476074,-231.875091552734,161.484329223633,137.284,35.802,TRUE
"1904",283829,"Eboshi-Washigatake","Japan","Stratovolcano",NA,NA,"Japan, Taiwan, Marianas","Honshu",35.937,136.974,1672,NA,"Subduction zone / Continental crust (>25 km)","Pleistocene",30.6326274871826,-245.718963623047,164.76789855957,136.974,35.937,TRUE
"1905",283830,"Bishamon-dake","Japan","Stratovolcano",NA,NA,"Japan, Taiwan, Marianas","Honshu",35.936,136.795,1386,NA,"Subduction zone / Continental crust (>25 km)","Pleistocene",30.7619190216064,-254.317596435547,166.241012573242,136.795,35.936,TRUE
"1906",283831,"Dainichiga-take","Japan","Stratovolcano",NA,NA,"Japan, Taiwan, Marianas","Honshu",35.998,136.841,1709,NA,"Subduction zone / Continental crust (>25 km)","Pleistocene",30.8289070129395,-251.564468383789,167.354156494141,136.841,35.998,TRUE
"1907",283832,"Ryohaku Maru-yama","Japan","Stratovolcano",NA,NA,"Japan, Taiwan, Marianas","Honshu",36.046,136.8,1786,NA,"Subduction zone / Continental crust (>25 km)","Pleistocene",30.9788017272949,-252.625198364258,168.603668212891,136.8,36.046,TRUE
"1908",283833,"Gankyoji","Japan","Stratovolcano",NA,NA,"Japan, Taiwan, Marianas","Honshu",36.054,136.743,1691,NA,"Subduction zone / Continental crust (>25 km)","Pleistocene",31.0963153839111,-255.277359008789,168.90673828125,136.743,36.054,TRUE
"1909",283834,"Kyoga-take","Japan","Stratovolcano(es)",NA,NA,"Japan, Taiwan, Marianas","Honshu",36.043,136.625,1671,NA,"Subduction zone / Continental crust (>25 km)","Pleistocene",31.5008163452148,-262.4365234375,169.461380004883,136.625,36.043,TRUE
"1910",283835,"Dainichi-yama","Japan","Stratovolcano",NA,NA,"Japan, Taiwan, Marianas","Honshu",36.15,136.5,1369,NA,"Subduction zone / Continental crust (>25 km)","Pleistocene",31.6566066741943,-267.631134033203,170.8349609375,136.5,36.15,TRUE
"1911",283836,"Tomuro","Japan","Lava dome(s)",NA,NA,"Japan, Taiwan, Marianas","Honshu",36.528,136.75,548,NA,"Subduction zone / Continental crust (>25 km)","Pleistocene",31.0876960754395,-251.099945068359,175.810104370117,136.75,36.528,TRUE
"1912",283837,"Kamitakara","Japan","Unknown",NA,NA,"Japan, Taiwan, Marianas","Honshu",36.2,137.502,1831,NA,"Subduction zone / Continental crust (>25 km)","Pleistocene",33.4328651428223,-212.493942260742,170.909622192383,137.502,36.2,TRUE
"1913",283838,"Hodakadake","Japan","Caldera",NA,NA,"Japan, Taiwan, Marianas","Honshu",36.286,137.651,3190,NA,"Subduction zone / Continental crust (>25 km)","Pleistocene",34.0219306945801,-202.774612426758,173.891265869141,137.651,36.286,TRUE
"1914",283839,"Momisawa-dake","Japan","Unknown",NA,NA,"Japan, Taiwan, Marianas","Honshu",36.364,137.611,2755,NA,"Subduction zone / Continental crust (>25 km)","Pleistocene",33.4020195007324,-204.155181884766,175.007522583008,137.611,36.364,TRUE
"1915",283840,"Kaminoroka","Japan","Unknown",NA,NA,"Japan, Taiwan, Marianas","Honshu",36.471,137.599,2465,NA,"Subduction zone / Continental crust (>25 km)","Pleistocene",32.9209594726562,-204.594009399414,176.514068603516,137.599,36.471,TRUE
"1916",283841,"Shirouma-Oike","Japan","Stratovolcano(es)",NA,NA,"Japan, Taiwan, Marianas","Honshu",36.786,137.802,2469,NA,"Subduction zone / Continental crust (>25 km)","Pleistocene",32.3449287414551,-192.921783447266,182.038909912109,137.802,36.786,TRUE
"1917",283842,"Madarao","Japan","Stratovolcano",NA,NA,"Japan, Taiwan, Marianas","Honshu",36.834,138.278,1382,NA,"Subduction zone / Continental crust (>25 km)","Pleistocene",32.354564666748,-165.890319824219,185.949462890625,138.278,36.834,TRUE
"1918",283843,"Kurohime","Japan","Stratovolcano",NA,NA,"Japan, Taiwan, Marianas","Honshu",36.81,138.13,2053,NA,"Subduction zone / Continental crust (>25 km)","Pleistocene",32.4654350280762,-174.223831176758,184.68424987793,138.13,36.81,TRUE
"1919",283844,"Iizuna","Japan","Stratovolcano",NA,NA,"Japan, Taiwan, Marianas","Honshu",36.736,138.137,1917,NA,"Subduction zone / Continental crust (>25 km)","Pleistocene",32.7812881469727,-173.776473999023,183.984893798828,138.137,36.736,TRUE
"1920",283845,"Motodori","Japan","Lava dome",NA,NA,"Japan, Taiwan, Marianas","Honshu",36.717,138.247,745,NA,"Subduction zone / Continental crust (>25 km)","Pleistocene",32.8187141418457,-167.00163269043,184.838714599609,138.247,36.717,TRUE
"1921",283846,"Minakami","Japan","Lava dome",NA,NA,"Japan, Taiwan, Marianas","Honshu",36.551,138.226,659,NA,"Subduction zone / Continental crust (>25 km)","Pleistocene",33.6247062683105,-167.070419311523,183.751937866211,138.226,36.551,TRUE
"1922",283847,"Eboshi","Japan","Stratovolcano",NA,NA,"Japan, Taiwan, Marianas","Honshu",36.43,138.39,2227,NA,"Subduction zone / Continental crust (>25 km)","Pleistocene",34.1051826477051,-157.430267333984,185.097152709961,138.39,36.43,TRUE
"1923",283848,"Hanamagari","Japan","Stratovolcano(es)",NA,NA,"Japan, Taiwan, Marianas","Honshu",36.408,138.649,1757,NA,"Subduction zone / Continental crust (>25 km)","Pleistocene",33.7557640075684,-141.195449829102,188.102096557617,138.649,36.408,TRUE
"1924",283849,"Azumayasan","Japan","Stratovolcano",NA,NA,"Japan, Taiwan, Marianas","Honshu",36.541,138.412,2323,NA,"Subduction zone / Continental crust (>25 km)","Pleistocene",33.4875411987305,-156.137786865234,185.603302001953,138.412,36.541,TRUE
"1925",283850,"Omeshi-dake","Japan","Stratovolcano",NA,NA,"Japan, Taiwan, Marianas","Honshu",36.626,138.461,2160,NA,"Subduction zone / Continental crust (>25 km)","Pleistocene",32.9302825927734,-153.985687255859,186.324722290039,138.461,36.626,TRUE
"1926",283851,"Takayashiro","Japan","Stratovolcano",NA,NA,"Japan, Taiwan, Marianas","Honshu",36.796,138.407,1351,NA,"Subduction zone / Continental crust (>25 km)","Pleistocene",32.3638648986816,-159.088592529297,186.605072021484,138.407,36.796,TRUE
"1927",283852,"Sekita","Japan","Stratovolcano?",NA,NA,"Japan, Taiwan, Marianas","Honshu",36.974,138.386,1289,NA,"Subduction zone / Continental crust (>25 km)","Pleistocene",31.8418560028076,-161.460662841797,187.746780395508,138.386,36.974,TRUE
"1928",283853,"Kenashi","Japan","Stratovolcano",NA,NA,"Japan, Taiwan, Marianas","Honshu",36.895,138.489,1650,NA,"Subduction zone / Continental crust (>25 km)","Pleistocene",31.9184494018555,-155.352294921875,187.950897216797,138.489,36.895,TRUE
"1929",283854,"Torikabuto","Japan","Stratovolcano",NA,NA,"Japan, Taiwan, Marianas","Honshu",36.836,138.587,2038,NA,"Subduction zone / Continental crust (>25 km)","Pleistocene",31.9613571166992,-149.212341308594,188.260238647461,138.587,36.836,TRUE
"1930",283855,"Naeba","Japan","Stratovolcano",NA,NA,"Japan, Taiwan, Marianas","Honshu",36.843,138.694,2145,NA,"Subduction zone / Continental crust (>25 km)","Pleistocene",31.6464538574219,-143.019775390625,189.276428222656,138.694,36.843,TRUE
"1931",283856,"Iiji","Japan","Stratovolcano",NA,NA,"Japan, Taiwan, Marianas","Honshu",36.953,138.836,1112,NA,"Subduction zone / Continental crust (>25 km)","Pleistocene",30.9874668121338,-137.105972290039,190.941650390625,138.836,36.953,TRUE
"1932",283857,"Masugata","Japan","Pyroclastic cone",NA,NA,"Japan, Taiwan, Marianas","Honshu",37.075,138.833,749,NA,"Subduction zone / Continental crust (>25 km)","Pleistocene",30.7120418548584,-138.630508422852,191.744537353516,138.833,37.075,TRUE
"1933",283858,"Komochi-Onoko","Japan","Stratovolcano(es)",NA,NA,"Japan, Taiwan, Marianas","Honshu",36.589,139.001,1296,NA,"Subduction zone / Continental crust (>25 km)","Pleistocene",31.5770072937012,-123.60400390625,191.47248840332,139.001,36.589,TRUE
"1934",283859,"Sukai-Kesemaru","Japan","Stratovolcano(es)",NA,NA,"Japan, Taiwan, Marianas","Honshu",36.687,139.34,2144,NA,"Subduction zone / Continental crust (>25 km)","Pleistocene",29.2139854431152,-108.038192749023,194.371780395508,139.34,36.687,TRUE
"1935",283860,"Numanokami","Japan","Stratovolcano",NA,NA,"Japan, Taiwan, Marianas","Honshu",36.772,139.279,1541,NA,"Subduction zone / Continental crust (>25 km)","Pleistocene",29.3519077301025,-111.723785400391,193.816360473633,139.279,36.772,TRUE
"1936",283861,"Hotaka","Japan","Stratovolcano",NA,NA,"Japan, Taiwan, Marianas","Honshu",36.802,139.136,2158,NA,"Subduction zone / Continental crust (>25 km)","Pleistocene",30.1335964202881,-119.642700195312,192.60905456543,139.136,36.802,TRUE
"1937",283862,"Ayame-daira","Japan","Stratovolcano(es)",NA,NA,"Japan, Taiwan, Marianas","Honshu",36.895,139.243,1969,NA,"Subduction zone / Continental crust (>25 km)","Pleistocene",29.3068523406982,-115.32071685791,193.837982177734,139.243,36.895,TRUE
"1938",283863,"Kinunuma-Nenakusa","Japan","Lava dome(s)",NA,NA,"Japan, Taiwan, Marianas","Honshu",36.88,139.375,2141,NA,"Subduction zone / Continental crust (>25 km)","Pleistocene",28.6451377868652,-109.502067565918,194.643508911133,139.375,36.88,TRUE
"1939",283864,"Nyoho-Akanagi","Japan","Stratovolcano",NA,NA,"Japan, Taiwan, Marianas","Honshu",36.808,139.54,2483,NA,"Subduction zone / Continental crust (>25 km)","Pleistocene",27.6041412353516,-100.549598693848,195.718124389648,139.54,36.808,TRUE
"1940",283865,"Futamata","Japan","Stratovolcano",NA,NA,"Japan, Taiwan, Marianas","Honshu",37.243,139.97,1544,NA,"Subduction zone / Continental crust (>25 km)","Pleistocene",24.8943958282471,-89.8760452270508,198.96061706543,139.97,37.243,TRUE
"1941",283866,"Aizu Nunobiki","Japan","Stratovolcano",NA,NA,"Japan, Taiwan, Marianas","Honshu",37.321,140.018,1108,NA,"Subduction zone / Continental crust (>25 km)","Pleistocene",24.6918163299561,-89.0651550292969,199.18864440918,140.018,37.321,TRUE
"1942",283867,"Asakusa","Japan","Stratovolcano",NA,NA,"Japan, Taiwan, Marianas","Honshu",37.341,139.237,1585,NA,"Subduction zone / Continental crust (>25 km)","Pleistocene",28.9657382965088,-123.002433776855,195.960433959961,139.237,37.341,TRUE
"1943",283868,"Sumon","Japan","Stratovolcano",NA,NA,"Japan, Taiwan, Marianas","Honshu",37.395,139.14,1537,NA,"Subduction zone / Continental crust (>25 km)","Pleistocene",29.2748374938965,-128.866577148438,195.744247436523,139.14,37.395,TRUE
"1944",283869,"Sunagohara","Japan","Caldera",NA,NA,"Japan, Taiwan, Marianas","Honshu",37.454,139.688,729,NA,"Subduction zone / Continental crust (>25 km)","Pleistocene",26.9032878875732,-104.882827758789,198.379577636719,139.688,37.454,TRUE
"1945",283870,"Nekoma","Japan","Stratovolcano",NA,NA,"Japan, Taiwan, Marianas","Honshu",37.617,140.011,1404,NA,"Subduction zone / Continental crust (>25 km)","Pleistocene",25.3252830505371,-94.1921920776367,199.205841064453,140.011,37.617,TRUE
"1946",283871,"Aoso","Japan","Stratovolcano",NA,NA,"Japan, Taiwan, Marianas","Honshu",38.082,140.611,820,NA,"Subduction zone / Continental crust (>25 km)","Pleistocene",23.0427513122559,-79.2268829345703,197.451629638672,140.611,38.082,TRUE
"1947",283872,"Shirataka","Japan","Stratovolcano",NA,NA,"Japan, Taiwan, Marianas","Honshu",38.22,140.176,994,NA,"Subduction zone / Continental crust (>25 km)","Pleistocene",25.85764503479,-97.7278060913086,197.502700805664,140.176,38.22,TRUE
"1948",283873,"Ganto-Kamuro","Japan","Stratovolcano(es)",NA,NA,"Japan, Taiwan, Marianas","Honshu",38.196,140.48,1485,NA,"Subduction zone / Continental crust (>25 km)","Pleistocene",24.1774597167969,-85.7814331054688,197.143035888672,140.48,38.196,TRUE
"1949",283874,"Adachi","Japan","Pyroclastic cone",NA,NA,"Japan, Taiwan, Marianas","Honshu",38.218,140.654,0,NA,"Subduction zone / Continental crust (>25 km)","Pleistocene",23.2362880706787,-79.8985061645508,196.77392578125,140.654,38.218,TRUE
"1950",283875,"Daito","Japan","Stratovolcano",NA,NA,"Japan, Taiwan, Marianas","Honshu",38.299,140.527,1366,NA,"Subduction zone / Continental crust (>25 km)","Pleistocene",24.1652393341064,-85.3537063598633,196.571884155273,140.527,38.299,TRUE
"1951",283876,"Funagata","Japan","Stratovolcano(es)",NA,NA,"Japan, Taiwan, Marianas","Honshu",38.453,140.623,1500,NA,"Subduction zone / Continental crust (>25 km)","Pleistocene",24.085075378418,-84.3016967773438,195.648590087891,140.623,38.453,TRUE
"1952",283877,"Gassan","Japan","Stratovolcano",NA,NA,"Japan, Taiwan, Marianas","Honshu",38.546,140.03,1984,NA,"Subduction zone / Continental crust (>25 km)","Pleistocene",27.2345237731934,-109.342910766602,195.99104309082,140.03,38.546,TRUE
"1953",283878,"Mukaimachi","Japan","Caldera",NA,NA,"Japan, Taiwan, Marianas","Honshu",38.75,140.52,657,NA,"Subduction zone / Continental crust (>25 km)","Pleistocene",25.3639526367188,-92.1203460693359,194.087799072266,140.52,38.75,TRUE
"1954",283879,"Onikobe","Japan","Caldera",NA,NA,"Japan, Taiwan, Marianas","Honshu",38.83,140.695,769,NA,"Subduction zone / Continental crust (>25 km)","Pleistocene",24.5202693939209,-85.9585418701172,193.354949951172,140.695,38.83,TRUE
"1955",283880,"Takamatsu","Japan","Stratovolcano",NA,NA,"Japan, Taiwan, Marianas","Honshu",38.965,140.61,1348,NA,"Subduction zone / Continental crust (>25 km)","Pleistocene",25.2487297058105,-90.7688903808594,192.642684936523,140.61,38.965,TRUE
"1956",283881,"Kobinai","Japan","Stratovolcano",NA,NA,"Japan, Taiwan, Marianas","Honshu",39.018,140.523,1004,NA,"Subduction zone / Continental crust (>25 km)","Pleistocene",25.8703308105469,-95.3813171386719,192.419799804688,140.523,39.018,TRUE
"1957",283882,"Yakeishi","Japan","Stratovolcano",NA,NA,"Japan, Taiwan, Marianas","Honshu",39.161,140.832,1548,NA,"Subduction zone / Continental crust (>25 km)","Pleistocene",24.3797054290771,-84.4350662231445,191.283554077148,140.832,39.161,TRUE
"1958",283883,"Tazawa","Japan","Caldera(?)",NA,NA,"Japan, Taiwan, Marianas","Honshu",39.718,140.665,249,NA,"Subduction zone / Continental crust (>25 km)","Pleistocene",25.8841304779053,-95.9024810791016,188.108108520508,140.665,39.718,TRUE
"1959",283884,"Kayo","Japan","Stratovolcano",NA,NA,"Japan, Taiwan, Marianas","Honshu",39.804,140.734,1254,NA,"Subduction zone / Continental crust (>25 km)","Pleistocene",25.5671138763428,-93.7992324829102,187.744857788086,140.734,39.804,TRUE
"1960",283885,"Nyuto-Takakura","Japan","Stratovolcano(es)",NA,NA,"Japan, Taiwan, Marianas","Honshu",39.802,140.842,1478,NA,"Subduction zone / Continental crust (>25 km)","Pleistocene",24.9176139831543,-89.1407928466797,187.890975952148,140.842,39.802,TRUE
"1961",283886,"Tamagawa","Japan","Caldera",NA,NA,"Japan, Taiwan, Marianas","Honshu",39.897,140.781,1300,NA,"Subduction zone / Continental crust (>25 km)","Pleistocene",25.3265628814697,-92.4800338745117,187.353439331055,140.781,39.897,TRUE
"1962",283887,"Moriyoshi","Japan","Stratovolcano",NA,NA,"Japan, Taiwan, Marianas","Honshu",39.974,140.547,1454,NA,"Subduction zone / Continental crust (>25 km)","Pleistocene",26.5994052886963,-102.537368774414,186.736557006836,140.547,39.974,TRUE
"1963",283888,"Kanpu","Japan","Stratovolcano",NA,NA,"Japan, Taiwan, Marianas","Honshu",39.931,139.879,355,NA,"Subduction zone / Continental crust (>25 km)","Pleistocene",29.0792865753174,-132.343826293945,186.548233032227,139.879,39.931,TRUE
"1964",283889,"Nanashigure","Japan","Lava dome",NA,NA,"Japan, Taiwan, Marianas","Honshu",40.066,141.109,1063,NA,"Subduction zone / Continental crust (>25 km)","Pleistocene",23.4255485534668,-80.7882308959961,187.536712646484,141.109,40.066,TRUE
"1965",283890,"Tashiro","Japan","Stratovolcano",NA,NA,"Japan, Taiwan, Marianas","Honshu",40.426,140.412,1178,NA,"Subduction zone / Continental crust (>25 km)","Pleistocene",27.2599811553955,-110.936393737793,185.138687133789,140.412,40.426,TRUE
"1966",283891,"Okiura","Japan","Caldera",NA,NA,"Japan, Taiwan, Marianas","Honshu",40.57,140.73,985,NA,"Subduction zone / Continental crust (>25 km)","Pleistocene",25.493127822876,-98.409912109375,186.059616088867,140.73,40.57,TRUE
"1967",283892,"Mutsu-Hiuchi-dake","Japan","Stratovolcano",NA,NA,"Japan, Taiwan, Marianas","Honshu",41.436,141.056,781,NA,"Subduction zone / Continental crust (>25 km)","Pleistocene",23.1097526550293,-93.8692474365234,196.13996887207,141.056,41.436,TRUE
"1968",283896,"Kannabe","Japan","Shield",NA,NA,"Japan, Taiwan, Marianas","Honshu",35.504,134.678,460,NA,"Subduction zone / Continental crust (>25 km)","Pleistocene",27.1744937896729,-363.828430175781,163.358978271484,134.678,35.504,TRUE
"1969",283897,"Daira-Komaga-take","Japan","Stratovolcano",NA,NA,"Japan, Taiwan, Marianas","Honshu",40.41,140.255,1158,NA,"Subduction zone / Continental crust (>25 km)","Pleistocene",28.0132904052734,-118.212280273438,184.845092773438,140.255,40.41,TRUE
"1970",283898,"Dorobu","Japan","Caldera",NA,NA,"Japan, Taiwan, Marianas","Honshu",36.898,139.579,1322,NA,"","Pleistocene",27.1988182067871,-99.912109375,196.164962768555,139.579,36.898,TRUE
"1978",284800,"Udonejima","Japan","Stratovolcano",NA,NA,"Japan, Taiwan, Marianas","Izu, Volcano, and Mariana Islands",34.469,139.297,209,NA,"Subduction zone / Oceanic crust (< 15 km)","Pleistocene",NA,NA,NA,139.297,34.469,TRUE
"1979",284801,"Onoharajima","Japan","Lava dome",NA,NA,"Japan, Taiwan, Marianas","Izu, Volcano, and Mariana Islands",34.045,139.387,114,NA,"Subduction zone / Oceanic crust (< 15 km)","Pleistocene",NA,NA,NA,139.387,34.045,TRUE
"1982",285062,"Shikaribetsu Group","Japan","Lava dome(s)",NA,NA,"Japan, Taiwan, Marianas","Hokkaido",43.267,143.1,1401,NA,"Subduction zone / Continental crust (>25 km)","Pleistocene",30.1885204315186,-107.738700866699,244.269500732422,143.1,43.267,TRUE
"1983",285800,"Oshima Maru-yama","Japan","Stratovolcano",NA,NA,"Japan, Taiwan, Marianas","Hokkaido",41.54,140.375,855,NA,"Subduction zone / Continental crust (>25 km)","Pleistocene",26.4024696350098,-120.676254272461,191.910614013672,140.375,41.54,TRUE
"1984",285801,"Hakodate-yama","Japan","Stratovolcano",NA,NA,"Japan, Taiwan, Marianas","Hokkaido",41.757,140.708,333,NA,"Subduction zone / Continental crust (>25 km)","Pleistocene",24.7379817962646,-110.937324523926,199.085235595703,140.708,41.757,TRUE
"1985",285802,"Zenikame","Japan","Submarine",NA,NA,"Japan, Taiwan, Marianas","Hokkaido",41.737,140.855,-30,NA,"Subduction zone / Continental crust (>25 km)","Pleistocene",24.1240100860596,-105.335609436035,200.324172973633,140.855,41.737,TRUE
"1986",285803,"E-san Maru-yama","Japan","Stratovolcano",NA,NA,"Japan, Taiwan, Marianas","Hokkaido",41.849,141.097,691,NA,"Subduction zone / Continental crust (>25 km)","Pleistocene",23.2516059875488,-99.1911239624023,205.73420715332,141.097,41.849,TRUE
"1987",285804,"Yokotsu","Japan","Stratovolcano",NA,NA,"Japan, Taiwan, Marianas","Hokkaido",41.935,140.775,1167,NA,"Subduction zone / Continental crust (>25 km)","Pleistocene",24.4787139892578,-112.010971069336,204.01350402832,140.775,41.935,TRUE
"1988",285805,"Nigorikawa","Japan","Caldera",NA,NA,"Japan, Taiwan, Marianas","Hokkaido",42.12,140.45,356,NA,"Subduction zone / Continental crust (>25 km)","Pleistocene",25.2087078094482,-126.962509155273,204.426849365234,140.45,42.12,TRUE
"1989",285806,"Okushiri-Katsuma-yama","Japan","Shield",NA,NA,"Japan, Taiwan, Marianas","Hokkaido",42.193,139.468,428,NA,"Subduction zone / Continental crust (>25 km)","Pleistocene",26.8930244445801,-165.956771850586,192.805801391602,139.468,42.193,TRUE
"1990",285807,"Kariba","Japan","Stratovolcano",NA,NA,"Japan, Taiwan, Marianas","Hokkaido",42.611,139.944,1520,NA,"Subduction zone / Continental crust (>25 km)","Pleistocene",24.5146636962891,-155.779556274414,208.98762512207,139.944,42.611,TRUE
"1991",285808,"Washibetsu","Japan","Stratovolcano",NA,NA,"Japan, Taiwan, Marianas","Hokkaido",42.433,141.007,911,NA,"Subduction zone / Continental crust (>25 km)","Pleistocene",24.8545913696289,-117.872749328613,219.489837646484,141.007,42.433,TRUE
"1992",285809,"Raiden","Japan","Stratovolcano(es)",NA,NA,"Japan, Taiwan, Marianas","Hokkaido",42.901,140.473,1212,NA,"Subduction zone / Continental crust (>25 km)","Pleistocene",24.6429233551025,-149.162796020508,224.742752075195,140.473,42.901,TRUE
"1993",285810,"Akaigawa","Japan","Stratovolcano",NA,NA,"Japan, Taiwan, Marianas","Hokkaido",43.08,140.82,725,NA,"Subduction zone / Continental crust (>25 km)","Pleistocene",25.7521152496338,-147.606918334961,232.655899047852,140.82,43.08,TRUE
"1994",285811,"Shiribetsu","Japan","Stratovolcano",NA,NA,"Japan, Taiwan, Marianas","Hokkaido",42.767,140.916,1107,NA,"Subduction zone / Continental crust (>25 km)","Pleistocene",25.5660171508789,-132.158584594727,226.614654541016,140.916,42.767,TRUE
"1995",285812,"Orofure-Raiba","Japan","Stratovolcano(es)",NA,NA,"Japan, Taiwan, Marianas","Hokkaido",42.563,141.091,1231,NA,"Subduction zone / Continental crust (>25 km)","Pleistocene",25.2540798187256,-120.084686279297,223.631072998047,141.091,42.563,TRUE
"1996",285813,"Horohoro-Tokushumbetsu","Japan","Stratovolcano(es)",NA,NA,"Japan, Taiwan, Marianas","Hokkaido",42.631,141.146,1322,NA,"Subduction zone / Continental crust (>25 km)","Pleistocene",25.5134296417236,-120.720932006836,225.835174560547,141.146,42.631,TRUE
"1997",285814,"Soranuma","Japan","Shield",NA,NA,"Japan, Taiwan, Marianas","Hokkaido",42.863,141.257,1251,NA,"Subduction zone / Continental crust (>25 km)","Pleistocene",26.421630859375,-127.61400604248,231.663711547852,141.257,42.863,TRUE
"1998",285815,"Sapporo","Japan","Shield",NA,NA,"Japan, Taiwan, Marianas","Hokkaido",42.898,141.204,1294,NA,"Subduction zone / Continental crust (>25 km)","Pleistocene",26.4334373474121,-130.309188842773,231.941772460938,141.204,42.898,TRUE
"1999",285816,"Tomuraushi Volcanic Group","Japan","Stratovolcano(es)",NA,NA,"Japan, Taiwan, Marianas","Hokkaido",43.525,142.852,2141,NA,"Subduction zone / Continental crust (>25 km)","Pleistocene",31.0509872436523,-127.732353210449,246.199783325195,142.852,43.525,TRUE
"2000",285817,"Chubetsu","Japan","Stratovolcano",NA,NA,"Japan, Taiwan, Marianas","Hokkaido",43.589,142.898,1963,NA,"Subduction zone / Continental crust (>25 km)","Pleistocene",31.3000049591064,-130.866882324219,246.579650878906,142.898,43.589,TRUE
"2001",285818,"Niseikaushuppe","Japan","Stratovolcano",NA,NA,"Japan, Taiwan, Marianas","Hokkaido",43.777,142.989,1883,NA,"Subduction zone / Continental crust (>25 km)","Pleistocene",31.7744007110596,-141.848602294922,247.562927246094,142.989,43.777,TRUE
"2002",285819,"Tengu-Hirayama","Japan","Stratovolcano(es)",NA,NA,"Japan, Taiwan, Marianas","Hokkaido",43.776,143.016,1796,NA,"Subduction zone / Continental crust (>25 km)","Pleistocene",31.8289966583252,-141.21484375,247.522476196289,143.016,43.776,TRUE
"2003",285820,"Shiitokoro","Japan","Lava dome",NA,NA,"Japan, Taiwan, Marianas","Hokkaido",43.61,143.184,1336,NA,"Subduction zone / Continental crust (>25 km)","Pleistocene",31.7948474884033,-127.37060546875,246.31672668457,143.184,43.61,TRUE
"2004",285821,"Kumaneshiri","Japan","Stratovolcano(es)",NA,NA,"Japan, Taiwan, Marianas","Hokkaido",43.52,143.237,1635,NA,"Subduction zone / Continental crust (>25 km)","Pleistocene",31.5629615783691,-120.088752746582,245.537338256836,143.237,43.52,TRUE
"2005",285822,"Tokachi-Mitsumata","Japan","Caldera",NA,NA,"Japan, Taiwan, Marianas","Hokkaido",43.52,143.15,700,NA,"Subduction zone / Continental crust (>25 km)","Pleistocene",31.4267101287842,-121.784172058105,245.818618774414,143.15,43.52,TRUE
"2006",285823,"Tokachi-Eboshi","Japan","Lava dome(s)",NA,NA,"Japan, Taiwan, Marianas","Hokkaido",43.376,143.133,1291,NA,"Subduction zone / Continental crust (>25 km)","Pleistocene",30.8454551696777,-113.971305847168,245.00862121582,143.133,43.376,TRUE
"2007",285824,"Birao","Japan","Stratovolcano(es)",NA,NA,"Japan, Taiwan, Marianas","Hokkaido",43.498,144.408,554,NA,"Subduction zone / Continental crust (>25 km)","Pleistocene",34.5386543273926,-90.4675903320312,242.64176940918,144.408,43.498,TRUE
"2008",285825,"Samakkenupuri","Japan","Stratovolcano",NA,NA,"Japan, Taiwan, Marianas","Hokkaido",43.681,144.736,1063,NA,"Subduction zone / Continental crust (>25 km)","Pleistocene",35.9917869567871,-95.1370239257812,244.855667114258,144.736,43.681,TRUE
"2009",285826,"Musa","Japan","Stratovolcano(es)",NA,NA,"Japan, Taiwan, Marianas","Hokkaido",43.676,144.886,1006,NA,"Subduction zone / Continental crust (>25 km)","Pleistocene",35.7877311706543,-91.4217071533203,244.785064697266,144.886,43.676,TRUE
"2010",285827,"Shari","Japan","Stratovolcano",NA,NA,"Japan, Taiwan, Marianas","Hokkaido",43.763,144.722,1545,NA,"Subduction zone / Continental crust (>25 km)","Pleistocene",36.6125259399414,-101.729621887207,245.216674804688,144.722,43.763,TRUE
"2011",285828,"Unabetsu","Japan","Stratovolcano",NA,NA,"Japan, Taiwan, Marianas","Hokkaido",43.874,144.881,1419,NA,"Subduction zone / Continental crust (>25 km)","Pleistocene",37.0652542114258,-105.098785400391,245.194396972656,144.881,43.874,TRUE
"2012",285829,"Onnebetsu","Japan","Stratovolcano",NA,NA,"Japan, Taiwan, Marianas","Hokkaido",43.991,145.017,1331,NA,"Subduction zone / Continental crust (>25 km)","Pleistocene",37.415657043457,-110.649391174316,245.196685791016,145.017,43.991,TRUE
"2013",285830,"Shiretoko","Japan","Stratovolcano",NA,NA,"Japan, Taiwan, Marianas","Hokkaido",44.23,145.278,1254,NA,"Subduction zone / Continental crust (>25 km)","Pleistocene",37.627513885498,-123.235359191895,245.25276184082,145.278,44.23,TRUE
"2014",285839,"Oshima-Ko-jima","Japan","Stratovolcano",NA,NA,"Japan, Taiwan, Marianas","Hokkaido",41.355,139.811,282,NA,"Subduction zone / Continental crust (>25 km)","Pleistocene",28.7292556762695,-142.781005859375,186.134536743164,139.811,41.355,TRUE
"2015",290800,"Urbich Caldera","Japan - administered by Russia","Caldera(s)",NA,NA,"Kuril Islands","Kuril Islands",44.584,147.174,907,NA,"Subduction zone / Continental crust (>25 km)","Pleistocene",36.2859992980957,-85.5880355834961,234.551605224609,147.174,44.584,TRUE
"2016",290801,"Vetrovoi Isthmus Caldera","Japan - administered by Russia","Caldera",NA,NA,"Kuril Islands","Kuril Islands",45.22,148.35,264,NA,"Unknown","Pleistocene",40.2600631713867,-91.567985534668,239.704345703125,148.35,45.22,TRUE
"2017",290802,"Tsirk","Japan - administered by Russia","Caldera",NA,NA,"Kuril Islands","Kuril Islands",45.4,148.58,853,NA,"Unknown","Pleistocene",41.1268043518066,-98.93408203125,240.031356811523,148.58,45.4,TRUE
"2018",290803,"Petr Shmidt Ridge","Russia","Unknown",NA,NA,"Kuril Islands","Kuril Islands",45.95,150.05,1031,NA,"Unknown","Pleistocene",41.8039894104004,-86.6085433959961,229.680374145508,150.05,45.95,TRUE
"2019",290804,"Antipin","Russia","Stratovolcano",NA,NA,"Kuril Islands","Kuril Islands",46.15,150.23,1120,NA,"Unknown","Pleistocene",42.280933380127,-93.0148391723633,226.640274047852,150.23,46.15,TRUE
"2020",290805,"Gora Desantnaya","Russia","Stratovolcano",NA,NA,"Kuril Islands","Kuril Islands",46.192,150.369,847,NA,"Unknown","Pleistocene",42.0639686584473,-90.1943054199219,225.676162719727,150.369,46.192,TRUE
"2021",290806,"Brontona Island","Russia","Unknown",NA,NA,"Kuril Islands","Kuril Islands",46.721,150.733,0,NA,"Subduction zone / Intermediate crust (15-25 km)","Pleistocene",43.763298034668,-109.197036743164,224.907440185547,150.733,46.721,TRUE
"2022",290807,"Ikanmikot","Russia","Stratovolcano",NA,NA,"Kuril Islands","Kuril Islands",46.964,152.07,614,NA,"Unknown","Pleistocene",37.3408813476562,-64.2407379150391,221.116683959961,152.07,46.964,TRUE
"2023",290808,"Kuntomintar","Russia","Stratovolcano",NA,NA,"Kuril Islands","Kuril Islands",48.75,154.02,828,NA,"Subduction zone / Intermediate crust (15-25 km)","Pleistocene",37.5895805358887,-71.8671951293945,216.072387695312,154.02,48.75,TRUE
"2024",290809,"Shestakov","Russia","Stratovolcano",NA,NA,"Kuril Islands","Kuril Islands",49.75,154.75,0,NA,"Unknown","Pleistocene",35.8563995361328,-92.094596862793,219.156936645508,154.75,49.75,TRUE
"2025",290810,"Avos' Rocks","Russia","Unknown",NA,NA,"Kuril Islands","Kuril Islands",49.72,154.12,35,NA,"Unknown","Pleistocene",40.1405601501465,-118.171524047852,216.804428100586,154.12,49.72,TRUE
