"","volcano.number","volcano.name","country","primary.volcano.type","activity.evidence","last.known.eruption","region","subregion","lat","long","elevation..m.","dominant.rock.type","tectonic.setting","file","slab.dip","slab.depth","slab.strike","mx","my","optional"
"503",273090,"Cagua","Philippines","Stratovolcano","Eruption Observed","1860 CE","Philippines and SE Asia","Luzon",18.222,122.123,1133,"Andesite / Basaltic Andesite","Subduction zone / Continental crust (>25 km)","Holocene",NA,NA,NA,122.123,18.222,TRUE
"504",274010,"Camiguin de Babuyanes","Philippines","Stratovolcano","Eruption Observed","1857 CE","Philippines and SE Asia","North of Luzon",18.83,121.86,712,"Andesite / Basaltic Andesite","Subduction zone / Crustal thickness unknown","Holocene",NA,NA,NA,121.86,18.83,TRUE
"505",274020,"Didicas","Philippines","Compound","Eruption Observed","1978 CE","Philippines and SE Asia","North of Luzon",19.077,122.202,228,"Andesite / Basaltic Andesite","Subduction zone / Crustal thickness unknown","Holocene",NA,NA,NA,122.202,19.077,TRUE
"506",274030,"Babuyan Claro","Philippines","Stratovolcano(es)","Eruption Observed","1924 CE","Philippines and SE Asia","North of Luzon",19.523,121.94,1080,"Andesite / Basaltic Andesite","Subduction zone / Crustal thickness unknown","Holocene",NA,NA,NA,121.94,19.523,TRUE
"507",274050,"Unnamed","Philippines","Submarine","Eruption Observed","1854 CE","Philippines and SE Asia","North of Luzon",20.33,121.75,-24,"No Data (checked)","Subduction zone / Crustal thickness unknown","Holocene",NA,NA,NA,121.75,20.33,TRUE
"508",274060,"Iraya","Philippines","Stratovolcano","Eruption Observed","1454 CE","Philippines and SE Asia","North of Luzon",20.469,122.01,1009,"Andesite / Basaltic Andesite","Subduction zone / Crustal thickness unknown","Holocene",NA,NA,NA,122.01,20.469,TRUE
"519",281020,"Unnamed","Taiwan","Submarine","Evidence Uncertain","Unknown","Japan, Taiwan, Marianas","Taiwan",21.83,121.18,-115,"No Data (checked)","Subduction zone / Continental crust (>25 km)","Holocene",NA,NA,NA,121.18,21.83,TRUE
"520",281030,"Unnamed","Taiwan","Submarine","Eruption Observed","1853 CE","Japan, Taiwan, Marianas","Taiwan",24.132,121.926,-1640,"No Data (checked)","Subduction zone / Continental crust (>25 km)","Holocene",9.25596046447754,-17.1976375579834,310.719665527344,121.926,24.132,TRUE
"521",281031,"Kueishantao","Taiwan","Stratovolcano","Eruption Observed","1785 CE","Japan, Taiwan, Marianas","Taiwan",24.841,121.953,361,"Andesite / Basaltic Andesite","Subduction zone / Continental crust (>25 km)","Holocene",20.752893447876,-29.5709018707275,312.092071533203,121.953,24.841,TRUE
"522",281032,"Tatun Volcanic Group","Taiwan","Lava dome(s)","Eruption Dated","648 CE","Japan, Taiwan, Marianas","Taiwan",25.178,121.553,1120,"Andesite / Basaltic Andesite","Subduction zone / Continental crust (>25 km)","Holocene",30.4352207183838,-25.1974296569824,330.985137939453,121.553,25.178,TRUE
"523",282010,"Submarine Volcano NNE of Iriomotejima","Japan","Submarine","Eruption Observed","1924 CE","Japan, Taiwan, Marianas","Ryukyu Islands and Kyushu",24.57,123.93,-200,"Rhyolite","Subduction zone / Oceanic crust (< 15 km)","Holocene",20.4187202453613,-36.8799209594727,266.843444824219,123.93,24.57,TRUE
"524",282020,"Io-Torishima","Japan","Complex","Eruption Observed","1968 CE","Japan, Taiwan, Marianas","Ryukyu Islands and Kyushu",27.881,128.223,212,"Andesite / Basaltic Andesite","Subduction zone / Oceanic crust (< 15 km)","Holocene",41.5451011657715,-73.9327774047852,216.485595703125,128.223,27.881,TRUE
"525",282021,"Yokoate-jima","Japan","Stratovolcano(es)","Eruption Observed","1835 CE","Japan, Taiwan, Marianas","Ryukyu Islands and Kyushu",28.797,128.997,495,"Andesite / Basaltic Andesite","Subduction zone / Oceanic crust (< 15 km)","Holocene",47.3555488586426,-70.2402648925781,216.037948608398,128.997,28.797,TRUE
"526",282022,"Akusekijima","Japan","Stratovolcano(es)","Evidence Uncertain","Unknown","Japan, Taiwan, Marianas","Ryukyu Islands and Kyushu",29.465,129.594,555,"Andesite / Basaltic Andesite","Subduction zone / Oceanic crust (< 15 km)","Holocene",47.0381126403809,-68.7169494628906,218.915573120117,129.594,29.465,TRUE
"527",282030,"Suwanosejima","Japan","Stratovolcano(es)","Eruption Observed","2019 CE","Japan, Taiwan, Marianas","Ryukyu Islands and Kyushu",29.638,129.714,796,"Andesite / Basaltic Andesite","Subduction zone / Oceanic crust (< 15 km)","Holocene",47.6741333007812,-71.4569549560547,216.683929443359,129.714,29.638,TRUE
"528",282040,"Nakanoshima","Japan","Stratovolcano(es)","Eruption Observed","1914 CE","Japan, Taiwan, Marianas","Ryukyu Islands and Kyushu",29.859,129.857,979,"Andesite / Basaltic Andesite","Subduction zone / Oceanic crust (< 15 km)","Holocene",49.0814170837402,-76.1263656616211,212.652923583984,129.857,29.859,TRUE
"529",282043,"Kuchinoshima","Japan","Stratovolcano(es)","Eruption Dated","1190 CE","Japan, Taiwan, Marianas","Ryukyu Islands and Kyushu",29.968,129.926,628,"Andesite / Basaltic Andesite","Subduction zone / Oceanic crust (< 15 km)","Holocene",48.6888046264648,-75.047721862793,211.016738891602,129.926,29.968,TRUE
"530",282050,"Kuchinoerabujima","Japan","Stratovolcano(es)","Eruption Observed","2019 CE","Japan, Taiwan, Marianas","Ryukyu Islands and Kyushu",30.443,130.217,657,"Andesite / Basaltic Andesite","Subduction zone / Oceanic crust (< 15 km)","Holocene",50.4916648864746,-78.7995529174805,210.574401855469,130.217,30.443,TRUE
"531",282060,"Kikai","Japan","Caldera","Eruption Observed","2019 CE","Japan, Taiwan, Marianas","Ryukyu Islands and Kyushu",30.793,130.305,704,"Rhyolite","Subduction zone / Oceanic crust (< 15 km)","Holocene",55.1487350463867,-96.4389572143555,211.144424438477,130.305,30.793,TRUE
"532",282070,"Ata","Japan","Caldera(s)","Eruption Observed","885 CE","Japan, Taiwan, Marianas","Ryukyu Islands and Kyushu",31.22,130.57,924,"Andesite / Basaltic Andesite","Subduction zone / Continental crust (>25 km)","Holocene",55.3733024597168,-97.2212905883789,206.892333984375,130.57,31.22,TRUE
"533",282080,"Aira","Japan","Caldera","Eruption Observed","2019 CE","Japan, Taiwan, Marianas","Ryukyu Islands and Kyushu",31.593,130.657,1117,"Andesite / Basaltic Andesite","Subduction zone / Continental crust (>25 km)","Holocene",57.7147789001465,-113.784660339355,203.231353759766,130.657,31.593,TRUE
"534",282081,"Yonemaru-Sumiyoshiike","Japan","Maar(s)","Eruption Dated","6200 BCE","Japan, Taiwan, Marianas","Ryukyu Islands and Kyushu",31.771,130.592,40,"Basalt / Picro-Basalt","Subduction zone / Continental crust (>25 km)","Holocene",59.7456741333008,-132.61637878418,201.378601074219,130.592,31.771,TRUE
"535",282090,"Kirishimayama","Japan","Shield","Eruption Observed","2018 CE","Japan, Taiwan, Marianas","Ryukyu Islands and Kyushu",31.934,130.862,1700,"Andesite / Basaltic Andesite","Subduction zone / Continental crust (>25 km)","Holocene",54.5221290588379,-106.444465637207,201.812377929688,130.862,31.934,TRUE
"536",282091,"Fukue","Japan","Shield(s)","Eruption Dated","400 BCE","Japan, Taiwan, Marianas","Ryukyu Islands and Kyushu",32.657,128.849,315,"Basalt / Picro-Basalt","Subduction zone / Continental crust (>25 km)","Holocene",34.7057723999023,-349.717193603516,167.245147705078,128.849,32.657,TRUE
"537",282100,"Unzendake","Japan","Complex","Eruption Observed","1996 CE","Japan, Taiwan, Marianas","Ryukyu Islands and Kyushu",32.761,130.299,1483,"Andesite / Basaltic Andesite","Subduction zone / Continental crust (>25 km)","Holocene",54.8884506225586,-248.253021240234,208.697326660156,130.299,32.761,TRUE
"538",282110,"Asosan","Japan","Caldera","Eruption Observed","2019 CE","Japan, Taiwan, Marianas","Ryukyu Islands and Kyushu",32.884,131.104,1592,"Andesite / Basaltic Andesite","Subduction zone / Continental crust (>25 km)","Holocene",61.5919303894043,-140.07780456543,207.442749023438,131.104,32.884,TRUE
"539",282120,"Kujusan","Japan","Stratovolcano(es)","Eruption Observed","1996 CE","Japan, Taiwan, Marianas","Ryukyu Islands and Kyushu",33.086,131.249,1791,"Andesite / Basaltic Andesite","Subduction zone / Continental crust (>25 km)","Holocene",62.9145584106445,-136.677688598633,209.152069091797,131.249,33.086,TRUE
"540",282130,"Yufu-Tsurumi","Japan","Lava dome(s)","Eruption Observed","867 CE","Japan, Taiwan, Marianas","Ryukyu Islands and Kyushu",33.282,131.39,1584,"Andesite / Basaltic Andesite","Subduction zone / Continental crust (>25 km)","Holocene",64.3801116943359,-137.308807373047,210.141143798828,131.39,33.282,TRUE
"541",283001,"Abu","Japan","Shield(s)","Eruption Dated","6850 BCE","Japan, Taiwan, Marianas","Honshu",34.5,131.6,641,"Andesite / Basaltic Andesite","Subduction zone / Continental crust (>25 km)","Holocene",71.4573364257812,-229.686233520508,216.536209106445,131.6,34.5,TRUE
"542",283002,"Sanbesan","Japan","Stratovolcano","Eruption Dated","650 CE","Japan, Taiwan, Marianas","Honshu",35.141,132.622,1126,"Dacite","Subduction zone / Continental crust (>25 km)","Holocene",65.2630462646484,-168.726516723633,215.64323425293,132.622,35.141,TRUE
"543",283003,"Oki-Dogo","Japan","Shield","Evidence Credible","Unknown","Japan, Taiwan, Marianas","Honshu",36.176,133.334,151,"Basalt / Picro-Basalt","Subduction zone / Continental crust (>25 km)","Holocene",NA,NA,NA,133.334,36.176,TRUE
"544",283010,"Izu-Tobu","Japan","Pyroclastic cone(s)","Eruption Observed","1989 CE","Japan, Taiwan, Marianas","Honshu",34.9,139.098,1406,"Basalt / Picro-Basalt","Subduction zone / Continental crust (>25 km)","Holocene",NA,NA,NA,139.098,34.9,TRUE
"545",283020,"Hakoneyama","Japan","Complex","Eruption Dated","2015 CE","Japan, Taiwan, Marianas","Honshu",35.233,139.021,1438,"Andesite / Basaltic Andesite","Subduction zone / Continental crust (>25 km)","Holocene",13.3189897537231,-9.08205986022949,276.008483886719,139.021,35.233,TRUE
"546",283030,"Fujisan","Japan","Stratovolcano","Eruption Observed","1708 CE","Japan, Taiwan, Marianas","Honshu",35.361,138.728,3776,"Basalt / Picro-Basalt","Subduction zone / Continental crust (>25 km)","Holocene",20.8737659454346,-13.9545450210571,259.597717285156,138.728,35.361,TRUE
"547",283031,"Yokodake","Japan","Stratovolcano(es)","Eruption Dated","1200 CE","Japan, Taiwan, Marianas","Honshu",36.087,138.32,2480,"Andesite / Basaltic Andesite","Subduction zone / Continental crust (>25 km)","Holocene",43.507884979248,-80.4685516357422,244.709762573242,138.32,36.087,TRUE
"548",283040,"Ontakesan","Japan","Complex","Eruption Observed","2014 CE","Japan, Taiwan, Marianas","Honshu",35.893,137.48,3067,"Andesite / Basaltic Andesite","Subduction zone / Continental crust (>25 km)","Holocene",40.9836120605469,-85.7070388793945,270.473693847656,137.48,35.893,TRUE
"549",283050,"Hakusan","Japan","Stratovolcano","Eruption Observed","1659 CE","Japan, Taiwan, Marianas","Honshu",36.155,136.771,2702,"Andesite / Basaltic Andesite","Subduction zone / Continental crust (>25 km)","Holocene",44.6694526672363,-117.419822692871,240.624404907227,136.771,36.155,TRUE
"550",283060,"Norikuradake","Japan","Stratovolcano(es)","Eruption Dated","50 BCE","Japan, Taiwan, Marianas","Honshu",36.106,137.554,3026,"Andesite / Basaltic Andesite","Subduction zone / Continental crust (>25 km)","Holocene",39.9144096374512,-104.818382263184,265.937805175781,137.554,36.106,TRUE
"551",283069,"Akandanayama","Japan","Stratovolcano","Evidence Credible","Unknown","Japan, Taiwan, Marianas","Honshu",36.2,137.573,2109,"","","Holocene",38.1852607727051,-113.686424255371,263.118682861328,137.573,36.2,TRUE
"552",283070,"Yakedake","Japan","Stratovolcano(es)","Eruption Observed","1995 CE","Japan, Taiwan, Marianas","Honshu",36.227,137.587,2455,"Andesite / Basaltic Andesite","Subduction zone / Continental crust (>25 km)","Holocene",37.4577140808105,-116.365295410156,261.40869140625,137.587,36.227,TRUE
"553",283071,"Washiba-Kumonotaira","Japan","Shield(s)","Evidence Credible","Unknown","Japan, Taiwan, Marianas","Honshu",36.408,137.594,2924,"Andesite / Basaltic Andesite","Subduction zone / Continental crust (>25 km)","Holocene",33.5197906494141,-129.211578369141,256.713562011719,137.594,36.408,TRUE
"554",283080,"Midagahara","Japan","Stratovolcano","Eruption Observed","1839 CE","Japan, Taiwan, Marianas","Honshu",36.571,137.59,2621,"Andesite / Basaltic Andesite","Subduction zone / Continental crust (>25 km)","Holocene",28.9932136535645,-140.312881469727,254.684310913086,137.59,36.571,TRUE
"555",283090,"Niigata-Yakeyama","Japan","Lava dome","Eruption Observed","1998 CE","Japan, Taiwan, Marianas","Honshu",36.921,138.036,2400,"Andesite / Basaltic Andesite","Subduction zone / Continental crust (>25 km)","Holocene",28.6305065155029,-149.901733398438,238.234619140625,138.036,36.921,TRUE
"556",283100,"Myokosan","Japan","Stratovolcano","Eruption Dated","750 BCE","Japan, Taiwan, Marianas","Honshu",36.891,138.114,2454,"Andesite / Basaltic Andesite","Subduction zone / Continental crust (>25 km)","Holocene",29.9947071075439,-145.902282714844,236.784103393555,138.114,36.891,TRUE
"557",283110,"Asamayama","Japan","Complex","Eruption Observed","2019 CE","Japan, Taiwan, Marianas","Honshu",36.406,138.523,2568,"Andesite / Basaltic Andesite","Subduction zone / Continental crust (>25 km)","Holocene",38.0353546142578,-102.037925720215,245.537399291992,138.523,36.406,TRUE
"558",283120,"Kusatsu-Shiranesan","Japan","Stratovolcano(es)","Eruption Observed","2018 CE","Japan, Taiwan, Marianas","Honshu",36.618,138.528,2165,"Andesite / Basaltic Andesite","Subduction zone / Continental crust (>25 km)","Holocene",34.2154731750488,-117.197929382324,240.864044189453,138.528,36.618,TRUE
"559",283121,"Shiga","Japan","Shield(s)","Evidence Uncertain","Unknown","Japan, Taiwan, Marianas","Honshu",36.688,138.519,2041,"Andesite / Basaltic Andesite","Subduction zone / Continental crust (>25 km)","Holocene",33.3740844726562,-121.988632202148,239.294021606445,138.519,36.688,TRUE
"560",283122,"Harunasan","Japan","Stratovolcano","Eruption Dated","550 CE","Japan, Taiwan, Marianas","Honshu",36.477,138.851,1449,"Andesite / Basaltic Andesite","Subduction zone / Continental crust (>25 km)","Holocene",34.5004768371582,-99.689826965332,247.108108520508,138.851,36.477,TRUE
"561",283130,"Akagisan","Japan","Stratovolcano","Evidence Uncertain","Unknown","Japan, Taiwan, Marianas","Honshu",36.56,139.193,1828,"Andesite / Basaltic Andesite","Subduction zone / Continental crust (>25 km)","Holocene",32.3412017822266,-96.7242660522461,244.156036376953,139.193,36.56,TRUE
"562",283131,"Hiuchigatake","Japan","Stratovolcano","Eruption Observed","1544 CE","Japan, Taiwan, Marianas","Honshu",36.955,139.285,2356,"Andesite / Basaltic Andesite","Subduction zone / Continental crust (>25 km)","Holocene",NA,NA,NA,139.285,36.955,TRUE
"563",283140,"Nikko-Shiranesan","Japan","Shield","Eruption Observed","1952 CE","Japan, Taiwan, Marianas","Honshu",36.799,139.376,2578,"Andesite / Basaltic Andesite","Subduction zone / Continental crust (>25 km)","Holocene",NA,NA,NA,139.376,36.799,TRUE
"564",283141,"Nantaisan","Japan","Stratovolcano","Eruption Dated","9540 BCE","Japan, Taiwan, Marianas","Honshu",36.765,139.491,2486,"Andesite / Basaltic Andesite","Subduction zone / Continental crust (>25 km)","Holocene",NA,NA,NA,139.491,36.765,TRUE
"565",283142,"Omanago Group","Japan","Lava dome(s)","Eruption Dated","3050 BCE","Japan, Taiwan, Marianas","Honshu",36.795,139.507,2341,"Dacite","Subduction zone / Continental crust (>25 km)","Holocene",NA,NA,NA,139.507,36.795,TRUE
"566",283143,"Takaharayama","Japan","Stratovolcano","Eruption Dated","4570 BCE","Japan, Taiwan, Marianas","Honshu",36.9,139.777,1795,"Andesite / Basaltic Andesite","Subduction zone / Continental crust (>25 km)","Holocene",NA,NA,NA,139.777,36.9,TRUE
"567",283150,"Nasudake","Japan","Stratovolcano(es)","Eruption Observed","1963 CE","Japan, Taiwan, Marianas","Honshu",37.125,139.963,1915,"Andesite / Basaltic Andesite","Subduction zone / Continental crust (>25 km)","Holocene",NA,NA,NA,139.963,37.125,TRUE
"568",283151,"Numazawa","Japan","Shield","Eruption Dated","3400 BCE","Japan, Taiwan, Marianas","Honshu",37.444,139.566,835,"Dacite","Subduction zone / Continental crust (>25 km)","Holocene",NA,NA,NA,139.566,37.444,TRUE
"569",283160,"Bandaisan","Japan","Stratovolcano","Eruption Observed","1888 CE","Japan, Taiwan, Marianas","Honshu",37.601,140.072,1816,"Andesite / Basaltic Andesite","Subduction zone / Continental crust (>25 km)","Holocene",NA,NA,NA,140.072,37.601,TRUE
"570",283170,"Adatarayama","Japan","Stratovolcano(es)","Eruption Observed","1996 CE","Japan, Taiwan, Marianas","Honshu",37.647,140.281,1728,"Andesite / Basaltic Andesite","Subduction zone / Continental crust (>25 km)","Holocene",NA,NA,NA,140.281,37.647,TRUE
"571",283180,"Azumayama","Japan","Stratovolcano(es)","Eruption Observed","1977 CE","Japan, Taiwan, Marianas","Honshu",37.735,140.244,1949,"Andesite / Basaltic Andesite","Subduction zone / Continental crust (>25 km)","Holocene",NA,NA,NA,140.244,37.735,TRUE
"572",283190,"Zaozan [Zaosan]","Japan","Complex","Eruption Observed","1940 CE","Japan, Taiwan, Marianas","Honshu",38.144,140.44,1841,"Andesite / Basaltic Andesite","Subduction zone / Continental crust (>25 km)","Holocene",NA,NA,NA,140.44,38.144,TRUE
"573",283191,"Hijiori","Japan","Caldera","Evidence Credible","Unknown","Japan, Taiwan, Marianas","Honshu",38.599,140.162,552,"Dacite","Subduction zone / Continental crust (>25 km)","Holocene",NA,NA,NA,140.162,38.599,TRUE
"574",283200,"Naruko","Japan","Caldera","Eruption Observed","837 CE","Japan, Taiwan, Marianas","Honshu",38.729,140.734,470,"Rhyolite","Subduction zone / Continental crust (>25 km)","Holocene",NA,NA,NA,140.734,38.729,TRUE
"575",283210,"Kurikomayama","Japan","Stratovolcano","Eruption Observed","1950 CE","Japan, Taiwan, Marianas","Honshu",38.961,140.788,1627,"Andesite / Basaltic Andesite","Subduction zone / Continental crust (>25 km)","Holocene",NA,NA,NA,140.788,38.961,TRUE
"576",283220,"Chokaisan","Japan","Stratovolcano(es)","Eruption Observed","1974 CE","Japan, Taiwan, Marianas","Honshu",39.099,140.049,2236,"Andesite / Basaltic Andesite","Subduction zone / Continental crust (>25 km)","Holocene",NA,NA,NA,140.049,39.099,TRUE
"577",283230,"Akita-Komagatake","Japan","Stratovolcano(es)","Eruption Observed","1971 CE","Japan, Taiwan, Marianas","Honshu",39.761,140.799,1637,"Basalt / Picro-Basalt","Subduction zone / Continental crust (>25 km)","Holocene",NA,NA,NA,140.799,39.761,TRUE
"578",283240,"Iwatesan","Japan","Complex","Eruption Observed","1919 CE","Japan, Taiwan, Marianas","Honshu",39.853,141.001,2038,"Basalt / Picro-Basalt","Subduction zone / Continental crust (>25 km)","Holocene",NA,NA,NA,141.001,39.853,TRUE
"579",283250,"Hachimantai","Japan","Stratovolcano","Eruption Dated","5350 BCE","Japan, Taiwan, Marianas","Honshu",39.958,140.854,1613,"Andesite / Basaltic Andesite","Subduction zone / Continental crust (>25 km)","Holocene",NA,NA,NA,140.854,39.958,TRUE
"580",283260,"Akita-Yakeyama","Japan","Stratovolcano","Eruption Observed","1997 CE","Japan, Taiwan, Marianas","Honshu",39.964,140.757,1366,"Andesite / Basaltic Andesite","Subduction zone / Continental crust (>25 km)","Holocene",NA,NA,NA,140.757,39.964,TRUE
"581",283262,"Megata","Japan","Maar(s)","Eruption Dated","2050 BCE","Japan, Taiwan, Marianas","Honshu",39.95,139.73,291,"Andesite / Basaltic Andesite","Subduction zone / Continental crust (>25 km)","Holocene",NA,NA,NA,139.73,39.95,TRUE
"582",283270,"Iwakisan","Japan","Stratovolcano","Eruption Observed","1863 CE","Japan, Taiwan, Marianas","Honshu",40.656,140.303,1625,"Andesite / Basaltic Andesite","Subduction zone / Continental crust (>25 km)","Holocene",NA,NA,NA,140.303,40.656,TRUE
"583",283271,"Towada","Japan","Caldera","Eruption Observed","915 CE","Japan, Taiwan, Marianas","Honshu",40.51,140.88,1011,"Andesite / Basaltic Andesite","Subduction zone / Continental crust (>25 km)","Holocene",NA,NA,NA,140.88,40.51,TRUE
"584",283280,"Hakkodasan","Japan","Stratovolcano(es)","Eruption Dated","1550 CE","Japan, Taiwan, Marianas","Honshu",40.659,140.877,1585,"Andesite / Basaltic Andesite","Subduction zone / Continental crust (>25 km)","Holocene",NA,NA,NA,140.877,40.659,TRUE
"585",283290,"Osorezan","Japan","Stratovolcano","Eruption Observed","1787 CE","Japan, Taiwan, Marianas","Honshu",41.279,141.12,878,"Andesite / Basaltic Andesite","Subduction zone / Continental crust (>25 km)","Holocene",NA,NA,NA,141.12,41.279,TRUE
"586",284010,"Izu-Oshima","Japan","Stratovolcano","Eruption Observed","1990 CE","Japan, Taiwan, Marianas","Izu, Volcano, and Mariana Islands",34.724,139.394,758,"Basalt / Picro-Basalt","Subduction zone / Oceanic crust (< 15 km)","Holocene",NA,NA,NA,139.394,34.724,TRUE
"587",284011,"Toshima","Japan","Stratovolcano","Eruption Dated","4550 BCE","Japan, Taiwan, Marianas","Izu, Volcano, and Mariana Islands",34.52,139.279,508,"Basalt / Picro-Basalt","Subduction zone / Oceanic crust (< 15 km)","Holocene",NA,NA,NA,139.279,34.52,TRUE
"588",284020,"Niijima","Japan","Lava dome(s)","Eruption Observed","886 CE","Japan, Taiwan, Marianas","Izu, Volcano, and Mariana Islands",34.397,139.27,432,"Rhyolite","Subduction zone / Oceanic crust (< 15 km)","Holocene",NA,NA,NA,139.27,34.397,TRUE
"589",284030,"Kozushima","Japan","Lava dome(s)","Eruption Observed","838 CE","Japan, Taiwan, Marianas","Izu, Volcano, and Mariana Islands",34.219,139.153,572,"Rhyolite","Subduction zone / Oceanic crust (< 15 km)","Holocene",NA,NA,NA,139.153,34.219,TRUE
"590",284040,"Miyakejima","Japan","Stratovolcano","Eruption Observed","2010 CE","Japan, Taiwan, Marianas","Izu, Volcano, and Mariana Islands",34.094,139.526,775,"Basalt / Picro-Basalt","Subduction zone / Oceanic crust (< 15 km)","Holocene",NA,NA,NA,139.526,34.094,TRUE
"591",284041,"Mikurajima","Japan","Stratovolcano","Eruption Dated","4100 BCE","Japan, Taiwan, Marianas","Izu, Volcano, and Mariana Islands",33.874,139.602,851,"Basalt / Picro-Basalt","Subduction zone / Oceanic crust (< 15 km)","Holocene",NA,NA,NA,139.602,33.874,TRUE
"592",284042,"Kurose Hole","Japan","Submarine","Evidence Uncertain","Unknown","Japan, Taiwan, Marianas","Izu, Volcano, and Mariana Islands",33.4,139.68,-107,"Dacite","Subduction zone / Oceanic crust (< 15 km)","Holocene",NA,NA,NA,139.68,33.4,TRUE
"593",284050,"Hachijojima","Japan","Stratovolcano(es)","Eruption Observed","1606 CE","Japan, Taiwan, Marianas","Izu, Volcano, and Mariana Islands",33.137,139.766,854,"Basalt / Picro-Basalt","Subduction zone / Oceanic crust (< 15 km)","Holocene",NA,NA,NA,139.766,33.137,TRUE
"594",284060,"Aogashima","Japan","Stratovolcano","Eruption Observed","1785 CE","Japan, Taiwan, Marianas","Izu, Volcano, and Mariana Islands",32.458,139.759,423,"Basalt / Picro-Basalt","Subduction zone / Oceanic crust (< 15 km)","Holocene",NA,NA,NA,139.759,32.458,TRUE
"595",284061,"Kita-Bayonnaise","Japan","Submarine","Evidence Uncertain","Unknown","Japan, Taiwan, Marianas","Izu, Volcano, and Mariana Islands",32.1,139.85,-360,"Rhyolite","Subduction zone / Oceanic crust (< 15 km)","Holocene",NA,NA,NA,139.85,32.1,TRUE
"596",284070,"Myojinsho","Japan","Submarine","Eruption Observed","1970 CE","Japan, Taiwan, Marianas","Izu, Volcano, and Mariana Islands",31.888,139.918,11,"Dacite","Subduction zone / Oceanic crust (< 15 km)","Holocene",NA,NA,NA,139.918,31.888,TRUE
"597",284080,"Sumisujima","Japan","Submarine","Eruption Observed","1916 CE","Japan, Taiwan, Marianas","Izu, Volcano, and Mariana Islands",31.44,140.051,136,"Dacite","Subduction zone / Oceanic crust (< 15 km)","Holocene",NA,NA,NA,140.051,31.44,TRUE
"598",284090,"Izu-Torishima","Japan","Stratovolcano","Eruption Observed","2002 CE","Japan, Taiwan, Marianas","Izu, Volcano, and Mariana Islands",30.484,140.303,394,"Basalt / Picro-Basalt","Subduction zone / Oceanic crust (< 15 km)","Holocene",NA,NA,NA,140.303,30.484,TRUE
"599",284091,"Sofugan","Japan","Stratovolcano","Evidence Uncertain","Unknown","Japan, Taiwan, Marianas","Izu, Volcano, and Mariana Islands",29.794,140.342,99,"Basalt / Picro-Basalt","Subduction zone / Oceanic crust (< 15 km)","Holocene",NA,NA,NA,140.342,29.794,TRUE
"600",284093,"Suiyo Seamount","Japan","Submarine","Unrest / Holocene","Unknown","Japan, Taiwan, Marianas","Izu, Volcano, and Mariana Islands",28.575,140.633,-991,"Andesite / Basaltic Andesite","Subduction zone / Crustal thickness unknown","Holocene",NA,NA,NA,140.633,28.575,TRUE
"601",284094,"Mokuyo Seamount","Japan","Submarine","Unrest / Holocene","Unknown","Japan, Taiwan, Marianas","Izu, Volcano, and Mariana Islands",28.327,140.572,-933,"Andesite / Basaltic Andesite","Subduction zone / Crustal thickness unknown","Holocene",NA,NA,NA,140.572,28.327,TRUE
"602",284095,"Doyo Seamount","Japan","Submarine","Unrest / Holocene","Unknown","Japan, Taiwan, Marianas","Izu, Volcano, and Mariana Islands",27.68,140.8,-590,"Basalt / Picro-Basalt","Subduction zone / Crustal thickness unknown","Holocene",NA,NA,NA,140.8,27.68,TRUE
"603",284096,"Nishinoshima","Japan","Caldera","Eruption Observed","2019 CE","Japan, Taiwan, Marianas","Izu, Volcano, and Mariana Islands",27.247,140.874,25,"Andesite / Basaltic Andesite","Subduction zone / Crustal thickness unknown","Holocene",NA,NA,NA,140.874,27.247,TRUE
"604",284097,"Kaikata Seamount","Japan","Submarine","Unrest / Holocene","Unknown","Japan, Taiwan, Marianas","Izu, Volcano, and Mariana Islands",26.667,140.929,-165,"Andesite / Basaltic Andesite","Subduction zone / Crustal thickness unknown","Holocene",NA,NA,NA,140.929,26.667,TRUE
"605",284100,"Kaitoku Seamount","Japan","Submarine","Eruption Observed","1984 CE","Japan, Taiwan, Marianas","Izu, Volcano, and Mariana Islands",26.127,141.102,-95,"Basalt / Picro-Basalt","Subduction zone / Crustal thickness unknown","Holocene",NA,NA,NA,141.102,26.127,TRUE
"606",284110,"Kita-Ioto","Japan","Stratovolcano","Eruption Observed","1945 CE","Japan, Taiwan, Marianas","Izu, Volcano, and Mariana Islands",25.424,141.284,792,"Basalt / Picro-Basalt","Subduction zone / Crustal thickness unknown","Holocene",NA,NA,NA,141.284,25.424,TRUE
"607",284120,"Ioto","Japan","Caldera","Eruption Observed","2012 CE","Japan, Taiwan, Marianas","Izu, Volcano, and Mariana Islands",24.751,141.289,169,"Trachyandesite / Basaltic Trachyandesite","Subduction zone / Crustal thickness unknown","Holocene",NA,NA,NA,141.289,24.751,TRUE
"608",284121,"Kita-Fukutokutai","Japan","Submarine","Eruption Observed","1954 CE","Japan, Taiwan, Marianas","Izu, Volcano, and Mariana Islands",24.417,141.417,-73,"No Data (checked)","Subduction zone / Crustal thickness unknown","Holocene",NA,NA,NA,141.417,24.417,TRUE
"609",284130,"Fukutoku-Oka-no-Ba","Japan","Submarine","Eruption Observed","2010 CE","Japan, Taiwan, Marianas","Izu, Volcano, and Mariana Islands",24.285,141.481,-29,"Trachyandesite / Basaltic Trachyandesite","Subduction zone / Crustal thickness unknown","Holocene",NA,NA,NA,141.481,24.285,TRUE
"610",284131,"Minami-Hiyoshi","Japan","Submarine","Eruption Observed","1975 CE","Japan, Taiwan, Marianas","Izu, Volcano, and Mariana Islands",23.5,141.935,-107,"Trachyandesite / Basaltic Trachyandesite","Subduction zone / Crustal thickness unknown","Holocene",NA,NA,NA,141.935,23.5,TRUE
"611",284132,"Nikko","Japan","Submarine","Unrest / Holocene","Unknown","Japan, Taiwan, Marianas","Izu, Volcano, and Mariana Islands",23.078,142.326,-392,"Basalt / Picro-Basalt","Subduction zone / Crustal thickness unknown","Holocene",NA,NA,NA,142.326,23.078,TRUE
"612",284133,"Fukujin","United States","Submarine","Eruption Observed","1974 CE","Japan, Taiwan, Marianas","Izu, Volcano, and Mariana Islands",21.93,143.47,-217,"Andesite / Basaltic Andesite","Subduction zone / Crustal thickness unknown","Holocene",NA,NA,NA,143.47,21.93,TRUE
"613",284134,"Kasuga 1","United States","Submarine","Eruption Observed","1959 CE","Japan, Taiwan, Marianas","Izu, Volcano, and Mariana Islands",21.765,143.71,-598,"Andesite / Basaltic Andesite","Subduction zone / Crustal thickness unknown","Holocene",NA,NA,NA,143.71,21.765,TRUE
"614",284135,"Kasuga 2","United States","Submarine","Evidence Credible","Unknown","Japan, Taiwan, Marianas","Izu, Volcano, and Mariana Islands",21.6,143.637,-274,"Basalt / Picro-Basalt","Subduction zone / Crustal thickness unknown","Holocene",NA,NA,NA,143.637,21.6,TRUE
"637",285010,"Oshima-Oshima","Japan","Stratovolcano","Eruption Observed","1790 CE","Japan, Taiwan, Marianas","Hokkaido",41.51,139.367,732,"Basalt / Picro-Basalt","Subduction zone / Continental crust (>25 km)","Holocene",NA,NA,NA,139.367,41.51,TRUE
"638",285011,"Esan","Japan","Lava dome(s)","Eruption Observed","1874 CE","Japan, Taiwan, Marianas","Hokkaido",41.805,141.166,618,"Andesite / Basaltic Andesite","Subduction zone / Continental crust (>25 km)","Holocene",NA,NA,NA,141.166,41.805,TRUE
"824",305060,"Changbaishan","China-North Korea","Stratovolcano","Eruption Observed","1903 CE","Kamchatka and Mainland Asia","China (eastern)",41.98,128.08,2744,"Trachyte / Trachydacite","Intraplate / Continental crust (>25 km)","Holocene",NA,NA,NA,128.08,41.98,TRUE
"825",306020,"Ch'uga-ryong","North Korea-South Korea","Shield","Evidence Uncertain","Unknown","Kamchatka and Mainland Asia","Korea",38.33,127.33,452,"Basalt / Picro-Basalt","Intraplate / Continental crust (>25 km)","Holocene",NA,NA,NA,127.33,38.33,TRUE
"826",306030,"Ulreung","South Korea","Stratovolcano","Eruption Dated","2990 BCE","Kamchatka and Mainland Asia","Korea",37.5,130.87,984,"Trachyandesite / Basaltic Trachyandesite","Intraplate / Continental crust (>25 km)","Holocene",NA,NA,NA,130.87,37.5,TRUE
"827",306040,"Halla","South Korea","Shield","Eruption Observed","1007 CE","Kamchatka and Mainland Asia","Korea",33.361,126.53,1919,"Basalt / Picro-Basalt","Intraplate / Continental crust (>25 km)","Holocene",NA,NA,NA,126.53,33.361,TRUE
"1821",274800,"Matarem","Philippines","Compound",NA,NA,"Philippines and SE Asia","North of Luzon",20.38,121.93,459,NA,"Subduction zone / Crustal thickness unknown","Pleistocene",NA,NA,NA,121.93,20.38,TRUE
"1849",281801,"Tsaolingshan","Taiwan","Shield",NA,NA,"Japan, Taiwan, Marianas","Taiwan",24.83,121.28,347,NA,"Subduction zone / Continental crust (>25 km)","Pleistocene",NA,NA,NA,121.28,24.83,TRUE
"1850",281802,"Chilung Group","Taiwan","Lava dome(s)",NA,NA,"Japan, Taiwan, Marianas","Taiwan",25.08,121.85,729,NA,"Subduction zone / Continental crust (>25 km)","Pleistocene",31.8841152191162,-36.0613288879395,315.3291015625,121.85,25.08,TRUE
"1851",281803,"Huapinghsu","Taiwan","Stratovolcano",NA,NA,"Japan, Taiwan, Marianas","Taiwan",25.424,121.946,51,NA,"Subduction zone / Continental crust (>25 km)","Pleistocene",49.7796859741211,-65.7777557373047,316.761871337891,121.946,25.424,TRUE
"1852",281804,"Mienhuayu","Taiwan","Stratovolcano",NA,NA,"Japan, Taiwan, Marianas","Taiwan",25.484,122.106,29,NA,"Subduction zone / Continental crust (>25 km)","Pleistocene",55.9991683959961,-86.8382873535156,311.985870361328,122.106,25.484,TRUE
"1853",281805,"Pengchiahsu","Taiwan","Stratovolcano",NA,NA,"Japan, Taiwan, Marianas","Taiwan",25.63,122.08,120,NA,"Subduction zone / Continental crust (>25 km)","Pleistocene",59.7253036499023,-103.258560180664,320.951904296875,122.08,25.63,TRUE
"1854",282041,"Kogajajima","Japan","Lava dome(s)",NA,NA,"Japan, Taiwan, Marianas","Ryukyu Islands and Kyushu",29.879,129.625,301,NA,"Subduction zone / Oceanic crust (< 15 km)","Pleistocene",56.1656303405762,-102.41429901123,213.622604370117,129.625,29.879,TRUE
"1855",282800,"Kobi-sho","Japan","Stratovolcano",NA,NA,"Japan, Taiwan, Marianas","Ryukyu Islands and Kyushu",25.919,123.682,117,NA,"Subduction zone / Oceanic crust (< 15 km)","Pleistocene",64.4817581176758,-231.322814941406,246.972625732422,123.682,25.919,TRUE
"1856",282801,"Gajajima","Japan","Stratovolcano",NA,NA,"Japan, Taiwan, Marianas","Ryukyu Islands and Kyushu",29.904,129.541,452,NA,"Subduction zone / Oceanic crust (< 15 km)","Pleistocene",58.2404365539551,-114.402755737305,213.706832885742,129.541,29.904,TRUE
"1857",282802,"Kuroshima","Japan","Stratovolcano",NA,NA,"Japan, Taiwan, Marianas","Ryukyu Islands and Kyushu",30.825,129.94,622,NA,"Subduction zone / Continental crust (>25 km)","Pleistocene",61.730884552002,-148.299041748047,209.498199462891,129.94,30.825,TRUE
"1858",282804,"Sendai","Japan","Pyroclastic cone",NA,NA,"Japan, Taiwan, Marianas","Ryukyu Islands and Kyushu",31.731,130.451,677,NA,"Subduction zone / Continental crust (>25 km)","Pleistocene",61.410774230957,-153.715805053711,201.895065307617,130.451,31.731,TRUE
"1859",282805,"Satsuma Maru-yama","Japan","Lava dome",NA,NA,"Japan, Taiwan, Marianas","Ryukyu Islands and Kyushu",31.799,130.411,218,NA,"Subduction zone / Continental crust (>25 km)","Pleistocene",61.7824478149414,-164.209182739258,201.2666015625,130.411,31.799,TRUE
"1860",282806,"Imuta","Japan","Lava dome(s)",NA,NA,"Japan, Taiwan, Marianas","Ryukyu Islands and Kyushu",31.819,130.463,509,NA,"Subduction zone / Continental crust (>25 km)","Pleistocene",61.5441474914551,-157.248794555664,200.918807983398,130.463,31.819,TRUE
"1861",282807,"Hokusatsu","Japan","Pyroclastic cone",NA,NA,"Japan, Taiwan, Marianas","Ryukyu Islands and Kyushu",31.872,130.608,703,NA,"Subduction zone / Continental crust (>25 km)","Pleistocene",60.2316932678223,-139.481155395508,200.432464599609,130.608,31.872,TRUE
"1862",282808,"Kakuto","Japan","Caldera",NA,NA,"Japan, Taiwan, Marianas","Ryukyu Islands and Kyushu",32.042,130.767,0,NA,"Subduction zone / Continental crust (>25 km)","Pleistocene",57.8697090148926,-126.599395751953,200.403747558594,130.767,32.042,TRUE
"1863",282809,"Sone","Japan","Pyroclastic cone",NA,NA,"Japan, Taiwan, Marianas","Ryukyu Islands and Kyushu",33.053,129.083,143,NA,"Subduction zone / Continental crust (>25 km)","Pleistocene",25.2828559875488,-335.862976074219,197.156402587891,129.083,33.053,TRUE
"1864",282810,"Ojikajima","Japan","Shield(s)",NA,NA,"Japan, Taiwan, Marianas","Ryukyu Islands and Kyushu",33.199,129.051,95,NA,"Subduction zone / Continental crust (>25 km)","Pleistocene",23.1043491363525,-339.991455078125,208.30647277832,129.051,33.199,TRUE
"1865",282811,"Taradake","Japan","Stratovolcano",NA,NA,"Japan, Taiwan, Marianas","Ryukyu Islands and Kyushu",32.984,130.079,1076,NA,"Unknown","Pleistocene",44.8683242797852,-284.072967529297,217.542434692383,130.079,32.984,TRUE
"1866",282812,"Kinpo","Japan","Stratovolcano",NA,NA,"Japan, Taiwan, Marianas","Ryukyu Islands and Kyushu",32.811,130.641,665,NA,"Unknown","Pleistocene",61.9003982543945,-207.376571655273,209.302169799805,130.641,32.811,TRUE
"1867",282813,"Yabakei","Japan","Caldera",NA,NA,"Japan, Taiwan, Marianas","Ryukyu Islands and Kyushu",33.169,131.221,800,NA,"Subduction zone / Continental crust (>25 km)","Pleistocene",64.8670349121094,-151.674423217773,210.669815063477,131.221,33.169,TRUE
"1868",282814,"Hane-yama","Japan","Shield",NA,NA,"Japan, Taiwan, Marianas","Ryukyu Islands and Kyushu",33.228,131.133,1140,NA,"Subduction zone / Continental crust (>25 km)","Pleistocene",66.3755340576172,-174.941604614258,212.437576293945,131.133,33.228,TRUE
"1869",282815,"Hohi","Japan","Stratovolcano(es)",NA,NA,"Japan, Taiwan, Marianas","Ryukyu Islands and Kyushu",33.284,131.319,1236,NA,"Subduction zone / Continental crust (>25 km)","Pleistocene",65.4923477172852,-148.766555786133,210.827255249023,131.319,33.284,TRUE
"1870",282816,"Futago","Japan","Lava dome(s)",NA,NA,"Japan, Taiwan, Marianas","Ryukyu Islands and Kyushu",33.58,131.604,720,NA,"Subduction zone / Continental crust (>25 km)","Pleistocene",64.7980270385742,-132.811279296875,204.102828979492,131.604,33.58,TRUE
"1871",282817,"Hime-shima Volcanic Group","Japan","Lava dome(s)",NA,NA,"Japan, Taiwan, Marianas","Ryukyu Islands and Kyushu",33.718,131.669,267,NA,"Unknown","Pleistocene",64.817024230957,-132.435516357422,199.652114868164,131.669,33.718,TRUE
"1872",282818,"Kurose","Japan","Volcanic remnant",NA,NA,"Japan, Taiwan, Marianas","Ryukyu Islands and Kyushu",33.695,130.233,8,NA,"Subduction zone / Continental crust (>25 km)","Pleistocene",41.1521987915039,-335.894683837891,250.024108886719,130.233,33.695,TRUE
"1873",282819,"Iki Volcanic Group","Japan","Pyroclastic cone(s)",NA,NA,"Japan, Taiwan, Marianas","Ryukyu Islands and Kyushu",33.738,129.712,213,NA,"Subduction zone / Continental crust (>25 km)","Pleistocene",29.1555957794189,-347.947448730469,252.583862304688,129.712,33.738,TRUE
"1874",282820,"Tokara Hirase","Japan","Unknown",NA,NA,"Japan, Taiwan, Marianas","Ryukyu Islands and Kyushu",30.036,130.058,27,NA,"Subduction zone / Oceanic crust (< 15 km)","Pleistocene",46.1804618835449,-68.5467224121094,209.914428710938,130.058,30.036,TRUE
"1875",283800,"Mutsure-jima","Japan","Pyroclastic cone(s)",NA,NA,"Japan, Taiwan, Marianas","Honshu",33.974,130.866,104,NA,"Subduction zone / Continental crust (>25 km)","Pleistocene",59.2340965270996,-324.304748535156,215.396545410156,130.866,33.974,TRUE
"1876",283801,"Shikuma","Japan","Lava dome(s)",NA,NA,"Japan, Taiwan, Marianas","Honshu",34.098,131.761,504,NA,"Subduction zone / Continental crust (>25 km)","Pleistocene",65.4827346801758,-140.462188720703,199.350875854492,131.761,34.098,TRUE
"1877",283802,"Tokuyama-Mitake","Japan","Lava dome",NA,NA,"Japan, Taiwan, Marianas","Honshu",34.189,131.844,790,NA,"Subduction zone / Continental crust (>25 km)","Pleistocene",63.7039909362793,-132.812194824219,205.42741394043,131.844,34.189,TRUE
"1878",283803,"Sengoku","Japan","Lava dome(s)",NA,NA,"Japan, Taiwan, Marianas","Honshu",34.186,131.76,661,NA,"Subduction zone / Continental crust (>25 km)","Pleistocene",66.2854766845703,-147.938201904297,203.012268066406,131.76,34.186,TRUE
"1879",283804,"Chojagahara","Japan","Pyroclastic cone",NA,NA,"Japan, Taiwan, Marianas","Honshu",34.271,131.669,390,NA,"Subduction zone / Continental crust (>25 km)","Pleistocene",69.2310104370117,-177.869232177734,204.629531860352,131.669,34.271,TRUE
"1880",283805,"Aonoyama","Japan","Lava dome(s)",NA,NA,"Japan, Taiwan, Marianas","Honshu",34.459,131.798,908,NA,"Subduction zone / Continental crust (>25 km)","Pleistocene",69.6276550292969,-182.061111450195,220.129653930664,131.798,34.459,TRUE
"1881",283806,"Oetaka-yama","Japan","Lava dome(s)",NA,NA,"Japan, Taiwan, Marianas","Honshu",35.061,132.431,808,NA,"Subduction zone / Continental crust (>25 km)","Pleistocene",69.2007827758789,-185.36833190918,215.925765991211,132.431,35.061,TRUE
"1882",283807,"Yokote","Japan","Pyroclastic cone(s)",NA,NA,"Japan, Taiwan, Marianas","Honshu",35.201,133.267,967,NA,"Subduction zone / Continental crust (>25 km)","Pleistocene",38.2813568115234,-122.972633361816,250.185394287109,133.267,35.201,TRUE
"1883",283808,"Noro","Japan","Pyroclastic cone",NA,NA,"Japan, Taiwan, Marianas","Honshu",35.41,133.182,180,NA,"Subduction zone / Continental crust (>25 km)","Pleistocene",44.5257987976074,-144.948440551758,241.264022827148,133.182,35.41,TRUE
"1884",283809,"Daikon-jima","Japan","Pyroclastic cone",NA,NA,"Japan, Taiwan, Marianas","Honshu",35.493,133.174,42,NA,"Subduction zone / Continental crust (>25 km)","Pleistocene",46.6819839477539,-153.893936157227,238.597061157227,133.174,35.493,TRUE
"1885",283810,"Tsuruta","Japan","Pyroclastic cone(s)",NA,NA,"Japan, Taiwan, Marianas","Honshu",35.338,133.422,301,NA,"Subduction zone / Continental crust (>25 km)","Pleistocene",38.154972076416,-131.382186889648,258.487365722656,133.422,35.338,TRUE
"1886",283811,"Daisen","Japan","Stratovolcano",NA,NA,"Japan, Taiwan, Marianas","Honshu",35.368,133.549,1729,NA,"Subduction zone / Continental crust (>25 km)","Pleistocene",37.7545356750488,-132.74885559082,262.713836669922,133.549,35.368,TRUE
"1887",283812,"Ogino-Sen","Japan","Pyroclastic cone(s)",NA,NA,"Japan, Taiwan, Marianas","Honshu",35.437,134.444,1310,NA,"Subduction zone / Continental crust (>25 km)","Pleistocene",38.1256446838379,-126.671096801758,254.572799682617,134.444,35.437,TRUE
"1888",283813,"Takara","Japan","Shield",NA,NA,"Japan, Taiwan, Marianas","Honshu",35.343,134.922,350,NA,"Subduction zone / Continental crust (>25 km)","Pleistocene",37.5230026245117,-110.973922729492,254.657669067383,134.922,35.343,TRUE
"1889",283814,"Nanzaki","Japan","Pyroclastic cone",NA,NA,"Japan, Taiwan, Marianas","Honshu",34.604,138.832,106,NA,"Subduction zone / Continental crust (>25 km)","Pleistocene",NA,NA,NA,138.832,34.604,TRUE
"1890",283815,"Jaishi","Japan","Shield",NA,NA,"Japan, Taiwan, Marianas","Honshu",34.71,138.786,520,NA,"Subduction zone / Continental crust (>25 km)","Pleistocene",NA,NA,NA,138.786,34.71,TRUE
"1891",283816,"Tanaba","Japan","Stratovolcano",NA,NA,"Japan, Taiwan, Marianas","Honshu",34.907,138.852,1035,NA,"Subduction zone / Continental crust (>25 km)","Pleistocene",NA,NA,NA,138.852,34.907,TRUE
"1892",283817,"Daruma","Japan","Stratovolcano",NA,NA,"Japan, Taiwan, Marianas","Honshu",34.952,138.843,982,NA,"Subduction zone / Continental crust (>25 km)","Pleistocene",NA,NA,NA,138.843,34.952,TRUE
"1893",283818,"Tenshi","Japan","Stratovolcano",NA,NA,"Japan, Taiwan, Marianas","Honshu",34.924,138.968,608,NA,"Subduction zone / Continental crust (>25 km)","Pleistocene",NA,NA,NA,138.968,34.924,TRUE
"1894",283819,"Usami","Japan","Stratovolcano",NA,NA,"Japan, Taiwan, Marianas","Honshu",34.968,139.063,592,NA,"Subduction zone / Continental crust (>25 km)","Pleistocene",NA,NA,NA,139.063,34.968,TRUE
"1895",283820,"Taga","Japan","Stratovolcano",NA,NA,"Japan, Taiwan, Marianas","Honshu",35.078,139.031,798,NA,"Subduction zone / Continental crust (>25 km)","Pleistocene",8.61369132995605,-5.97923707962036,282.241577148438,139.031,35.078,TRUE
"1896",283821,"Yugawara","Japan","Stratovolcano",NA,NA,"Japan, Taiwan, Marianas","Honshu",35.173,139.029,1004,NA,"Subduction zone / Continental crust (>25 km)","Pleistocene",11.0461959838867,-7.54671573638916,279.298706054688,139.029,35.173,TRUE
"1897",283822,"Ashitaka","Japan","Stratovolcano",NA,NA,"Japan, Taiwan, Marianas","Honshu",35.238,138.794,1504,NA,"Subduction zone / Continental crust (>25 km)","Pleistocene",14.0701847076416,-9.08236980438232,263.599029541016,138.794,35.238,TRUE
"1898",283823,"Kurofuji","Japan","Stratovolcano(es)",NA,NA,"Japan, Taiwan, Marianas","Honshu",35.8,138.513,1764,NA,"Subduction zone / Continental crust (>25 km)","Pleistocene",40.9508056640625,-46.8758163452148,250.824584960938,138.513,35.8,TRUE
"1899",283824,"Yatsugatake","Japan","Stratovolcano(es)",NA,NA,"Japan, Taiwan, Marianas","Honshu",35.968,138.373,2899,NA,"Subduction zone / Continental crust (>25 km)","Pleistocene",43.7649803161621,-67.3774108886719,246.196594238281,138.373,35.968,TRUE
"1900",283825,"Kirigamine","Japan","Shield",NA,NA,"Japan, Taiwan, Marianas","Honshu",36.1,138.2,1925,NA,"Subduction zone / Continental crust (>25 km)","Pleistocene",43.5463066101074,-86.4977951049805,242.612670898438,138.2,36.1,TRUE
"1901",283826,"Utsukushigahara","Japan","Shield",NA,NA,"Japan, Taiwan, Marianas","Honshu",36.223,138.111,2034,NA,"Subduction zone / Continental crust (>25 km)","Pleistocene",41.6522254943848,-100.303855895996,241.583953857422,138.111,36.223,TRUE
"1902",283827,"Ueno","Japan","Shield",NA,NA,"Japan, Taiwan, Marianas","Honshu",35.59,137.505,606,NA,"Subduction zone / Continental crust (>25 km)","Pleistocene",35.0001106262207,-57.5412559509277,262.806488037109,137.505,35.59,TRUE
"1903",283828,"Yuga-mine","Japan","Lava dome",NA,NA,"Japan, Taiwan, Marianas","Honshu",35.802,137.284,1067,NA,"Subduction zone / Continental crust (>25 km)","Pleistocene",38.4479103088379,-75.8566360473633,270.431274414062,137.284,35.802,TRUE
"1904",283829,"Eboshi-Washigatake","Japan","Stratovolcano",NA,NA,"Japan, Taiwan, Marianas","Honshu",35.937,136.974,1672,NA,"Subduction zone / Continental crust (>25 km)","Pleistocene",40.2142105102539,-90.6514892578125,252.117492675781,136.974,35.937,TRUE
"1905",283830,"Bishamon-dake","Japan","Stratovolcano",NA,NA,"Japan, Taiwan, Marianas","Honshu",35.936,136.795,1386,NA,"Subduction zone / Continental crust (>25 km)","Pleistocene",42.0284690856934,-96.1669769287109,237.995468139648,136.795,35.936,TRUE
"1906",283831,"Dainichiga-take","Japan","Stratovolcano",NA,NA,"Japan, Taiwan, Marianas","Honshu",35.998,136.841,1709,NA,"Subduction zone / Continental crust (>25 km)","Pleistocene",42.4480361938477,-100.692993164062,242.813079833984,136.841,35.998,TRUE
"1907",283832,"Ryohaku Maru-yama","Japan","Stratovolcano",NA,NA,"Japan, Taiwan, Marianas","Honshu",36.046,136.8,1786,NA,"Subduction zone / Continental crust (>25 km)","Pleistocene",43.4267387390137,-106.543930053711,241.488021850586,136.8,36.046,TRUE
"1908",283833,"Gankyoji","Japan","Stratovolcano",NA,NA,"Japan, Taiwan, Marianas","Honshu",36.054,136.743,1691,NA,"Subduction zone / Continental crust (>25 km)","Pleistocene",44.2166900634766,-108.722610473633,237.995162963867,136.743,36.054,TRUE
"1909",283834,"Kyoga-take","Japan","Stratovolcano(es)",NA,NA,"Japan, Taiwan, Marianas","Honshu",36.043,136.625,1671,NA,"Subduction zone / Continental crust (>25 km)","Pleistocene",46.3611793518066,-115.847557067871,231.120681762695,136.625,36.043,TRUE
"1910",283835,"Dainichi-yama","Japan","Stratovolcano",NA,NA,"Japan, Taiwan, Marianas","Honshu",36.15,136.5,1369,NA,"Subduction zone / Continental crust (>25 km)","Pleistocene",48.9593086242676,-132.636123657227,229.241668701172,136.5,36.15,TRUE
"1911",283836,"Tomuro","Japan","Lava dome(s)",NA,NA,"Japan, Taiwan, Marianas","Honshu",36.528,136.75,548,NA,"Subduction zone / Continental crust (>25 km)","Pleistocene",43.8703002929688,-153.690582275391,230.896865844727,136.75,36.528,TRUE
"1912",283837,"Kamitakara","Japan","Unknown",NA,NA,"Japan, Taiwan, Marianas","Honshu",36.2,137.502,1831,NA,"Subduction zone / Continental crust (>25 km)","Pleistocene",38.4532012939453,-114.111503601074,266.759307861328,137.502,36.2,TRUE
"1913",283838,"Hodakadake","Japan","Caldera",NA,NA,"Japan, Taiwan, Marianas","Honshu",36.286,137.651,3190,NA,"Subduction zone / Continental crust (>25 km)","Pleistocene",36.4375457763672,-119.617324829102,256.213409423828,137.651,36.286,TRUE
"1914",283839,"Momisawa-dake","Japan","Unknown",NA,NA,"Japan, Taiwan, Marianas","Honshu",36.364,137.611,2755,NA,"Subduction zone / Continental crust (>25 km)","Pleistocene",34.4187622070312,-126.511070251465,256.450805664062,137.611,36.364,TRUE
"1915",283840,"Kaminoroka","Japan","Unknown",NA,NA,"Japan, Taiwan, Marianas","Honshu",36.471,137.599,2465,NA,"Subduction zone / Continental crust (>25 km)","Pleistocene",31.7836112976074,-133.801406860352,255.371994018555,137.599,36.471,TRUE
"1916",283841,"Shirouma-Oike","Japan","Stratovolcano(es)",NA,NA,"Japan, Taiwan, Marianas","Honshu",36.786,137.802,2469,NA,"Subduction zone / Continental crust (>25 km)","Pleistocene",27.0512733459473,-148.425262451172,244.12712097168,137.802,36.786,TRUE
"1917",283842,"Madarao","Japan","Stratovolcano",NA,NA,"Japan, Taiwan, Marianas","Honshu",36.834,138.278,1382,NA,"Subduction zone / Continental crust (>25 km)","Pleistocene",31.6893215179443,-138.181793212891,235.937911987305,138.278,36.834,TRUE
"1918",283843,"Kurohime","Japan","Stratovolcano",NA,NA,"Japan, Taiwan, Marianas","Honshu",36.81,138.13,2053,NA,"Subduction zone / Continental crust (>25 km)","Pleistocene",30.9890270233154,-141.775543212891,236.758682250977,138.13,36.81,TRUE
"1919",283844,"Iizuna","Japan","Stratovolcano",NA,NA,"Japan, Taiwan, Marianas","Honshu",36.736,138.137,1917,NA,"Subduction zone / Continental crust (>25 km)","Pleistocene",32.1788749694824,-137.003997802734,237.237899780273,138.137,36.736,TRUE
"1920",283845,"Motodori","Japan","Lava dome",NA,NA,"Japan, Taiwan, Marianas","Honshu",36.717,138.247,745,NA,"Subduction zone / Continental crust (>25 km)","Pleistocene",33.0645065307617,-132.381988525391,237.032043457031,138.247,36.717,TRUE
"1921",283846,"Minakami","Japan","Lava dome",NA,NA,"Japan, Taiwan, Marianas","Honshu",36.551,138.226,659,NA,"Subduction zone / Continental crust (>25 km)","Pleistocene",35.7803993225098,-122.181564331055,239.128112792969,138.226,36.551,TRUE
"1922",283847,"Eboshi","Japan","Stratovolcano",NA,NA,"Japan, Taiwan, Marianas","Honshu",36.43,138.39,2227,NA,"Subduction zone / Continental crust (>25 km)","Pleistocene",37.9685821533203,-108.719596862793,242.513717651367,138.39,36.43,TRUE
"1923",283848,"Hanamagari","Japan","Stratovolcano(es)",NA,NA,"Japan, Taiwan, Marianas","Honshu",36.408,138.649,1757,NA,"Subduction zone / Continental crust (>25 km)","Pleistocene",37.2258605957031,-98.3980865478516,247.865280151367,138.649,36.408,TRUE
"1924",283849,"Azumayasan","Japan","Stratovolcano",NA,NA,"Japan, Taiwan, Marianas","Honshu",36.541,138.412,2323,NA,"Subduction zone / Continental crust (>25 km)","Pleistocene",36.0350303649902,-115.047515869141,241.149368286133,138.412,36.541,TRUE
"1925",283850,"Omeshi-dake","Japan","Stratovolcano",NA,NA,"Japan, Taiwan, Marianas","Honshu",36.626,138.461,2160,NA,"Subduction zone / Continental crust (>25 km)","Pleistocene",34.2394104003906,-120.298851013184,239.736358642578,138.461,36.626,TRUE
"1926",283851,"Takayashiro","Japan","Stratovolcano",NA,NA,"Japan, Taiwan, Marianas","Honshu",36.796,138.407,1351,NA,"Subduction zone / Continental crust (>25 km)","Pleistocene",32.2592926025391,-132.648773193359,236.536010742188,138.407,36.796,TRUE
"1927",283852,"Sekita","Japan","Stratovolcano?",NA,NA,"Japan, Taiwan, Marianas","Honshu",36.974,138.386,1289,NA,"Subduction zone / Continental crust (>25 km)","Pleistocene",30.8064308166504,-142.546569824219,235.513702392578,138.386,36.974,TRUE
"1928",283853,"Kenashi","Japan","Stratovolcano",NA,NA,"Japan, Taiwan, Marianas","Honshu",36.895,138.489,1650,NA,"Subduction zone / Continental crust (>25 km)","Pleistocene",31.3758697509766,-135.836151123047,236.324951171875,138.489,36.895,TRUE
"1929",283854,"Torikabuto","Japan","Stratovolcano",NA,NA,"Japan, Taiwan, Marianas","Honshu",36.836,138.587,2038,NA,"Subduction zone / Continental crust (>25 km)","Pleistocene",31.6927433013916,-129.040283203125,237.785705566406,138.587,36.836,TRUE
"1930",283855,"Naeba","Japan","Stratovolcano",NA,NA,"Japan, Taiwan, Marianas","Honshu",36.843,138.694,2145,NA,"Subduction zone / Continental crust (>25 km)","Pleistocene",31.268798828125,-126.67073059082,238.921783447266,138.694,36.843,TRUE
"1931",283856,"Iiji","Japan","Stratovolcano",NA,NA,"Japan, Taiwan, Marianas","Honshu",36.953,138.836,1112,NA,"Subduction zone / Continental crust (>25 km)","Pleistocene",NA,NA,NA,138.836,36.953,TRUE
"1932",283857,"Masugata","Japan","Pyroclastic cone",NA,NA,"Japan, Taiwan, Marianas","Honshu",37.075,138.833,749,NA,"Subduction zone / Continental crust (>25 km)","Pleistocene",NA,NA,NA,138.833,37.075,TRUE
"1933",283858,"Komochi-Onoko","Japan","Stratovolcano(es)",NA,NA,"Japan, Taiwan, Marianas","Honshu",36.589,139.001,1296,NA,"Subduction zone / Continental crust (>25 km)","Pleistocene",32.4714202880859,-102.726303100586,244.20573425293,139.001,36.589,TRUE
"1934",283859,"Sukai-Kesemaru","Japan","Stratovolcano(es)",NA,NA,"Japan, Taiwan, Marianas","Honshu",36.687,139.34,2144,NA,"Subduction zone / Continental crust (>25 km)","Pleistocene",NA,NA,NA,139.34,36.687,TRUE
"1935",283860,"Numanokami","Japan","Stratovolcano",NA,NA,"Japan, Taiwan, Marianas","Honshu",36.772,139.279,1541,NA,"Subduction zone / Continental crust (>25 km)","Pleistocene",NA,NA,NA,139.279,36.772,TRUE
"1936",283861,"Hotaka","Japan","Stratovolcano",NA,NA,"Japan, Taiwan, Marianas","Honshu",36.802,139.136,2158,NA,"Subduction zone / Continental crust (>25 km)","Pleistocene",NA,NA,NA,139.136,36.802,TRUE
"1937",283862,"Ayame-daira","Japan","Stratovolcano(es)",NA,NA,"Japan, Taiwan, Marianas","Honshu",36.895,139.243,1969,NA,"Subduction zone / Continental crust (>25 km)","Pleistocene",NA,NA,NA,139.243,36.895,TRUE
"1938",283863,"Kinunuma-Nenakusa","Japan","Lava dome(s)",NA,NA,"Japan, Taiwan, Marianas","Honshu",36.88,139.375,2141,NA,"Subduction zone / Continental crust (>25 km)","Pleistocene",NA,NA,NA,139.375,36.88,TRUE
"1939",283864,"Nyoho-Akanagi","Japan","Stratovolcano",NA,NA,"Japan, Taiwan, Marianas","Honshu",36.808,139.54,2483,NA,"Subduction zone / Continental crust (>25 km)","Pleistocene",NA,NA,NA,139.54,36.808,TRUE
"1940",283865,"Futamata","Japan","Stratovolcano",NA,NA,"Japan, Taiwan, Marianas","Honshu",37.243,139.97,1544,NA,"Subduction zone / Continental crust (>25 km)","Pleistocene",NA,NA,NA,139.97,37.243,TRUE
"1941",283866,"Aizu Nunobiki","Japan","Stratovolcano",NA,NA,"Japan, Taiwan, Marianas","Honshu",37.321,140.018,1108,NA,"Subduction zone / Continental crust (>25 km)","Pleistocene",NA,NA,NA,140.018,37.321,TRUE
"1942",283867,"Asakusa","Japan","Stratovolcano",NA,NA,"Japan, Taiwan, Marianas","Honshu",37.341,139.237,1585,NA,"Subduction zone / Continental crust (>25 km)","Pleistocene",NA,NA,NA,139.237,37.341,TRUE
"1943",283868,"Sumon","Japan","Stratovolcano",NA,NA,"Japan, Taiwan, Marianas","Honshu",37.395,139.14,1537,NA,"Subduction zone / Continental crust (>25 km)","Pleistocene",NA,NA,NA,139.14,37.395,TRUE
"1944",283869,"Sunagohara","Japan","Caldera",NA,NA,"Japan, Taiwan, Marianas","Honshu",37.454,139.688,729,NA,"Subduction zone / Continental crust (>25 km)","Pleistocene",NA,NA,NA,139.688,37.454,TRUE
"1945",283870,"Nekoma","Japan","Stratovolcano",NA,NA,"Japan, Taiwan, Marianas","Honshu",37.617,140.011,1404,NA,"Subduction zone / Continental crust (>25 km)","Pleistocene",NA,NA,NA,140.011,37.617,TRUE
"1946",283871,"Aoso","Japan","Stratovolcano",NA,NA,"Japan, Taiwan, Marianas","Honshu",38.082,140.611,820,NA,"Subduction zone / Continental crust (>25 km)","Pleistocene",NA,NA,NA,140.611,38.082,TRUE
"1947",283872,"Shirataka","Japan","Stratovolcano",NA,NA,"Japan, Taiwan, Marianas","Honshu",38.22,140.176,994,NA,"Subduction zone / Continental crust (>25 km)","Pleistocene",NA,NA,NA,140.176,38.22,TRUE
"1948",283873,"Ganto-Kamuro","Japan","Stratovolcano(es)",NA,NA,"Japan, Taiwan, Marianas","Honshu",38.196,140.48,1485,NA,"Subduction zone / Continental crust (>25 km)","Pleistocene",NA,NA,NA,140.48,38.196,TRUE
"1949",283874,"Adachi","Japan","Pyroclastic cone",NA,NA,"Japan, Taiwan, Marianas","Honshu",38.218,140.654,0,NA,"Subduction zone / Continental crust (>25 km)","Pleistocene",NA,NA,NA,140.654,38.218,TRUE
"1950",283875,"Daito","Japan","Stratovolcano",NA,NA,"Japan, Taiwan, Marianas","Honshu",38.299,140.527,1366,NA,"Subduction zone / Continental crust (>25 km)","Pleistocene",NA,NA,NA,140.527,38.299,TRUE
"1951",283876,"Funagata","Japan","Stratovolcano(es)",NA,NA,"Japan, Taiwan, Marianas","Honshu",38.453,140.623,1500,NA,"Subduction zone / Continental crust (>25 km)","Pleistocene",NA,NA,NA,140.623,38.453,TRUE
"1952",283877,"Gassan","Japan","Stratovolcano",NA,NA,"Japan, Taiwan, Marianas","Honshu",38.546,140.03,1984,NA,"Subduction zone / Continental crust (>25 km)","Pleistocene",NA,NA,NA,140.03,38.546,TRUE
"1953",283878,"Mukaimachi","Japan","Caldera",NA,NA,"Japan, Taiwan, Marianas","Honshu",38.75,140.52,657,NA,"Subduction zone / Continental crust (>25 km)","Pleistocene",NA,NA,NA,140.52,38.75,TRUE
"1954",283879,"Onikobe","Japan","Caldera",NA,NA,"Japan, Taiwan, Marianas","Honshu",38.83,140.695,769,NA,"Subduction zone / Continental crust (>25 km)","Pleistocene",NA,NA,NA,140.695,38.83,TRUE
"1955",283880,"Takamatsu","Japan","Stratovolcano",NA,NA,"Japan, Taiwan, Marianas","Honshu",38.965,140.61,1348,NA,"Subduction zone / Continental crust (>25 km)","Pleistocene",NA,NA,NA,140.61,38.965,TRUE
"1956",283881,"Kobinai","Japan","Stratovolcano",NA,NA,"Japan, Taiwan, Marianas","Honshu",39.018,140.523,1004,NA,"Subduction zone / Continental crust (>25 km)","Pleistocene",NA,NA,NA,140.523,39.018,TRUE
"1957",283882,"Yakeishi","Japan","Stratovolcano",NA,NA,"Japan, Taiwan, Marianas","Honshu",39.161,140.832,1548,NA,"Subduction zone / Continental crust (>25 km)","Pleistocene",NA,NA,NA,140.832,39.161,TRUE
"1958",283883,"Tazawa","Japan","Caldera(?)",NA,NA,"Japan, Taiwan, Marianas","Honshu",39.718,140.665,249,NA,"Subduction zone / Continental crust (>25 km)","Pleistocene",NA,NA,NA,140.665,39.718,TRUE
"1959",283884,"Kayo","Japan","Stratovolcano",NA,NA,"Japan, Taiwan, Marianas","Honshu",39.804,140.734,1254,NA,"Subduction zone / Continental crust (>25 km)","Pleistocene",NA,NA,NA,140.734,39.804,TRUE
"1960",283885,"Nyuto-Takakura","Japan","Stratovolcano(es)",NA,NA,"Japan, Taiwan, Marianas","Honshu",39.802,140.842,1478,NA,"Subduction zone / Continental crust (>25 km)","Pleistocene",NA,NA,NA,140.842,39.802,TRUE
"1961",283886,"Tamagawa","Japan","Caldera",NA,NA,"Japan, Taiwan, Marianas","Honshu",39.897,140.781,1300,NA,"Subduction zone / Continental crust (>25 km)","Pleistocene",NA,NA,NA,140.781,39.897,TRUE
"1962",283887,"Moriyoshi","Japan","Stratovolcano",NA,NA,"Japan, Taiwan, Marianas","Honshu",39.974,140.547,1454,NA,"Subduction zone / Continental crust (>25 km)","Pleistocene",NA,NA,NA,140.547,39.974,TRUE
"1963",283888,"Kanpu","Japan","Stratovolcano",NA,NA,"Japan, Taiwan, Marianas","Honshu",39.931,139.879,355,NA,"Subduction zone / Continental crust (>25 km)","Pleistocene",NA,NA,NA,139.879,39.931,TRUE
"1964",283889,"Nanashigure","Japan","Lava dome",NA,NA,"Japan, Taiwan, Marianas","Honshu",40.066,141.109,1063,NA,"Subduction zone / Continental crust (>25 km)","Pleistocene",NA,NA,NA,141.109,40.066,TRUE
"1965",283890,"Tashiro","Japan","Stratovolcano",NA,NA,"Japan, Taiwan, Marianas","Honshu",40.426,140.412,1178,NA,"Subduction zone / Continental crust (>25 km)","Pleistocene",NA,NA,NA,140.412,40.426,TRUE
"1966",283891,"Okiura","Japan","Caldera",NA,NA,"Japan, Taiwan, Marianas","Honshu",40.57,140.73,985,NA,"Subduction zone / Continental crust (>25 km)","Pleistocene",NA,NA,NA,140.73,40.57,TRUE
"1967",283892,"Mutsu-Hiuchi-dake","Japan","Stratovolcano",NA,NA,"Japan, Taiwan, Marianas","Honshu",41.436,141.056,781,NA,"Subduction zone / Continental crust (>25 km)","Pleistocene",NA,NA,NA,141.056,41.436,TRUE
"1968",283896,"Kannabe","Japan","Shield",NA,NA,"Japan, Taiwan, Marianas","Honshu",35.504,134.678,460,NA,"Subduction zone / Continental crust (>25 km)","Pleistocene",37.8798294067383,-127.80753326416,254.514999389648,134.678,35.504,TRUE
"1969",283897,"Daira-Komaga-take","Japan","Stratovolcano",NA,NA,"Japan, Taiwan, Marianas","Honshu",40.41,140.255,1158,NA,"Subduction zone / Continental crust (>25 km)","Pleistocene",NA,NA,NA,140.255,40.41,TRUE
"1970",283898,"Dorobu","Japan","Caldera",NA,NA,"Japan, Taiwan, Marianas","Honshu",36.898,139.579,1322,NA,"","Pleistocene",NA,NA,NA,139.579,36.898,TRUE
"1971",284043,"Mikura Seamount","Japan","Submarine",NA,NA,"Japan, Taiwan, Marianas","Izu, Volcano, and Mariana Islands",33.725,139.408,-321,NA,"Subduction zone / Oceanic crust (< 15 km)","Pleistocene",NA,NA,NA,139.408,33.725,TRUE
"1972",284086,"Nichiyo Seamount","Japan","Submarine",NA,NA,"Japan, Taiwan, Marianas","Izu, Volcano, and Mariana Islands",29.482,140.327,-1042,NA,"Subduction zone / Crustal thickness unknown","Pleistocene",NA,NA,NA,140.327,29.482,TRUE
"1973",284087,"Getsuyo Seamount","Japan","Submarine",NA,NA,"Japan, Taiwan, Marianas","Izu, Volcano, and Mariana Islands",29.306,140.471,-1095,NA,"Subduction zone / Crustal thickness unknown","Pleistocene",NA,NA,NA,140.471,29.306,TRUE
"1974",284088,"Kayo Seamount","Japan","Submarine",NA,NA,"Japan, Taiwan, Marianas","Izu, Volcano, and Mariana Islands",29.064,140.537,-814,NA,"Subduction zone / Crustal thickness unknown","Pleistocene",NA,NA,NA,140.537,29.064,TRUE
"1975",284089,"Kinyo Seamount","Japan","Submarine",NA,NA,"Japan, Taiwan, Marianas","Izu, Volcano, and Mariana Islands",28.084,140.802,-838,NA,"Subduction zone / Crustal thickness unknown","Pleistocene",NA,NA,NA,140.802,28.084,TRUE
"1976",284144,"Kasuga 3","United States","Submarine",NA,NA,"Japan, Taiwan, Marianas","Izu, Volcano, and Mariana Islands",21.399,143.626,-1325,NA,"","Pleistocene",NA,NA,NA,143.626,21.399,TRUE
"1978",284800,"Udonejima","Japan","Stratovolcano",NA,NA,"Japan, Taiwan, Marianas","Izu, Volcano, and Mariana Islands",34.469,139.297,209,NA,"Subduction zone / Oceanic crust (< 15 km)","Pleistocene",NA,NA,NA,139.297,34.469,TRUE
"1979",284801,"Onoharajima","Japan","Lava dome",NA,NA,"Japan, Taiwan, Marianas","Izu, Volcano, and Mariana Islands",34.045,139.387,114,NA,"Subduction zone / Oceanic crust (< 15 km)","Pleistocene",NA,NA,NA,139.387,34.045,TRUE
"1980",284802,"Inamba-jima","Japan","Lava dome",NA,NA,"Japan, Taiwan, Marianas","Izu, Volcano, and Mariana Islands",33.648,139.302,74,NA,"Subduction zone / Oceanic crust (< 15 km)","Pleistocene",NA,NA,NA,139.302,33.648,TRUE
"1983",285800,"Oshima Maru-yama","Japan","Stratovolcano",NA,NA,"Japan, Taiwan, Marianas","Hokkaido",41.54,140.375,855,NA,"Subduction zone / Continental crust (>25 km)","Pleistocene",NA,NA,NA,140.375,41.54,TRUE
"1984",285801,"Hakodate-yama","Japan","Stratovolcano",NA,NA,"Japan, Taiwan, Marianas","Hokkaido",41.757,140.708,333,NA,"Subduction zone / Continental crust (>25 km)","Pleistocene",NA,NA,NA,140.708,41.757,TRUE
"1985",285802,"Zenikame","Japan","Submarine",NA,NA,"Japan, Taiwan, Marianas","Hokkaido",41.737,140.855,-30,NA,"Subduction zone / Continental crust (>25 km)","Pleistocene",NA,NA,NA,140.855,41.737,TRUE
"1986",285803,"E-san Maru-yama","Japan","Stratovolcano",NA,NA,"Japan, Taiwan, Marianas","Hokkaido",41.849,141.097,691,NA,"Subduction zone / Continental crust (>25 km)","Pleistocene",NA,NA,NA,141.097,41.849,TRUE
"1987",285804,"Yokotsu","Japan","Stratovolcano",NA,NA,"Japan, Taiwan, Marianas","Hokkaido",41.935,140.775,1167,NA,"Subduction zone / Continental crust (>25 km)","Pleistocene",NA,NA,NA,140.775,41.935,TRUE
"2014",285839,"Oshima-Ko-jima","Japan","Stratovolcano",NA,NA,"Japan, Taiwan, Marianas","Hokkaido",41.355,139.811,282,NA,"Subduction zone / Continental crust (>25 km)","Pleistocene",NA,NA,NA,139.811,41.355,TRUE
"2151",305801,"Jianghui Group","China","Pyroclastic cone",NA,NA,"Kamchatka and Mainland Asia","China (eastern)",31.95,118.95,0,NA,"Unknown","Pleistocene",NA,NA,NA,118.95,31.95,TRUE
"2152",305802,"Nushan","China","Cone",NA,NA,"Kamchatka and Mainland Asia","China (eastern)",33.12,118.75,0,NA,"Unknown","Pleistocene",NA,NA,NA,118.75,33.12,TRUE
"2158",305831,"Unnamed","China","Unknown",NA,NA,"Kamchatka and Mainland Asia","China (eastern)",23.3,116.15,0,NA,"Intraplate / Continental crust (>25 km)","Pleistocene",NA,NA,NA,116.15,23.3,TRUE
"2159",305832,"Longhai","China","Unknown",NA,NA,"Kamchatka and Mainland Asia","China (eastern)",24.5,117.5,0,NA,"Intraplate / Continental crust (>25 km)","Pleistocene",NA,NA,NA,117.5,24.5,TRUE
"2162",305835,"Huixian","China","Unknown",NA,NA,"Kamchatka and Mainland Asia","China (eastern)",36,115.25,0,NA,"Intraplate / Continental crust (>25 km)","Pleistocene",NA,NA,NA,115.25,36,TRUE
"2163",305840,"Heibei Plain","China","Unknown",NA,NA,"Kamchatka and Mainland Asia","China (eastern)",38,117.5,0,NA,"Intraplate / Continental crust (>25 km)","Pleistocene",NA,NA,NA,117.5,38,TRUE
"2166",305843,"Unnamed","China","Unknown",NA,NA,"Kamchatka and Mainland Asia","China (eastern)",38.75,115,0,NA,"Intraplate / Continental crust (>25 km)","Pleistocene",NA,NA,NA,115,38.75,TRUE
"2174",305855,"Kuandian","China","Pyroclastic cone(s)",NA,NA,"Kamchatka and Mainland Asia","China (eastern)",40.75,124.67,513,NA,"Unknown","Pleistocene",NA,NA,NA,124.67,40.75,TRUE
"2175",306800,"Kilchu-Myongch'on","North Korea","Volcanic field",NA,NA,"Kamchatka and Mainland Asia","Korea",41,129.7,0,NA,"Intraplate / Continental crust (>25 km)","Pleistocene",NA,NA,NA,129.7,41,TRUE
"2176",306801,"Koksan-Singye","North Korea","Shield",NA,NA,"Kamchatka and Mainland Asia","Korea",38.67,127.42,680,NA,"Intraplate / Continental crust (>25 km)","Pleistocene",NA,NA,NA,127.42,38.67,TRUE
