"","volcano.number","volcano.name","country","primary.volcano.type","activity.evidence","last.known.eruption","region","subregion","lat","long","elevation..m.","dominant.rock.type","tectonic.setting","file","slab.dip","slab.depth","slab.strike","mx","my","optional"
"1007",334070,"Galapagos Rift","Undersea Features","Submarine","Eruption Observed","1996 CE","Hawaii and Pacific Ocean","Pacific Ocean (eastern)",0.792,-86.15,-2430,"Basalt / Picro-Basalt","Rift zone / Oceanic crust (< 15 km)","Holocene",NA,NA,NA,-86.15,0.792,TRUE
"1098",344020,"San Cristobal","Nicaragua","Stratovolcano","Eruption Observed","2019 CE","México and Central America","Nicaragua",12.702,-87.004,1745,"Basalt / Picro-Basalt","Subduction zone / Continental crust (>25 km)","Holocene",NA,NA,NA,-87.004,12.702,TRUE
"1099",344040,"Telica","Nicaragua","Stratovolcano(es)","Eruption Observed","2018 CE","México and Central America","Nicaragua",12.606,-86.84,1036,"Basalt / Picro-Basalt","Subduction zone / Continental crust (>25 km)","Holocene",NA,NA,NA,-86.84,12.606,TRUE
"1100",344060,"Rota","Nicaragua","Stratovolcano","Evidence Credible","Unknown","México and Central America","Nicaragua",12.55,-86.75,832,"Andesite / Basaltic Andesite","Subduction zone / Continental crust (>25 km)","Holocene",NA,NA,NA,-86.75,12.55,TRUE
"1101",344070,"Negro, Cerro","Nicaragua","Pyroclastic cone(s)","Eruption Observed","1999 CE","México and Central America","Nicaragua",12.506,-86.702,728,"Basalt / Picro-Basalt","Subduction zone / Continental crust (>25 km)","Holocene",NA,NA,NA,-86.702,12.506,TRUE
"1102",344080,"Pilas, Las","Nicaragua","Complex","Eruption Observed","1954 CE","México and Central America","Nicaragua",12.495,-86.688,1088,"Andesite / Basaltic Andesite","Subduction zone / Continental crust (>25 km)","Holocene",NA,NA,NA,-86.688,12.495,TRUE
"1103",344090,"Momotombo","Nicaragua","Stratovolcano","Eruption Observed","2016 CE","México and Central America","Nicaragua",12.423,-86.539,1270,"Basalt / Picro-Basalt","Subduction zone / Continental crust (>25 km)","Holocene",NA,NA,NA,-86.539,12.423,TRUE
"1104",344091,"Apoyeque","Nicaragua","Pyroclastic shield","Eruption Dated","50 BCE","México and Central America","Nicaragua",12.242,-86.342,518,"Dacite","Subduction zone / Continental crust (>25 km)","Holocene",NA,NA,NA,-86.342,12.242,TRUE
"1105",344092,"Nejapa-Miraflores","Nicaragua","Fissure vent(s)","Eruption Dated","1060 CE","México and Central America","Nicaragua",12.12,-86.32,360,"Basalt / Picro-Basalt","Subduction zone / Continental crust (>25 km)","Holocene",NA,NA,NA,-86.32,12.12,TRUE
"1106",344100,"Masaya","Nicaragua","Caldera","Eruption Observed","2019 CE","México and Central America","Nicaragua",11.984,-86.161,635,"Basalt / Picro-Basalt","Subduction zone / Continental crust (>25 km)","Holocene",NA,NA,NA,-86.161,11.984,TRUE
"1107",344101,"Granada","Nicaragua","Fissure vent(s)","Evidence Credible","Unknown","México and Central America","Nicaragua",11.92,-85.98,300,"Basalt / Picro-Basalt","Subduction zone / Continental crust (>25 km)","Holocene",NA,NA,NA,-85.98,11.92,TRUE
"1108",344110,"Mombacho","Nicaragua","Stratovolcano","Unrest / Holocene","Unknown","México and Central America","Nicaragua",11.826,-85.968,1344,"Andesite / Basaltic Andesite","Subduction zone / Continental crust (>25 km)","Holocene",NA,NA,NA,-85.968,11.826,TRUE
"1109",344111,"Zapatera","Nicaragua","Shield","Evidence Credible","Unknown","México and Central America","Nicaragua",11.73,-85.82,629,"Andesite / Basaltic Andesite","Subduction zone / Continental crust (>25 km)","Holocene",NA,NA,NA,-85.82,11.73,TRUE
"1110",344120,"Concepcion","Nicaragua","Stratovolcano","Eruption Observed","2011 CE","México and Central America","Nicaragua",11.538,-85.622,1700,"Andesite / Basaltic Andesite","Subduction zone / Continental crust (>25 km)","Holocene",NA,NA,NA,-85.622,11.538,TRUE
"1111",344131,"Esteli","Nicaragua","Fissure vent(s)","Evidence Uncertain","Unknown","México and Central America","Nicaragua",13.17,-86.4,899,"Basalt / Picro-Basalt","Subduction zone / Continental crust (>25 km)","Holocene",NA,NA,NA,-86.4,13.17,TRUE
"1112",344132,"Ciguatepe, Cerro el","Nicaragua","Stratovolcano","Evidence Uncertain","Unknown","México and Central America","Nicaragua",12.53,-86.142,603,"Basalt / Picro-Basalt","Subduction zone / Continental crust (>25 km)","Holocene",NA,NA,NA,-86.142,12.53,TRUE
"1113",344133,"Lajas, Las","Nicaragua","Shield","Evidence Uncertain","Unknown","México and Central America","Nicaragua",12.3,-85.73,926,"Basalt / Picro-Basalt","Subduction zone / Continental crust (>25 km)","Holocene",NA,NA,NA,-85.73,12.3,TRUE
"1114",344140,"Azul, Volcan","Nicaragua","Pyroclastic cone(s)","Evidence Credible","Unknown","México and Central America","Nicaragua",12.53,-83.87,201,"Trachybasalt / Tephrite Basanite","Subduction zone / Intermediate crust (15-25 km)","Holocene",NA,NA,NA,-83.87,12.53,TRUE
"1115",345010,"Orosi","Costa Rica","Stratovolcano(es)","Evidence Uncertain","Unknown","México and Central America","Costa Rica",10.98,-85.473,1659,"Andesite / Basaltic Andesite","Subduction zone / Continental crust (>25 km)","Holocene",NA,NA,NA,-85.473,10.98,TRUE
"1116",345020,"Rincon de la Vieja","Costa Rica","Complex","Eruption Observed","2019 CE","México and Central America","Costa Rica",10.83,-85.324,1916,"Andesite / Basaltic Andesite","Subduction zone / Continental crust (>25 km)","Holocene",NA,NA,NA,-85.324,10.83,TRUE
"1117",345030,"Miravalles","Costa Rica","Stratovolcano","Eruption Observed","1946 CE","México and Central America","Costa Rica",10.748,-85.153,2028,"Andesite / Basaltic Andesite","Subduction zone / Continental crust (>25 km)","Holocene",NA,NA,NA,-85.153,10.748,TRUE
"1118",345031,"Tenorio","Costa Rica","Stratovolcano(es)","Evidence Credible","Unknown","México and Central America","Costa Rica",10.673,-85.015,1916,"Andesite / Basaltic Andesite","Subduction zone / Continental crust (>25 km)","Holocene",NA,NA,NA,-85.015,10.673,TRUE
"1119",345033,"Arenal","Costa Rica","Stratovolcano","Eruption Observed","2010 CE","México and Central America","Costa Rica",10.463,-84.703,1670,"Andesite / Basaltic Andesite","Subduction zone / Continental crust (>25 km)","Holocene",NA,NA,NA,-84.703,10.463,TRUE
"1120",345034,"Platanar","Costa Rica","Stratovolcano(es)","Evidence Credible","Unknown","México and Central America","Costa Rica",10.3,-84.366,2267,"Andesite / Basaltic Andesite","Subduction zone / Continental crust (>25 km)","Holocene",NA,NA,NA,-84.366,10.3,TRUE
"1121",345040,"Poas","Costa Rica","Stratovolcano","Eruption Observed","2019 CE","México and Central America","Costa Rica",10.2,-84.233,2708,"Andesite / Basaltic Andesite","Subduction zone / Continental crust (>25 km)","Holocene",NA,NA,NA,-84.233,10.2,TRUE
"1122",345050,"Barva","Costa Rica","Complex","Eruption Dated","6050 BCE","México and Central America","Costa Rica",10.135,-84.1,2906,"Andesite / Basaltic Andesite","Subduction zone / Continental crust (>25 km)","Holocene",NA,NA,NA,-84.1,10.135,TRUE
"1123",345060,"Irazu","Costa Rica","Stratovolcano","Eruption Observed","1994 CE","México and Central America","Costa Rica",9.979,-83.852,3432,"Andesite / Basaltic Andesite","Subduction zone / Continental crust (>25 km)","Holocene",NA,NA,NA,-83.852,9.979,TRUE
"1124",345070,"Turrialba","Costa Rica","Stratovolcano","Eruption Observed","2019 CE","México and Central America","Costa Rica",10.025,-83.767,3340,"Andesite / Basaltic Andesite","Subduction zone / Continental crust (>25 km)","Holocene",NA,NA,NA,-83.767,10.025,TRUE
"1125",346010,"Baru","Panama","Stratovolcano","Eruption Observed","1550 CE","México and Central America","Panama",8.808,-82.543,3474,"Andesite / Basaltic Andesite","Subduction zone / Continental crust (>25 km)","Holocene",NA,NA,NA,-82.543,8.808,TRUE
"1126",346030,"Valle, El","Panama","Stratovolcano","Evidence Uncertain","Unknown","México and Central America","Panama",8.58,-80.17,1185,"Dacite","Subduction zone / Continental crust (>25 km)","Holocene",NA,NA,NA,-80.17,8.58,TRUE
"1127",351011,"Romeral","Colombia","Stratovolcano","Eruption Dated","5390 BCE","South America","Colombia",5.203,-75.363,3769,"Andesite / Basaltic Andesite","Subduction zone / Continental crust (>25 km)","Holocene",22.2347888946533,-103.014663696289,67.3863906860352,-75.363,5.203,TRUE
"1128",351012,"Bravo, Cerro","Colombia","Stratovolcano","Eruption Dated","1720 CE","South America","Colombia",5.091,-75.293,3985,"Dacite","Subduction zone / Continental crust (>25 km)","Holocene",25.1986503601074,-109.527862548828,67.9075241088867,-75.293,5.091,TRUE
"1129",351020,"Ruiz, Nevado del","Colombia","Stratovolcano","Eruption Observed","2019 CE","South America","Colombia",4.892,-75.324,5279,"Andesite / Basaltic Andesite","Subduction zone / Continental crust (>25 km)","Holocene",28.727912902832,-118.661552429199,64.9668273925781,-75.324,4.892,TRUE
"1130",351021,"Santa Isabel","Colombia","Shield","Eruption Dated","850 BCE","South America","Colombia",4.818,-75.365,4944,"Andesite / Basaltic Andesite","Subduction zone / Continental crust (>25 km)","Holocene",29.7121925354004,-121.946151733398,62.3704299926758,-75.365,4.818,TRUE
"1131",351030,"Tolima, Nevado del","Colombia","Stratovolcano","Eruption Observed","1943 CE","South America","Colombia",4.658,-75.33,5215,"Andesite / Basaltic Andesite","Subduction zone / Continental crust (>25 km)","Holocene",32.2807540893555,-132.821136474609,60.3529243469238,-75.33,4.658,TRUE
"1132",351040,"Machin","Colombia","Stratovolcano","Eruption Dated","1180 CE","South America","Colombia",4.487,-75.389,2749,"Dacite","Subduction zone / Continental crust (>25 km)","Holocene",33.2381782531738,-141.064788818359,55.4962577819824,-75.389,4.487,TRUE
"1133",351050,"Huila, Nevado del","Colombia","Stratovolcano","Eruption Observed","2012 CE","South America","Colombia",2.93,-76.03,5364,"Andesite / Basaltic Andesite","Subduction zone / Continental crust (>25 km)","Holocene",35.4408531188965,-160.118530273438,17.8572330474854,-76.03,2.93,TRUE
"1134",351060,"Purace","Colombia","Stratovolcano(es)","Eruption Observed","1977 CE","South America","Colombia",2.32,-76.4,4650,"Andesite / Basaltic Andesite","Subduction zone / Continental crust (>25 km)","Holocene",33.5482330322266,-147.378570556641,19.3782768249512,-76.4,2.32,TRUE
"1135",351061,"Sotara","Colombia","Stratovolcano","Evidence Credible","Unknown","South America","Colombia",2.108,-76.592,4400,"Andesite / Basaltic Andesite","Subduction zone / Continental crust (>25 km)","Holocene",31.7570705413818,-139.937088012695,24.9669628143311,-76.592,2.108,TRUE
"1136",351062,"Petacas","Colombia","Lava dome","Evidence Uncertain","Unknown","South America","Colombia",1.666,-76.814,3280,"No Data (checked)","Subduction zone / Continental crust (>25 km)","Holocene",30.1250133514404,-141.655014038086,33.2512283325195,-76.814,1.666,TRUE
"1137",351070,"Dona Juana","Colombia","Stratovolcano","Eruption Observed","1906 CE","South America","Colombia",1.5,-76.936,4137,"Andesite / Basaltic Andesite","Subduction zone / Continental crust (>25 km)","Holocene",29.1972427368164,-141.443252563477,34.4774131774902,-76.936,1.5,TRUE
"1138",351080,"Galeras","Colombia","Complex","Eruption Observed","2014 CE","South America","Colombia",1.22,-77.37,4276,"Andesite / Basaltic Andesite","Subduction zone / Continental crust (>25 km)","Holocene",26.7862205505371,-129.904647827148,33.544319152832,-77.37,1.22,TRUE
"1139",351090,"Azufral","Colombia","Stratovolcano","Eruption Dated","930 BCE","South America","Colombia",1.08,-77.68,4070,"Dacite","Subduction zone / Continental crust (>25 km)","Holocene",25.2209320068359,-119.315826416016,31.5531768798828,-77.68,1.08,TRUE
"1140",351100,"Cumbal","Colombia","Stratovolcano","Eruption Observed","1926 CE","South America","Colombia",0.95,-77.87,4764,"Andesite / Basaltic Andesite","Subduction zone / Continental crust (>25 km)","Holocene",23.7957649230957,-114.704292297363,29.0061206817627,-77.87,0.95,TRUE
"1141",351110,"Chiles-Cerro Negro","Colombia-Ecuador","Stratovolcano","Evidence Uncertain","1936 CE","South America","Colombia",0.817,-77.938,4698,"Dacite","Subduction zone / Continental crust (>25 km)","Holocene",22.7424259185791,-114.811134338379,25.9630947113037,-77.938,0.817,TRUE
"1142",352001,"Soche","Ecuador","Stratovolcano","Eruption Dated","6650 BCE","South America","Ecuador",0.552,-77.58,3955,"Dacite","Subduction zone / Continental crust (>25 km)","Holocene",22.6261157989502,-134.347778320312,15.0167045593262,-77.58,0.552,TRUE
"1143",352002,"Chachimbiro","Ecuador","Stratovolcano","Eruption Dated","3740 BCE","South America","Ecuador",0.468,-78.287,4106,"Dacite","Subduction zone / Continental crust (>25 km)","Holocene",19.4712982177734,-107.338577270508,23.9772567749023,-78.287,0.468,TRUE
"1144",352003,"Cuicocha","Ecuador","Caldera","Eruption Dated","650 CE","South America","Ecuador",0.308,-78.364,3246,"Dacite","Subduction zone / Continental crust (>25 km)","Holocene",18.2664890289307,-106.99454498291,23.6061859130859,-78.364,0.308,TRUE
"1145",352004,"Imbabura","Ecuador","Compound","Eruption Dated","5550 BCE","South America","Ecuador",0.258,-78.183,4609,"Andesite / Basaltic Andesite","Subduction zone / Continental crust (>25 km)","Holocene",18.2238788604736,-113.888092041016,19.6096439361572,-78.183,0.258,TRUE
"1146",352005,"Mojanda","Ecuador","Stratovolcano(es)","Evidence Uncertain","Unknown","South America","Ecuador",0.13,-78.27,4263,"Andesite / Basaltic Andesite","Subduction zone / Continental crust (>25 km)","Holocene",17.3898029327393,-112.514404296875,20.3901386260986,-78.27,0.13,TRUE
"1147",352006,"Cayambe","Ecuador","Compound","Eruption Observed","1786 CE","South America","Ecuador",0.029,-77.986,5790,"Andesite / Basaltic Andesite","Subduction zone / Continental crust (>25 km)","Holocene",18.1580562591553,-123.157508850098,15.5616111755371,-77.986,0.029,TRUE
"1148",352010,"Reventador","Ecuador","Stratovolcano","Eruption Observed","2019 CE","South America","Ecuador",-0.077,-77.656,3562,"Andesite / Basaltic Andesite","Subduction zone / Continental crust (>25 km)","Holocene",20.532247543335,-136.751388549805,12.9462928771973,-77.656,-0.077,TRUE
"1149",352011,"Pululahua","Ecuador","Caldera","Eruption Dated","290 CE","South America","Ecuador",0.038,-78.463,3356,"Dacite","Subduction zone / Continental crust (>25 km)","Holocene",16.6912307739258,-107.451469421387,22.6964321136475,-78.463,0.038,TRUE
"1150",352020,"Guagua Pichincha","Ecuador","Stratovolcano","Eruption Observed","2002 CE","South America","Ecuador",-0.171,-78.598,4784,"Andesite / Basaltic Andesite","Subduction zone / Continental crust (>25 km)","Holocene",15.8804273605347,-105.912994384766,21.58522605896,-78.598,-0.171,TRUE
"1151",352021,"Atacazo","Ecuador","Stratovolcano","Eruption Dated","320 BCE","South America","Ecuador",-0.353,-78.617,4463,"Andesite / Basaltic Andesite","Subduction zone / Continental crust (>25 km)","Holocene",15.3889265060425,-107.396492004395,18.7767086029053,-78.617,-0.353,TRUE
"1152",352022,"Chacana","Ecuador","Caldera","Eruption Observed","1773 CE","South America","Ecuador",-0.375,-78.25,4643,"Rhyolite","Subduction zone / Continental crust (>25 km)","Holocene",16.911958694458,-118.828155517578,18.9141807556152,-78.25,-0.375,TRUE
"1153",352030,"Antisana","Ecuador","Stratovolcano","Eruption Observed","1802 CE","South America","Ecuador",-0.481,-78.141,5753,"Andesite / Basaltic Andesite","Subduction zone / Continental crust (>25 km)","Holocene",17.90110206604,-123.80818939209,19.2456893920898,-78.141,-0.481,TRUE
"1154",352031,"Aliso","Ecuador","Stratovolcano","Eruption Dated","2450 BCE","South America","Ecuador",-0.53,-78,4267,"Andesite / Basaltic Andesite","Subduction zone / Continental crust (>25 km)","Holocene",18.9615535736084,-129.07746887207,19.9282989501953,-78,-0.53,TRUE
"1155",352040,"Sumaco","Ecuador","Stratovolcano","Evidence Uncertain","1895 CE","South America","Ecuador",-0.538,-77.626,3990,"Trachybasalt / Tephrite Basanite","Subduction zone / Continental crust (>25 km)","Holocene",22.0710468292236,-143.317932128906,20.3818054199219,-77.626,-0.538,TRUE
"1156",352041,"Illiniza","Ecuador","Stratovolcano","Evidence Credible","Unknown","South America","Ecuador",-0.659,-78.714,5248,"Andesite / Basaltic Andesite","Subduction zone / Continental crust (>25 km)","Holocene",15.1128692626953,-107.137870788574,13.1101675033569,-78.714,-0.659,TRUE
"1157",352050,"Cotopaxi","Ecuador","Stratovolcano","Eruption Observed","2016 CE","South America","Ecuador",-0.677,-78.436,5911,"Andesite / Basaltic Andesite","Subduction zone / Continental crust (>25 km)","Holocene",16.7313938140869,-115.942947387695,14.9239711761475,-78.436,-0.677,TRUE
"1158",352060,"Quilotoa","Ecuador","Caldera","Eruption Dated","1280 CE","South America","Ecuador",-0.85,-78.9,3914,"Dacite","Subduction zone / Continental crust (>25 km)","Holocene",14.8138809204102,-102.836692810059,8.63679027557373,-78.9,-0.85,TRUE
"1159",352071,"Chimborazo","Ecuador","Stratovolcano","Eruption Dated","550 CE","South America","Ecuador",-1.464,-78.815,6310,"Andesite / Basaltic Andesite","Subduction zone / Continental crust (>25 km)","Holocene",15.5611410140991,-105.746772766113,351.661102294922,-78.815,-1.464,TRUE
"1160",352080,"Tungurahua","Ecuador","Stratovolcano","Eruption Observed","2016 CE","South America","Ecuador",-1.467,-78.442,5023,"Andesite / Basaltic Andesite","Subduction zone / Continental crust (>25 km)","Holocene",17.366584777832,-117.613822937012,348.598724365234,-78.442,-1.467,TRUE
"1161",352081,"Licto","Ecuador","Pyroclastic cone(s)","Evidence Uncertain","Unknown","South America","Ecuador",-1.78,-78.613,3336,"Andesite / Basaltic Andesite","Subduction zone / Continental crust (>25 km)","Holocene",16.2165603637695,-108.825317382812,332.928375244141,-78.613,-1.78,TRUE
"1162",352090,"Sangay","Ecuador","Stratovolcano","Eruption Observed","2019 CE","South America","Ecuador",-2.005,-78.341,5286,"Andesite / Basaltic Andesite","Subduction zone / Continental crust (>25 km)","Holocene",17.8966674804688,-112.207054138184,314.987609863281,-78.341,-2.005,TRUE
"1176",354000,"Quimsachata","Peru","Lava dome","Eruption Dated","4450 BCE","South America","Peru",-14.176,-71.351,3693,"Rhyolite","Subduction zone / Continental crust (>25 km)","Holocene",32.5849456787109,-134.902389526367,355.187438964844,-71.351,-14.176,TRUE
"1177",354001,"Auquihuato, Cerro","Peru","Pyroclastic cone","Evidence Uncertain","Unknown","South America","Peru",-15.07,-73.18,4980,"No Data (checked)","Subduction zone / Continental crust (>25 km)","Holocene",5.95305442810059,-85.7824020385742,296.961059570312,-73.18,-15.07,TRUE
"1178",354002,"Sara Sara","Peru","Stratovolcano","Evidence Credible","Unknown","South America","Peru",-15.33,-73.45,5522,"Andesite / Basaltic Andesite","Subduction zone / Continental crust (>25 km)","Holocene",13.48095703125,-79.0975952148438,302.986206054688,-73.45,-15.33,TRUE
"1179",354003,"Coropuna","Peru","Stratovolcano","Evidence Credible","Unknown","South America","Peru",-15.52,-72.65,6377,"Andesite / Basaltic Andesite","Subduction zone / Continental crust (>25 km)","Holocene",10.2815351486206,-86.1489181518555,327.736236572266,-72.65,-15.52,TRUE
"1180",354004,"Andahua-Orcopampa","Peru","Pyroclastic cone(s)","Eruption Dated","1490 CE","South America","Peru",-15.42,-72.33,4713,"Trachyandesite / Basaltic Trachyandesite","Subduction zone / Continental crust (>25 km)","Holocene",13.1724157333374,-93.2383499145508,350.119049072266,-72.33,-15.42,TRUE
"1181",354005,"Huambo","Peru","Volcanic field","Eruption Dated","700 BCE","South America","Peru",-15.83,-72.13,4550,"Trachyandesite / Basaltic Trachyandesite","Subduction zone / Continental crust (>25 km)","Holocene",19.0761680603027,-95.457160949707,337.284393310547,-72.13,-15.83,TRUE
"1182",354006,"Sabancaya","Peru","Stratovolcano(es)","Eruption Observed","2019 CE","South America","Peru",-15.787,-71.857,5960,"Andesite / Basaltic Andesite","Subduction zone / Continental crust (>25 km)","Holocene",22.2350883483887,-106.91283416748,342.108306884766,-71.857,-15.787,TRUE
"1183",354007,"Chachani, Nevado","Peru","Stratovolcano","Evidence Uncertain","Unknown","South America","Peru",-16.191,-71.53,6057,"Andesite / Basaltic Andesite","Subduction zone / Continental crust (>25 km)","Holocene",25.1359310150146,-110.821601867676,322.161743164062,-71.53,-16.191,TRUE
"1184",354008,"Nicholson, Cerro","Peru","Pyroclastic cone","Evidence Credible","Unknown","South America","Peru",-16.261,-71.754,2525,"Andesite / Basaltic Andesite","Subduction zone / Continental crust (>25 km)","Holocene",24.6390018463135,-99.7358169555664,321.300018310547,-71.754,-16.261,TRUE
"1185",354010,"Misti, El","Peru","Stratovolcano","Eruption Observed","1985 CE","South America","Peru",-16.294,-71.409,5822,"Andesite / Basaltic Andesite","Subduction zone / Continental crust (>25 km)","Holocene",25.7579345703125,-111.312217712402,316.801879882812,-71.409,-16.294,TRUE
"1186",354020,"Ubinas","Peru","Stratovolcano","Eruption Observed","2019 CE","South America","Peru",-16.355,-70.903,5672,"Andesite / Basaltic Andesite","Subduction zone / Continental crust (>25 km)","Holocene",27.3854923248291,-127.565246582031,306.850799560547,-70.903,-16.355,TRUE
"1187",354030,"Huaynaputina","Peru","Stratovolcano","Eruption Observed","1600 CE","South America","Peru",-16.608,-70.85,4850,"Dacite","Subduction zone / Continental crust (>25 km)","Holocene",26.8102073669434,-117.354423522949,302.524841308594,-70.85,-16.608,TRUE
"1188",354031,"Ticsani","Peru","Lava dome(s)","Eruption Dated","1800 CE","South America","Peru",-16.755,-70.595,5408,"Dacite","Subduction zone / Continental crust (>25 km)","Holocene",26.6110458374023,-116.998908996582,299.678619384766,-70.595,-16.755,TRUE
"1189",354040,"Tutupaca","Peru","Stratovolcano(es)","Eruption Observed","1802 CE","South America","Peru",-17.026,-70.372,5801,"Andesite / Basaltic Andesite","Subduction zone / Continental crust (>25 km)","Holocene",24.6939353942871,-110.019020080566,302.642669677734,-70.372,-17.026,TRUE
"1190",354050,"Yucamane","Peru","Stratovolcano(es)","Eruption Observed","1320 BCE","South America","Peru",-17.184,-70.196,5495,"Andesite / Basaltic Andesite","Subduction zone / Continental crust (>25 km)","Holocene",23.7152500152588,-108.379165649414,306.935455322266,-70.196,-17.184,TRUE
"1191",354060,"Casiri, Nevados","Peru","Stratovolcano(es)","Evidence Credible","Unknown","South America","Peru",-17.47,-69.813,5650,"Trachyte / Trachydacite","Subduction zone / Continental crust (>25 km)","Holocene",22.9203720092773,-109.958030700684,316.607727050781,-69.813,-17.47,TRUE
"1192",355010,"Tacora","Chile-Peru","Stratovolcano(es)","Unrest / Holocene","Unknown","South America","Northern Chile, Bolivia and Argentina",-17.72,-69.77,5980,"Andesite / Basaltic Andesite","Subduction zone / Continental crust (>25 km)","Holocene",21.7163219451904,-104.129554748535,321.397216796875,-69.77,-17.72,TRUE
"1193",355011,"Taapaca","Chile","Complex","Eruption Dated","320 BCE","South America","Northern Chile, Bolivia and Argentina",-18.1,-69.5,5860,"Dacite","Subduction zone / Continental crust (>25 km)","Holocene",21.5025615692139,-103.765899658203,329.215698242188,-69.5,-18.1,TRUE
"1194",355012,"Parinacota","Chile-Bolivia","Stratovolcano","Eruption Dated","290 CE","South America","Northern Chile, Bolivia and Argentina",-18.166,-69.142,6336,"Andesite / Basaltic Andesite","Subduction zone / Continental crust (>25 km)","Holocene",24.1147117614746,-115.768424987793,332.742828369141,-69.142,-18.166,TRUE
"1195",355020,"Guallatiri","Chile","Stratovolcano","Eruption Observed","1960 CE","South America","Northern Chile, Bolivia and Argentina",-18.42,-69.092,6071,"Andesite / Basaltic Andesite","Subduction zone / Continental crust (>25 km)","Holocene",23.8212814331055,-112.392936706543,334.499237060547,-69.092,-18.42,TRUE
"1196",355021,"Tambo Quemado","Bolivia","Pyroclastic shield","Evidence Credible","Unknown","South America","Northern Chile, Bolivia and Argentina",-18.62,-68.75,4215,"Rhyolite","Subduction zone / Continental crust (>25 km)","Holocene",27.6347961425781,-124.332595825195,338.031036376953,-68.75,-18.62,TRUE
"1197",355030,"Isluga","Chile","Stratovolcano","Eruption Observed","1913 CE","South America","Northern Chile, Bolivia and Argentina",-19.15,-68.83,5550,"Andesite / Basaltic Andesite","Subduction zone / Continental crust (>25 km)","Holocene",24.7586631774902,-109.631462097168,339.021240234375,-68.83,-19.15,TRUE
"1198",355032,"Tata Sabaya","Bolivia","Stratovolcano","Evidence Credible","Unknown","South America","Northern Chile, Bolivia and Argentina",-19.13,-68.53,5430,"Andesite / Basaltic Andesite","Subduction zone / Continental crust (>25 km)","Holocene",29.3620414733887,-125.11988067627,340.706115722656,-68.53,-19.13,TRUE
"1199",355035,"Jayu Khota, Laguna","Bolivia","Maar(s)","Evidence Credible","Unknown","South America","Northern Chile, Bolivia and Argentina",-19.463,-67.432,3650,"Basalt / Picro-Basalt","Subduction zone / Continental crust (>25 km)","Holocene",32.0546913146973,-186.071197509766,339.376831054688,-67.432,-19.463,TRUE
"1200",355036,"Jatun Mundo Quri Warani","Bolivia","Lava dome(s)","Evidence Uncertain","Unknown","South America","Northern Chile, Bolivia and Argentina",-19.78,-66.48,5438,"Dacite","Subduction zone / Continental crust (>25 km)","Holocene",34.1314811706543,-235.290725708008,337.484527587891,-66.48,-19.78,TRUE
"1201",355040,"Irruputuncu","Chile-Bolivia","Stratovolcano","Eruption Observed","1995 CE","South America","Northern Chile, Bolivia and Argentina",-20.73,-68.55,5163,"Andesite / Basaltic Andesite","Subduction zone / Continental crust (>25 km)","Holocene",18.6533451080322,-98.8128356933594,347.454925537109,-68.55,-20.73,TRUE
"1202",355042,"Pampa Luxsar","Bolivia","Volcanic field","Evidence Uncertain","Unknown","South America","Northern Chile, Bolivia and Argentina",-20.85,-68.2,5543,"Andesite / Basaltic Andesite","Subduction zone / Continental crust (>25 km)","Holocene",23.7078800201416,-111.383979797363,347.086853027344,-68.2,-20.85,TRUE
"1203",355050,"Olca-Paruma","Chile-Bolivia","Stratovolcano(es)","Eruption Observed","Unknown","South America","Northern Chile, Bolivia and Argentina",-20.939,-68.413,5705,"Andesite / Basaltic Andesite","Subduction zone / Continental crust (>25 km)","Holocene",19.6145172119141,-101.884643554688,348.174407958984,-68.413,-20.939,TRUE
"1204",355061,"Azufre, Cerro del","Chile","Stratovolcano","Evidence Uncertain","Unknown","South America","Northern Chile, Bolivia and Argentina",-21.787,-68.237,5846,"Andesite / Basaltic Andesite","Subduction zone / Continental crust (>25 km)","Holocene",19.8494968414307,-102.583938598633,351.037719726562,-68.237,-21.787,TRUE
"1205",355070,"San Pedro-San Pablo","Chile","Stratovolcano(es)","Eruption Observed","1960 CE","South America","Northern Chile, Bolivia and Argentina",-21.888,-68.391,6142,"Andesite / Basaltic Andesite","Subduction zone / Continental crust (>25 km)","Holocene",17.3122959136963,-96.870246887207,350.941467285156,-68.391,-21.888,TRUE
"1206",355090,"Putana","Chile","Stratovolcano","Eruption Observed","1810 CE","South America","Northern Chile, Bolivia and Argentina",-22.557,-67.853,5884,"Dacite","Subduction zone / Continental crust (>25 km)","Holocene",24.2700309753418,-112.808807373047,349.878265380859,-67.853,-22.557,TRUE
"1207",355091,"Sairecabur","Chile-Bolivia","Stratovolcano(es)","Evidence Credible","Unknown","South America","Northern Chile, Bolivia and Argentina",-22.72,-67.892,5971,"Andesite / Basaltic Andesite","Subduction zone / Continental crust (>25 km)","Holocene",23.0242729187012,-109.136611938477,349.455657958984,-67.892,-22.72,TRUE
"1208",355092,"Licancabur","Chile-Bolivia","Stratovolcano","Evidence Credible","Unknown","South America","Northern Chile, Bolivia and Argentina",-22.83,-67.88,5916,"Andesite / Basaltic Andesite","Subduction zone / Continental crust (>25 km)","Holocene",22.9545402526855,-108.845687866211,349.357391357422,-67.88,-22.83,TRUE
"1209",355093,"Guayaques","Chile-Bolivia","Lava dome(s)","Evidence Credible","Unknown","South America","Northern Chile, Bolivia and Argentina",-22.895,-67.566,5598,"Dacite","Subduction zone / Continental crust (>25 km)","Holocene",27.6417541503906,-123.37890625,349.753692626953,-67.566,-22.895,TRUE
"1210",355094,"Purico Complex","Chile","Pyroclastic shield","Evidence Credible","Unknown","South America","Northern Chile, Bolivia and Argentina",-23,-67.75,5703,"Dacite","Subduction zone / Continental crust (>25 km)","Holocene",24.7286777496338,-113.26676940918,349.558959960938,-67.75,-23,TRUE
"1211",355095,"Colachi","Chile","Stratovolcano","Evidence Credible","Unknown","South America","Northern Chile, Bolivia and Argentina",-23.236,-67.645,5631,"Andesite / Basaltic Andesite","Subduction zone / Continental crust (>25 km)","Holocene",25.6666240692139,-115.86873626709,350.399871826172,-67.645,-23.236,TRUE
"1212",355096,"Acamarachi","Chile","Stratovolcano","Evidence Credible","Unknown","South America","Northern Chile, Bolivia and Argentina",-23.292,-67.618,6023,"Dacite","Subduction zone / Continental crust (>25 km)","Holocene",25.997859954834,-116.915565490723,350.769561767578,-67.618,-23.292,TRUE
"1213",355097,"Overo, Cerro","Chile","Maar","Evidence Uncertain","Unknown","South America","Northern Chile, Bolivia and Argentina",-23.52,-67.67,4555,"Andesite / Basaltic Andesite","Subduction zone / Continental crust (>25 km)","Holocene",24.4165515899658,-112.873809814453,352.508178710938,-67.67,-23.52,TRUE
"1214",355098,"Chiliques","Chile","Stratovolcano","Evidence Uncertain","Unknown","South America","Northern Chile, Bolivia and Argentina",-23.58,-67.7,5778,"Andesite / Basaltic Andesite","Subduction zone / Continental crust (>25 km)","Holocene",23.5845222473145,-110.951179504395,353.220397949219,-67.7,-23.58,TRUE
"1215",355100,"Lascar","Chile","Stratovolcano(es)","Eruption Observed","2017 CE","South America","Northern Chile, Bolivia and Argentina",-23.37,-67.73,5592,"Andesite / Basaltic Andesite","Subduction zone / Continental crust (>25 km)","Holocene",23.7576751708984,-110.916313171387,351.297088623047,-67.73,-23.37,TRUE
"1216",355101,"Cordon de Puntas Negras","Chile","Stratovolcano(es)","Evidence Credible","Unknown","South America","Northern Chile, Bolivia and Argentina",-23.743,-67.534,5852,"Andesite / Basaltic Andesite","Subduction zone / Continental crust (>25 km)","Holocene",25.935848236084,-117.842216491699,354.508483886719,-67.534,-23.743,TRUE
"1217",355102,"Miniques","Chile","Stratovolcano(es)","Evidence Uncertain","Unknown","South America","Northern Chile, Bolivia and Argentina",-23.82,-67.77,5910,"Andesite / Basaltic Andesite","Subduction zone / Continental crust (>25 km)","Holocene",21.5855045318604,-107.121765136719,355.884368896484,-67.77,-23.82,TRUE
"1218",355103,"Tujle, Cerro","Chile","Maar","Evidence Credible","Unknown","South America","Northern Chile, Bolivia and Argentina",-23.83,-67.95,3550,"No Data (checked)","Subduction zone / Continental crust (>25 km)","Holocene",18.0299510955811,-100.364326477051,356.731170654297,-67.95,-23.83,TRUE
"1219",355104,"Caichinque","Chile","Stratovolcano(es)","Evidence Uncertain","Unknown","South America","Northern Chile, Bolivia and Argentina",-23.949,-67.74,4458,"Andesite / Basaltic Andesite","Subduction zone / Continental crust (>25 km)","Holocene",21.8578243255615,-108.106887817383,357.074066162109,-67.74,-23.949,TRUE
"1220",355105,"Tilocalar","Chile","Lava cone(es)","Evidence Uncertain","Unknown","South America","Northern Chile, Bolivia and Argentina",-23.97,-68.13,3109,"Andesite / Basaltic Andesite","Subduction zone / Continental crust (>25 km)","Holocene",14.5107326507568,-94.7951278686523,359.023529052734,-68.13,-23.97,TRUE
"1221",355106,"Negrillar, El","Chile","Pyroclastic cone(s)","Evidence Credible","Unknown","South America","Northern Chile, Bolivia and Argentina",-24.18,-68.25,3500,"Andesite / Basaltic Andesite","Subduction zone / Continental crust (>25 km)","Holocene",12.4871196746826,-91.9834365844727,1.49607455730438,-68.25,-24.18,TRUE
"1222",355107,"Pular","Chile","Stratovolcano(es)","Evidence Uncertain","Unknown","South America","Northern Chile, Bolivia and Argentina",-24.188,-68.054,6233,"Andesite / Basaltic Andesite","Subduction zone / Continental crust (>25 km)","Holocene",15.5499420166016,-97.0169067382812,120.140182495117,-68.054,-24.188,TRUE
"1223",355108,"Negrillar, La","Chile","Pyroclastic cone(s)","Evidence Uncertain","Unknown","South America","Northern Chile, Bolivia and Argentina",-24.319,-68.59,4220,"Andesite / Basaltic Andesite","Subduction zone / Continental crust (>25 km)","Holocene",9.72032260894775,-85.7165756225586,5.56099319458008,-68.59,-24.319,TRUE
"1224",355109,"Socompa","Chile-Argentina","Stratovolcano","Eruption Dated","5250 BCE","South America","Northern Chile, Bolivia and Argentina",-24.396,-68.246,6031,"Dacite","Subduction zone / Continental crust (>25 km)","Holocene",12.1920948028564,-92.1671295166016,2.37013697624207,-68.246,-24.396,TRUE
"1225",355110,"Llullaillaco","Chile-Argentina","Stratovolcano","Eruption Observed","1877 CE","South America","Northern Chile, Bolivia and Argentina",-24.72,-68.53,6739,"Dacite","Subduction zone / Continental crust (>25 km)","Holocene",9.20801162719727,-87.3697891235352,6.86068391799927,-68.53,-24.72,TRUE
"1226",355112,"Escorial","Chile-Argentina","Stratovolcano","Evidence Uncertain","Unknown","South America","Northern Chile, Bolivia and Argentina",-25.083,-68.367,5451,"Andesite / Basaltic Andesite","Subduction zone / Continental crust (>25 km)","Holocene",9.55687713623047,-90.8194046020508,5.22941780090332,-68.367,-25.083,TRUE
"1227",355120,"Lastarria","Chile-Argentina","Stratovolcano","Evidence Credible","Unknown","South America","Northern Chile, Bolivia and Argentina",-25.168,-68.507,5706,"Andesite / Basaltic Andesite","Subduction zone / Continental crust (>25 km)","Holocene",8.44292068481445,-88.8837585449219,7.98857307434082,-68.507,-25.168,TRUE
"1228",355121,"Cordon del Azufre","Chile-Argentina","Complex","Evidence Credible","Unknown","South America","Northern Chile, Bolivia and Argentina",-25.336,-68.521,5481,"Andesite / Basaltic Andesite","Subduction zone / Continental crust (>25 km)","Holocene",8.06838703155518,-89.0452499389648,9.15966701507568,-68.521,-25.336,TRUE
"1229",355122,"Bayo Gorbea, Cerro","Chile-Argentina","Complex","Evidence Credible","Unknown","South America","Northern Chile, Bolivia and Argentina",-25.414,-68.588,5413,"Andesite / Basaltic Andesite","Subduction zone / Continental crust (>25 km)","Holocene",7.68759059906006,-88.3571853637695,10.8296613693237,-68.588,-25.414,TRUE
"1230",355123,"Nevada, Sierra","Chile-Argentina","Complex","Evidence Credible","Unknown","South America","Northern Chile, Bolivia and Argentina",-26.48,-68.58,6173,"No Data (checked)","Subduction zone / Continental crust (>25 km)","Holocene",7.60090780258179,-92.8593368530273,19.5936756134033,-68.58,-26.48,TRUE
"1231",355124,"Falso Azufre","Chile-Argentina","Complex","Evidence Uncertain","Unknown","South America","Northern Chile, Bolivia and Argentina",-26.8,-68.37,5906,"No Data (checked)","Subduction zone / Continental crust (>25 km)","Holocene",8.41801643371582,-97.0850296020508,9.68912506103516,-68.37,-26.8,TRUE
"1232",355125,"Incahuasi, Nevado de","Chile-Argentina","Stratovolcano(es)","Evidence Uncertain","Unknown","South America","Northern Chile, Bolivia and Argentina",-27.033,-68.296,6638,"Dacite","Subduction zone / Continental crust (>25 km)","Holocene",8.67250156402588,-98.3525238037109,238.466766357422,-68.296,-27.033,TRUE
"1233",355130,"Ojos del Salado, Nevados","Chile-Argentina","Stratovolcano","Eruption Dated","750 CE","South America","Northern Chile, Bolivia and Argentina",-27.109,-68.541,6879,"Dacite","Subduction zone / Continental crust (>25 km)","Holocene",7.60147666931152,-94.9474487304688,354.031768798828,-68.541,-27.109,TRUE
"1234",355131,"Solo, El","Chile-Argentina","Stratovolcano","Evidence Credible","Unknown","South America","Northern Chile, Bolivia and Argentina",-27.105,-68.713,6205,"Dacite","Subduction zone / Continental crust (>25 km)","Holocene",6.54570388793945,-92.7336273193359,356.008117675781,-68.713,-27.105,TRUE
"1235",355150,"Tuzgle","Argentina","Stratovolcano","Evidence Uncertain","Unknown","South America","Northern Chile, Bolivia and Argentina",-24.05,-66.48,5486,"Dacite","Subduction zone / Continental crust (>25 km)","Holocene",36.7257919311523,-182.389984130859,353.006103515625,-66.48,-24.05,TRUE
"1236",355160,"Aracar","Argentina","Stratovolcano","Evidence Credible","Unknown","South America","Northern Chile, Bolivia and Argentina",-24.29,-67.783,6095,"Andesite / Basaltic Andesite","Subduction zone / Continental crust (>25 km)","Holocene",20.2437477111816,-105.73210144043,359.116333007812,-67.783,-24.29,TRUE
"1237",355161,"Unnamed","Argentina","Pyroclastic cone","Evidence Credible","Unknown","South America","Northern Chile, Bolivia and Argentina",-25.078,-68.266,4652,"Andesite / Basaltic Andesite","Subduction zone / Continental crust (>25 km)","Holocene",10.5560064315796,-92.5948638916016,3.473708152771,-68.266,-25.078,TRUE
"1238",355180,"Antofagasta Volcanic Field","Argentina","Pyroclastic cone(s)","Evidence Uncertain","Unknown","South America","Northern Chile, Bolivia and Argentina",-26.12,-67.4,3495,"Andesite / Basaltic Andesite","Subduction zone / Continental crust (>25 km)","Holocene",17.7343082427979,-114.04411315918,357.207366943359,-67.4,-26.12,TRUE
"1239",355190,"Condor, El","Argentina","Stratovolcano","Evidence Credible","Unknown","South America","Northern Chile, Bolivia and Argentina",-26.632,-68.361,6373,"No Data (checked)","Subduction zone / Continental crust (>25 km)","Holocene",8.47019004821777,-96.4695587158203,15.5435962677002,-68.361,-26.632,TRUE
"1240",355200,"Peinado","Argentina","Stratovolcano","Evidence Credible","Unknown","South America","Northern Chile, Bolivia and Argentina",-26.623,-68.116,5741,"Andesite / Basaltic Andesite","Subduction zone / Continental crust (>25 km)","Holocene",9.3817024230957,-100.166717529297,14.6875658035278,-68.116,-26.623,TRUE
"1241",355210,"Blanco, Cerro","Argentina","Caldera","Eruption Dated","2300 BCE","South America","Northern Chile, Bolivia and Argentina",-26.789,-67.765,4670,"Rhyolite","Subduction zone / Continental crust (>25 km)","Holocene",10.3049278259277,-106.664688110352,7.22939920425415,-67.765,-26.789,TRUE
"1242",355220,"Tipas","Argentina","Complex","Evidence Credible","Unknown","South America","Northern Chile, Bolivia and Argentina",-27.196,-68.561,6658,"No Data (checked)","Subduction zone / Continental crust (>25 km)","Holocene",7.37193870544434,-94.3513717651367,349.960540771484,-68.561,-27.196,TRUE
"1244",357010,"Tupungatito","Chile-Argentina","Stratovolcano","Eruption Observed","1987 CE","South America","Central Chile and Argentina",-33.425,-69.797,5660,"Andesite / Basaltic Andesite","Subduction zone / Continental crust (>25 km)","Holocene",19.3559646606445,-102.76692199707,16.7862224578857,-69.797,-33.425,TRUE
"1245",357020,"San Jose","Chile-Argentina","Stratovolcano(es)","Eruption Observed","1960 CE","South America","Central Chile and Argentina",-33.789,-69.895,6070,"Andesite / Basaltic Andesite","Subduction zone / Continental crust (>25 km)","Holocene",21.6300430297852,-104.296920776367,21.600154876709,-69.895,-33.789,TRUE
"1246",357021,"Maipo","Chile-Argentina","Caldera","Eruption Observed","1912 CE","South America","Central Chile and Argentina",-34.164,-69.832,5323,"Trachyandesite / Basaltic Trachyandesite","Subduction zone / Continental crust (>25 km)","Holocene",24.4599285125732,-114.194404602051,26.4199295043945,-69.832,-34.164,TRUE
"1247",357022,"Palomo","Chile","Stratovolcano","Evidence Credible","Unknown","South America","Central Chile and Argentina",-34.608,-70.295,4860,"Andesite / Basaltic Andesite","Subduction zone / Continental crust (>25 km)","Holocene",25.8940296173096,-106.015701293945,24.1312026977539,-70.295,-34.608,TRUE
"1248",357023,"Atuel, Caldera del","Argentina","Caldera","Evidence Credible","Unknown","South America","Central Chile and Argentina",-34.65,-70.05,5189,"Andesite / Basaltic Andesite","Subduction zone / Continental crust (>25 km)","Holocene",26.1302490234375,-117.288398742676,26.1418266296387,-70.05,-34.65,TRUE
"1249",357024,"Risco Plateado","Argentina","Stratovolcano","Evidence Uncertain","Unknown","South America","Central Chile and Argentina",-34.917,-69.981,4999,"Andesite / Basaltic Andesite","Subduction zone / Continental crust (>25 km)","Holocene",26.5781650543213,-126.396751403809,25.2340354919434,-69.981,-34.917,TRUE
"1250",357030,"Tinguiririca","Chile","Stratovolcano","Eruption Observed","1917 CE","South America","Central Chile and Argentina",-34.814,-70.352,4280,"Andesite / Basaltic Andesite","Subduction zone / Continental crust (>25 km)","Holocene",26.7526035308838,-108.705528259277,22.8219509124756,-70.352,-34.814,TRUE
"1251",357040,"Planchon-Peteroa","Chile","Stratovolcano(es)","Eruption Observed","2019 CE","South America","Central Chile and Argentina",-35.223,-70.568,3977,"Andesite / Basaltic Andesite","Subduction zone / Continental crust (>25 km)","Holocene",27.553295135498,-107.317459106445,18.7010650634766,-70.568,-35.223,TRUE
"1252",357041,"Infiernillo","Argentina","Volcanic field","Eruption Dated","6890 BCE","South America","Central Chile and Argentina",-35.123,-69.9,3007,"Andesite / Basaltic Andesite","Intraplate / Continental crust (>25 km)","Holocene",26.8683738708496,-134.583282470703,24.9030017852783,-69.9,-35.123,TRUE
"1253",357042,"Calabozos","Chile","Caldera","Evidence Credible","Unknown","South America","Central Chile and Argentina",-35.558,-70.496,3508,"Dacite","Subduction zone / Continental crust (>25 km)","Holocene",28.7230339050293,-116.318153381348,16.2258987426758,-70.496,-35.558,TRUE
"1254",357050,"Descabezado Grande","Chile","Stratovolcano(es)","Eruption Observed","1933 CE","South America","Central Chile and Argentina",-35.58,-70.75,3953,"Andesite / Basaltic Andesite","Subduction zone / Continental crust (>25 km)","Holocene",27.2031745910645,-105.268074035645,15.5658960342407,-70.75,-35.58,TRUE
"1255",357060,"Azul, Cerro","Chile","Stratovolcano","Eruption Observed","1967 CE","South America","Central Chile and Argentina",-35.653,-70.761,3788,"Dacite","Subduction zone / Continental crust (>25 km)","Holocene",27.1443214416504,-105.534561157227,15.1121406555176,-70.761,-35.653,TRUE
"1256",357061,"Maule, Laguna del","Chile","Caldera","Eruption Dated","50 BCE","South America","Central Chile and Argentina",-36.058,-70.492,2162,"Andesite / Basaltic Andesite","Subduction zone / Continental crust (>25 km)","Holocene",31.375207901001,-124.409194946289,13.5875053405762,-70.492,-36.058,TRUE
"1257",357062,"San Pedro-Pellado","Chile","Stratovolcano(es)","Evidence Credible","Unknown","South America","Central Chile and Argentina",-35.989,-70.849,3621,"Andesite / Basaltic Andesite","Subduction zone / Continental crust (>25 km)","Holocene",26.6912574768066,-106.459800720215,13.6350688934326,-70.849,-35.989,TRUE
"1258",357063,"Longavi, Nevado de","Chile","Stratovolcano","Eruption Dated","4890 BCE","South America","Central Chile and Argentina",-36.193,-71.161,3242,"Andesite / Basaltic Andesite","Subduction zone / Continental crust (>25 km)","Holocene",23.5280361175537,-96.4044799804688,15.4333591461182,-71.161,-36.193,TRUE
"1259",357064,"Blancas, Lomas","Chile","Stratovolcano","Evidence Credible","Unknown","South America","Central Chile and Argentina",-36.286,-71.009,2268,"Basalt / Picro-Basalt","Subduction zone / Continental crust (>25 km)","Holocene",24.9549140930176,-103.297462463379,14.3318891525269,-71.009,-36.286,TRUE
"1260",357065,"Resago, Volcan","Chile","Pyroclastic cone","Evidence Credible","Unknown","South America","Central Chile and Argentina",-36.45,-70.92,1890,"Andesite / Basaltic Andesite","Subduction zone / Continental crust (>25 km)","Holocene",26.701379776001,-109.665855407715,13.9136657714844,-70.92,-36.45,TRUE
"1261",357066,"Payun Matru","Argentina","Shield","Eruption Dated","5050 BCE","South America","Central Chile and Argentina",-36.422,-69.241,3715,"Trachybasalt / Tephrite Basanite","Subduction zone / Continental crust (>25 km)","Holocene",44.7871437072754,-220.567825317383,31.065938949585,-69.241,-36.422,TRUE
"1262",357067,"Domuyo","Argentina","Stratovolcano","Evidence Uncertain","Unknown","South America","Central Chile and Argentina",-36.638,-70.432,4702,"Dacite","Subduction zone / Continental crust (>25 km)","Holocene",36.6850929260254,-138.480911254883,13.1427011489868,-70.432,-36.638,TRUE
"1263",357070,"Chillan, Nevados de","Chile","Stratovolcano","Eruption Observed","2019 CE","South America","Central Chile and Argentina",-36.868,-71.378,3180,"Andesite / Basaltic Andesite","Subduction zone / Continental crust (>25 km)","Holocene",22.7353343963623,-97.2685852050781,16.5216999053955,-71.378,-36.868,TRUE
"1264",357072,"Tromen","Argentina","Stratovolcano(es)","Eruption Observed","1822 CE","South America","Central Chile and Argentina",-37.144,-70.033,4114,"Andesite / Basaltic Andesite","Subduction zone / Continental crust (>25 km)","Holocene",46.6260681152344,-180.919845581055,11.4381952285767,-70.033,-37.144,TRUE
"1265",357080,"Antuco","Chile","Stratovolcano","Eruption Observed","1869 CE","South America","Central Chile and Argentina",-37.406,-71.349,2979,"Basalt / Picro-Basalt","Subduction zone / Continental crust (>25 km)","Holocene",23.1209697723389,-105.144378662109,13.4730501174927,-71.349,-37.406,TRUE
"1266",357081,"Trolon","Argentina","Lava dome(s)","Evidence Uncertain","Unknown","South America","Central Chile and Argentina",-37.738,-70.906,2360,"Dacite","Subduction zone / Continental crust (>25 km)","Holocene",28.9193382263184,-126.846015930176,8.85313129425049,-70.906,-37.738,TRUE
"1267",357090,"Copahue","Chile-Argentina","Stratovolcano","Eruption Observed","2019 CE","South America","Central Chile and Argentina",-37.856,-71.183,2953,"Trachybasalt / Tephrite Basanite","Subduction zone / Continental crust (>25 km)","Holocene",24.3846702575684,-115.732391357422,9.58315658569336,-71.183,-37.856,TRUE
"1268",357091,"Callaqui","Chile","Stratovolcano","Eruption Observed","1980 CE","South America","Central Chile and Argentina",-37.92,-71.45,3164,"Andesite / Basaltic Andesite","Subduction zone / Continental crust (>25 km)","Holocene",23.4395656585693,-106.161094665527,9.16362571716309,-71.45,-37.92,TRUE
"1269",357092,"Mariñaqui, Laguna","Chile","Pyroclastic cone(s)","Evidence Credible","Unknown","South America","Central Chile and Argentina",-38.255,-71.167,2108,"Andesite / Basaltic Andesite","Subduction zone / Continental crust (>25 km)","Holocene",25.1181793212891,-119.66919708252,9.4104175567627,-71.167,-38.255,TRUE
"1270",357093,"Tolhuaca","Chile","Stratovolcano","Evidence Credible","4000 BCE","South America","Central Chile and Argentina",-38.31,-71.645,2739,"Andesite / Basaltic Andesite","Subduction zone / Continental crust (>25 km)","Holocene",24.5733242034912,-101.491622924805,8.89563274383545,-71.645,-38.31,TRUE
"1271",357100,"Lonquimay","Chile","Stratovolcano","Eruption Observed","1990 CE","South America","Central Chile and Argentina",-38.379,-71.586,2832,"Andesite / Basaltic Andesite","Subduction zone / Continental crust (>25 km)","Holocene",24.3663482666016,-104.634254455566,9.38379192352295,-71.586,-38.379,TRUE
"1272",357101,"Tralihue","Argentina","Stratovolcano","Evidence Credible","Unknown","South America","Central Chile and Argentina",-38.509,-70.898,2448,"Trachyandesite / Basaltic Trachyandesite","Intraplate / Continental crust (>25 km)","Holocene",30.2915706634521,-134.110458374023,10.0876502990723,-70.898,-38.509,TRUE
"1273",357102,"Blanca, Laguna","Argentina","Volcanic field","Evidence Credible","Unknown","South America","Central Chile and Argentina",-39.02,-70.37,1700,"Basalt / Picro-Basalt","Intraplate / Continental crust (>25 km)","Holocene",48.8738899230957,-181.102874755859,12.4904298782349,-70.37,-39.02,TRUE
"1274",357110,"Llaima","Chile","Stratovolcano","Eruption Observed","2009 CE","South America","Central Chile and Argentina",-38.692,-71.729,3125,"Basalt / Picro-Basalt","Subduction zone / Continental crust (>25 km)","Holocene",25.1725673675537,-101.56502532959,11.0466403961182,-71.729,-38.692,TRUE
"1275",357111,"Sollipulli","Chile","Caldera","Eruption Dated","1240 CE","South America","Central Chile and Argentina",-38.97,-71.52,2282,"Andesite / Basaltic Andesite","Subduction zone / Continental crust (>25 km)","Holocene",25.2527637481689,-113.045547485352,12.9847927093506,-71.52,-38.97,TRUE
"1276",357112,"Caburgua-Huelemolle","Chile","Pyroclastic cone(s)","Eruption Dated","5050 BCE","South America","Central Chile and Argentina",-39.25,-71.75,1652,"Basalt / Picro-Basalt","Subduction zone / Continental crust (>25 km)","Holocene",25.3178558349609,-107.23494720459,13.6583862304688,-71.75,-39.25,TRUE
"1277",357120,"Villarrica","Chile","Stratovolcano","Eruption Observed","2019 CE","South America","Central Chile and Argentina",-39.42,-71.93,2847,"Basalt / Picro-Basalt","Subduction zone / Continental crust (>25 km)","Holocene",25.292875289917,-102.076568603516,13.7154598236084,-71.93,-39.42,TRUE
"1278",357121,"Quetrupillan","Chile","Stratovolcano","Eruption Observed","1872 CE","South America","Central Chile and Argentina",-39.5,-71.7,2360,"Andesite / Basaltic Andesite","Subduction zone / Continental crust (>25 km)","Holocene",25.5107269287109,-112.294715881348,13.1544599533081,-71.7,-39.5,TRUE
"1279",357122,"Lanin","Chile-Argentina","Stratovolcano","Eruption Dated","560 CE","South America","Central Chile and Argentina",-39.637,-71.502,3776,"Trachyandesite / Basaltic Trachyandesite","Subduction zone / Continental crust (>25 km)","Holocene",27.2999897003174,-122.160903930664,12.7376298904419,-71.502,-39.637,TRUE
"1280",357123,"Huanquihue Group","Argentina","Stratovolcano(es)","Eruption Dated","1750 CE","South America","Central Chile and Argentina",-39.887,-71.58,2189,"Basalt / Picro-Basalt","Subduction zone / Continental crust (>25 km)","Holocene",27.4103851318359,-121.628234863281,11.8647212982178,-71.58,-39.887,TRUE
"1281",357130,"Mocho-Choshuenco","Chile","Stratovolcano(es)","Eruption Observed","1937 CE","South America","Central Chile and Argentina",-39.927,-72.027,2422,"Andesite / Basaltic Andesite","Subduction zone / Continental crust (>25 km)","Holocene",25.4391765594482,-103.895080566406,10.1219043731689,-72.027,-39.927,TRUE
"1282",357140,"Carran-Los Venados","Chile","Pyroclastic cone(s)","Eruption Observed","1979 CE","South America","Central Chile and Argentina",-40.35,-72.07,1114,"Basalt / Picro-Basalt","Subduction zone / Continental crust (>25 km)","Holocene",27.1487255096436,-105.632179260254,5.67975664138794,-72.07,-40.35,TRUE
"1283",357150,"Puyehue-Cordon Caulle","Chile","Stratovolcano","Eruption Observed","2012 CE","South America","Central Chile and Argentina",-40.59,-72.117,2236,"Andesite / Basaltic Andesite","Subduction zone / Continental crust (>25 km)","Holocene",28.5349273681641,-104.474197387695,3.46697640419006,-72.117,-40.59,TRUE
"1284",357152,"Pantojo, Cerro","Chile-Argentina","Stratovolcano","Evidence Credible","Unknown","South America","Central Chile and Argentina",-40.768,-71.943,1897,"Basalt / Picro-Basalt","Subduction zone / Continental crust (>25 km)","Holocene",29.5476531982422,-112.972900390625,4.15783596038818,-71.943,-40.768,TRUE
"1285",357153,"Antillanca Group","Chile","Stratovolcano(es)","Eruption Dated","230 BCE","South America","Central Chile and Argentina",-40.771,-72.153,1990,"Basalt / Picro-Basalt","Subduction zone / Continental crust (>25 km)","Holocene",29.4665241241455,-103.498947143555,2.55833339691162,-72.153,-40.771,TRUE
"1286",357160,"Puntiagudo-Cordon Cenizos","Chile","Stratovolcano","Eruption Observed","1850 CE","South America","Central Chile and Argentina",-40.969,-72.264,2493,"Andesite / Basaltic Andesite","Subduction zone / Continental crust (>25 km)","Holocene",30.3226566314697,-98.3510284423828,2.11546349525452,-72.264,-40.969,TRUE
"1287",358010,"Osorno","Chile","Stratovolcano","Eruption Observed","1869 CE","South America","Southern Chile and Argentina",-41.105,-72.496,2659,"Basalt / Picro-Basalt","Subduction zone / Continental crust (>25 km)","Holocene",30.6502819061279,-87.1348724365234,2.41184186935425,-72.496,-41.105,TRUE
"1288",358011,"Tronador","Chile-Argentina","Stratovolcano","Evidence Uncertain","Unknown","South America","Southern Chile and Argentina",-41.157,-71.885,3478,"Andesite / Basaltic Andesite","Subduction zone / Continental crust (>25 km)","Holocene",31.8654651641846,-118.068672180176,4.19827556610107,-71.885,-41.157,TRUE
"1289",358012,"Cayutue-La Vigueria","Chile","Pyroclastic cone(s)","Eruption Dated","190 BCE","South America","Southern Chile and Argentina",-41.25,-72.27,506,"Basalt / Picro-Basalt","Subduction zone / Continental crust (>25 km)","Holocene",30.7614059448242,-99.2008209228516,3.21664977073669,-72.27,-41.25,TRUE
"1290",358020,"Calbuco","Chile","Stratovolcano","Eruption Observed","2015 CE","South America","Southern Chile and Argentina",-41.33,-72.618,1974,"Andesite / Basaltic Andesite","Subduction zone / Continental crust (>25 km)","Holocene",30.3709506988525,-82.2351760864258,3.98640990257263,-72.618,-41.33,TRUE
"1291",358022,"Yate","Chile","Stratovolcano","Eruption Dated","1090 CE","South America","Southern Chile and Argentina",-41.755,-72.396,2187,"Andesite / Basaltic Andesite","Subduction zone / Continental crust (>25 km)","Holocene",30.7174644470215,-95.1088256835938,5.41459989547729,-72.396,-41.755,TRUE
"1292",358023,"Hornopiren","Chile","Stratovolcano","Eruption Dated","340 CE","South America","Southern Chile and Argentina",-41.874,-72.431,1572,"Andesite / Basaltic Andesite","Subduction zone / Continental crust (>25 km)","Holocene",30.5953941345215,-94.2382888793945,5.86534976959229,-72.431,-41.874,TRUE
"1293",358024,"Apagado","Chile","Pyroclastic cone","Eruption Dated","590 BCE","South America","Southern Chile and Argentina",-41.88,-72.58,1210,"Basalt / Picro-Basalt","Subduction zone / Continental crust (>25 km)","Holocene",30.0536918640137,-87.1290893554688,6.32366466522217,-72.58,-41.88,TRUE
"1294",358025,"Crater Basalt Volcanic Field","Argentina","Pyroclastic cone(s)","Evidence Credible","Unknown","South America","Southern Chile and Argentina",-42.018,-70.194,1344,"Trachybasalt / Tephrite Basanite","Intraplate / Continental crust (>25 km)","Holocene",NA,NA,NA,-70.194,-42.018,TRUE
"1295",358030,"Huequi","Chile","Lava dome(s)","Eruption Observed","1920 CE","South America","Southern Chile and Argentina",-42.377,-72.578,1318,"Andesite / Basaltic Andesite","Subduction zone / Continental crust (>25 km)","Holocene",29.8827056884766,-90.9777603149414,7.26680183410645,-72.578,-42.377,TRUE
"1296",358040,"Michinmahuida","Chile","Stratovolcano","Eruption Observed","1835 CE","South America","Southern Chile and Argentina",-42.799,-72.445,2452,"Andesite / Basaltic Andesite","Subduction zone / Continental crust (>25 km)","Holocene",31.3033542633057,-100.739738464355,6.8134593963623,-72.445,-42.799,TRUE
"1297",358041,"Chaiten","Chile","Caldera","Eruption Observed","2011 CE","South America","Southern Chile and Argentina",-42.833,-72.646,1122,"Rhyolite","Subduction zone / Continental crust (>25 km)","Holocene",29.9780044555664,-91.3987655639648,6.56635570526123,-72.646,-42.833,TRUE
"1298",358049,"Yanteles","Chile","Stratovolcano(es)","Eruption Dated","6650 BCE","South America","Southern Chile and Argentina",-43.497,-72.81,2049,"Andesite / Basaltic Andesite","Subduction zone / Continental crust (>25 km)","Holocene",30.354606628418,-87.7680358886719,4.90682792663574,-72.81,-43.497,TRUE
"1299",358050,"Corcovado","Chile","Stratovolcano","Eruption Dated","4920 BCE","South America","Southern Chile and Argentina",-43.189,-72.794,1826,"Andesite / Basaltic Andesite","Subduction zone / Continental crust (>25 km)","Holocene",29.6650581359863,-86.7558822631836,5.30831909179688,-72.794,-43.189,TRUE
"1300",358051,"Palena Volcanic Group","Chile","Pyroclastic cone(s)","Evidence Credible","Unknown","South America","Southern Chile and Argentina",-43.78,-72.47,2991,"No Data (checked)","Subduction zone / Continental crust (>25 km)","Holocene",32.6884651184082,-106.830429077148,5.67561531066895,-72.47,-43.78,TRUE
"1301",358052,"Melimoyu","Chile","Stratovolcano","Eruption Dated","200 CE","South America","Southern Chile and Argentina",-44.08,-72.88,2400,"Andesite / Basaltic Andesite","Subduction zone / Continental crust (>25 km)","Holocene",31.5714321136475,-88.2090835571289,6.2311863899231,-72.88,-44.08,TRUE
"1302",358053,"Puyuhuapi","Chile","Pyroclastic cone(s)","Evidence Credible","Unknown","South America","Southern Chile and Argentina",-44.3,-72.53,524,"Basalt / Picro-Basalt","Subduction zone / Continental crust (>25 km)","Holocene",NA,NA,NA,-72.53,-44.3,TRUE
"1303",358054,"Mentolat","Chile","Stratovolcano","Eruption Observed","1710 CE","South America","Southern Chile and Argentina",-44.7,-73.08,1660,"Andesite / Basaltic Andesite","Subduction zone / Continental crust (>25 km)","Holocene",NA,NA,NA,-73.08,-44.7,TRUE
"1304",358055,"Cay","Chile","Stratovolcano","Evidence Uncertain","Unknown","South America","Southern Chile and Argentina",-45.059,-72.984,2090,"Andesite / Basaltic Andesite","Subduction zone / Continental crust (>25 km)","Holocene",NA,NA,NA,-72.984,-45.059,TRUE
"1305",358056,"Maca","Chile","Stratovolcano","Eruption Dated","1560 CE","South America","Southern Chile and Argentina",-45.1,-73.17,2960,"Basalt / Picro-Basalt","Subduction zone / Continental crust (>25 km)","Holocene",NA,NA,NA,-73.17,-45.1,TRUE
"1306",358057,"Hudson, Cerro","Chile","Stratovolcano","Eruption Observed","2011 CE","South America","Southern Chile and Argentina",-45.9,-72.97,1905,"Basalt / Picro-Basalt","Subduction zone / Continental crust (>25 km)","Holocene",NA,NA,NA,-72.97,-45.9,TRUE
"1307",358059,"Arenales","Chile","Stratovolcano","Eruption Observed","1979 CE","South America","Southern Chile and Argentina",-47.2,-73.48,3437,"No Data (checked)","Subduction zone / Continental crust (>25 km)","Holocene",NA,NA,NA,-73.48,-47.2,TRUE
"1308",358060,"Lautaro","Chile","Stratovolcano","Eruption Observed","1979 CE","South America","Southern Chile and Argentina",-49.019,-73.504,3542,"Dacite","Subduction zone / Continental crust (>25 km)","Holocene",NA,NA,NA,-73.504,-49.019,TRUE
"1311",358064,"Meullin","Chile","Volcanic field","Evidence Credible","Unknown","South America","Southern Chile and Argentina",-45.22,-73.05,1080,"Basalt / Picro-Basalt","Subduction zone / Continental crust (>25 km)","Holocene",NA,NA,NA,-73.05,-45.22,TRUE
"1321",360080,"Diables, Morne aux","Dominica","Lava dome(s)","Evidence Credible","Unknown","West Indies","West Indies",15.612,-61.43,861,"Andesite / Basaltic Andesite","Subduction zone / Oceanic crust (< 15 km)","Holocene",NA,NA,NA,-61.43,15.612,TRUE
"1322",360090,"Diablotins, Morne","Dominica","Stratovolcano","Evidence Uncertain","Unknown","West Indies","West Indies",15.503,-61.397,1430,"Andesite / Basaltic Andesite","Subduction zone / Oceanic crust (< 15 km)","Holocene",NA,NA,NA,-61.397,15.503,TRUE
"1323",360100,"Trois Pitons, Morne","Dominica","Complex","Eruption Dated","920 CE","West Indies","West Indies",15.37,-61.33,1387,"Andesite / Basaltic Andesite","Subduction zone / Oceanic crust (< 15 km)","Holocene",NA,NA,NA,-61.33,15.37,TRUE
"1324",360101,"Watt, Morne","Dominica","Stratovolcano(es)","Eruption Observed","1997 CE","West Indies","West Indies",15.307,-61.305,1224,"Andesite / Basaltic Andesite","Subduction zone / Oceanic crust (< 15 km)","Holocene",NA,NA,NA,-61.305,15.307,TRUE
"1325",360110,"Plat Pays, Morne","Dominica","Stratovolcano","Eruption Dated","1270 CE","West Indies","West Indies",15.255,-61.341,940,"Dacite","Subduction zone / Oceanic crust (< 15 km)","Holocene",NA,NA,NA,-61.341,15.255,TRUE
"1326",360120,"Pelee","France","Stratovolcano","Eruption Observed","1932 CE","West Indies","West Indies",14.809,-61.165,1394,"Andesite / Basaltic Andesite","Subduction zone / Oceanic crust (< 15 km)","Holocene",NA,NA,NA,-61.165,14.809,TRUE
"1327",360140,"Qualibou","Saint Lucia","Caldera","Eruption Observed","1766 CE","West Indies","West Indies",13.83,-61.05,777,"Andesite / Basaltic Andesite","Subduction zone / Oceanic crust (< 15 km)","Holocene",NA,NA,NA,-61.05,13.83,TRUE
"1328",360150,"Soufriere St. Vincent","Saint Vincent and the Grenadines","Stratovolcano","Eruption Observed","1979 CE","West Indies","West Indies",13.33,-61.18,1220,"Andesite / Basaltic Andesite","Subduction zone / Oceanic crust (< 15 km)","Holocene",NA,NA,NA,-61.18,13.33,TRUE
"1329",360160,"Kick 'em Jenny","Grenada","Submarine","Eruption Observed","2017 CE","West Indies","West Indies",12.3,-61.64,-185,"Basalt / Picro-Basalt","Subduction zone / Oceanic crust (< 15 km)","Holocene",NA,NA,NA,-61.64,12.3,TRUE
"1330",360170,"St. Catherine","Grenada","Stratovolcano","Evidence Credible","Unknown","West Indies","West Indies",12.15,-61.67,840,"Andesite / Basaltic Andesite","Subduction zone / Oceanic crust (< 15 km)","Holocene",NA,NA,NA,-61.67,12.15,TRUE
"2433",344130,"Maderas","Nicaragua","Stratovolcano",NA,NA,"México and Central America","Nicaragua",11.446,-85.515,1394,NA,"Subduction zone / Continental crust (>25 km)","Pleistocene",NA,NA,NA,-85.515,11.446,TRUE
"2434",344801,"Malpaisillo","Nicaragua","Pyroclastic shield",NA,NA,"México and Central America","Nicaragua",12.58,-86.6,181,NA,"Subduction zone / Continental crust (>25 km)","Pleistocene",NA,NA,NA,-86.6,12.58,TRUE
"2435",344802,"Apoyo","Nicaragua","Caldera",NA,NA,"México and Central America","Nicaragua",11.92,-86.03,600,NA,"Subduction zone / Continental crust (>25 km)","Pleistocene",NA,NA,NA,-86.03,11.92,TRUE
"2436",344803,"San Jacinto, Cerro","Nicaragua","Stratovolcano",NA,NA,"México and Central America","Nicaragua",12.37,-86.02,300,NA,"Subduction zone / Continental crust (>25 km)","Pleistocene",NA,NA,NA,-86.02,12.37,TRUE
"2437",344805,"Tambor Grande","Nicaragua","Caldera",NA,NA,"México and Central America","Nicaragua",10.97,-84.08,648,NA,"Subduction zone / Intermediate crust (15-25 km)","Pleistocene",NA,NA,NA,-84.08,10.97,TRUE
"2438",345800,"Chopo, Cerro","Costa Rica","Pyroclastic cone",NA,NA,"México and Central America","Costa Rica",10.472,-85.07,402,NA,"Subduction zone / Continental crust (>25 km)","Pleistocene",NA,NA,NA,-85.07,10.472,TRUE
"2439",345801,"Tilaran, Cerro","Costa Rica","Shield",NA,NA,"México and Central America","Costa Rica",10.451,-84.978,634,NA,"Subduction zone / Continental crust (>25 km)","Pleistocene",NA,NA,NA,-84.978,10.451,TRUE
"2440",345802,"Perdidos, Los","Costa Rica","Caldera",NA,NA,"México and Central America","Costa Rica",10.403,-84.675,1357,NA,"Subduction zone / Continental crust (>25 km)","Pleistocene",NA,NA,NA,-84.675,10.403,TRUE
"2441",345803,"Poco Sol, Laguna","Costa Rica","Explosion crater(?)",NA,NA,"México and Central America","Costa Rica",10.35,-84.67,789,NA,"Subduction zone / Continental crust (>25 km)","Pleistocene",NA,NA,NA,-84.67,10.35,TRUE
"2442",345804,"San Miguel, Cerro","Costa Rica","Lava dome",NA,NA,"México and Central America","Costa Rica",10.022,-84.708,414,NA,"Subduction zone / Continental crust (>25 km)","Pleistocene",NA,NA,NA,-84.708,10.022,TRUE
"2443",345805,"Mercedes, Cerro las","Costa Rica","Pyroclastic cone",NA,NA,"México and Central America","Costa Rica",10.97,-84.35,190,NA,"Intraplate / Continental crust (>25 km)","Pleistocene",NA,NA,NA,-84.35,10.97,TRUE
"2444",345806,"Negro, Cerro","Costa Rica","Shield",NA,NA,"México and Central America","Costa Rica",10.462,-83.855,136,NA,"Subduction zone / Continental crust (>25 km)","Pleistocene",NA,NA,NA,-83.855,10.462,TRUE
"2445",345807,"Colorado, Lomas de","Costa Rica","Shield(s)",NA,NA,"México and Central America","Costa Rica",10.658,-83.721,229,NA,"Subduction zone / Continental crust (>25 km)","Pleistocene",NA,NA,NA,-83.721,10.658,TRUE
"2446",345808,"Tortuguero","Costa Rica","Pyroclastic cone",NA,NA,"México and Central America","Costa Rica",10.586,-83.53,119,NA,"Unknown","Pleistocene",NA,NA,NA,-83.53,10.586,TRUE
"2447",345809,"Sierpe, Lomas de","Costa Rica","Shield(s)",NA,NA,"México and Central America","Costa Rica",10.376,-83.545,311,NA,"Subduction zone / Continental crust (>25 km)","Pleistocene",NA,NA,NA,-83.545,10.376,TRUE
"2448",345810,"Durika","Costa Rica","Lava dome(s)",NA,NA,"México and Central America","Costa Rica",9.374,-83.302,3257,NA,"Subduction zone / Continental crust (>25 km)","Pleistocene",NA,NA,NA,-83.302,9.374,TRUE
"2450",346800,"Tisingal","Panama","Stratovolcano",NA,NA,"México and Central America","Panama",8.88,-82.67,2986,NA,"Subduction zone / Continental crust (>25 km)","Pleistocene",NA,NA,NA,-82.67,8.88,TRUE
"2451",346801,"Yeguada, La","Panama","Stratovolcano",NA,NA,"México and Central America","Panama",8.47,-80.82,1297,NA,"Subduction zone / Continental crust (>25 km)","Pleistocene",NA,NA,NA,-80.82,8.47,TRUE
"2452",351001,"San Diego","Colombia","Maar",NA,NA,"South America","Colombia",5.65,-74.961,1163,NA,"","Pleistocene",16.9090766906738,-90.1925811767578,78.5301361083984,-74.961,5.65,TRUE
"2453",351002,"Escondido, El","Colombia","Lava dome",NA,NA,"South America","Colombia",5.514,-75.043,1620,NA,"","Pleistocene",18.6543102264404,-94.259521484375,77.8561859130859,-75.043,5.514,TRUE
"2454",351800,"Santa Rosa","Colombia","Shield",NA,NA,"South America","Colombia",4.8,-75.458,4584,NA,"Subduction zone / Continental crust (>25 km)","Pleistocene",29.2570705413818,-120.336410522461,59.7564888000488,-75.458,4.8,TRUE
"2455",351801,"Quindio, Nevado del","Colombia","Stratovolcano",NA,NA,"South America","Colombia",4.701,-75.386,4756,NA,"Subduction zone / Continental crust (>25 km)","Pleistocene",31.2805137634277,-128.1220703125,59.9761695861816,-75.386,4.701,TRUE
"2456",351807,"Unnamed","Colombia","Volcanic field",NA,NA,"South America","Colombia",2.2,-76.03,2500,NA,"Subduction zone / Continental crust (>25 km)","Pleistocene",36.7858619689941,-177.487411499023,17.8557834625244,-76.03,2.2,TRUE
"2457",351808,"San Augustín-Isnos","Colombia","Volcanic field",NA,NA,"South America","Colombia",1.92,-76.23,1900,NA,"Subduction zone / Continental crust (>25 km)","Pleistocene",35.3543701171875,-170.043334960938,22.3587551116943,-76.23,1.92,TRUE
"2458",351809,"Cutanga","Colombia","Unknown",NA,NA,"South America","Colombia",1.83,-76.45,4300,NA,"Subduction zone / Continental crust (>25 km)","Pleistocene",33.1943778991699,-157.661819458008,26.2951946258545,-76.45,1.83,TRUE
"2459",351810,"Animas","Colombia","Stratovolcano",NA,NA,"South America","Colombia",1.568,-76.857,4180,NA,"Subduction zone / Continental crust (>25 km)","Pleistocene",29.7745361328125,-143.414459228516,33.7628173828125,-76.857,1.568,TRUE
"2460",352800,"Yanaurcu de Pinan","Ecuador","Stratovolcano",NA,NA,"South America","Ecuador",0.484,-78.329,4535,NA,"Subduction zone / Continental crust (>25 km)","Pleistocene",19.6125831604004,-105.272323608398,25.0798263549805,-78.329,0.484,TRUE
"2461",352801,"Pilavo","Ecuador","Stratovolcano",NA,NA,"South America","Ecuador",0.526,-78.365,4254,NA,"Subduction zone / Continental crust (>25 km)","Pleistocene",20.0651798248291,-103.199501037598,26.2722873687744,-78.365,0.526,TRUE
"2462",352802,"Cotacachi","Ecuador","Stratovolcano",NA,NA,"South America","Ecuador",0.364,-78.351,4939,NA,"Subduction zone / Continental crust (>25 km)","Pleistocene",18.731876373291,-106.556640625,24.0036602020264,-78.351,0.364,TRUE
"2463",352803,"Cusin","Ecuador","Stratovolcano",NA,NA,"South America","Ecuador",0.127,-78.154,3989,NA,"Subduction zone / Continental crust (>25 km)","Pleistocene",17.747652053833,-116.382286071777,18.3112163543701,-78.154,0.127,TRUE
"2464",352804,"Chalpatan","Ecuador","Caldera",NA,NA,"South America","Ecuador",0.711,-77.784,3624,NA,"Subduction zone / Continental crust (>25 km)","Pleistocene",22.7564945220947,-123.088531494141,21.7473735809326,-77.784,0.711,TRUE
"2465",352805,"Chiltazon","Ecuador","Stratovolcano",NA,NA,"South America","Ecuador",0.687,-78.021,3967,NA,"Subduction zone / Continental crust (>25 km)","Pleistocene",21.5865898132324,-113.907615661621,23.5644187927246,-78.021,0.687,TRUE
"2466",352806,"Iguan","Ecuador","Stratovolcano",NA,NA,"South America","Ecuador",0.621,-78.007,3870,NA,"Subduction zone / Continental crust (>25 km)","Pleistocene",21.2187690734863,-115.693733215332,21.7917747497559,-78.007,0.621,TRUE
"2467",352807,"Pambamarca","Ecuador","Stratovolcano",NA,NA,"South America","Ecuador",-0.076,-78.207,4076,NA,"Subduction zone / Continental crust (>25 km)","Pleistocene",16.9203433990479,-117.125282287598,18.8772163391113,-78.207,-0.076,TRUE
"2468",352808,"Casitagua","Ecuador","Stratovolcano",NA,NA,"South America","Ecuador",-0.036,-78.48,3501,NA,"Subduction zone / Continental crust (>25 km)","Pleistocene",16.3821506500244,-107.783790588379,22.2072296142578,-78.48,-0.036,TRUE
"2469",352809,"Puntas, Cerro","Ecuador","Stratovolcano",NA,NA,"South America","Ecuador",-0.174,-78.2,4348,NA,"Subduction zone / Continental crust (>25 km)","Pleistocene",16.8605327606201,-118.036521911621,18.9713897705078,-78.2,-0.174,TRUE
"2470",352810,"Ilalo","Ecuador","Stratovolcano",NA,NA,"South America","Ecuador",-0.259,-78.418,3185,NA,"Subduction zone / Continental crust (>25 km)","Pleistocene",15.9926443099976,-112.429153442383,19.4376182556152,-78.418,-0.259,TRUE
"2471",352811,"Pasochoa","Ecuador","Stratovolcano",NA,NA,"South America","Ecuador",-0.462,-78.478,4199,NA,"Subduction zone / Continental crust (>25 km)","Pleistocene",15.8714904785156,-112.432220458984,17.299186706543,-78.478,-0.462,TRUE
"2472",352812,"Pan de Azucar","Ecuador","Stratovolcano",NA,NA,"South America","Ecuador",-0.43,-77.72,3482,NA,"Subduction zone / Continental crust (>25 km)","Pleistocene",20.9395904541016,-138.364929199219,20.1089706420898,-77.72,-0.43,TRUE
"2473",352813,"Sincholagua","Ecuador","Stratovolcano",NA,NA,"South America","Ecuador",-0.534,-78.371,4893,NA,"Subduction zone / Continental crust (>25 km)","Pleistocene",16.6790294647217,-116.685668945312,17.266637802124,-78.371,-0.534,TRUE
"2474",352814,"Ruminahui","Ecuador","Stratovolcano",NA,NA,"South America","Ecuador",-0.578,-78.504,4712,NA,"Subduction zone / Continental crust (>25 km)","Pleistocene",16.0253639221191,-112.976547241211,15.7367963790894,-78.504,-0.578,TRUE
"2475",352815,"Corazon","Ecuador","Stratovolcano",NA,NA,"South America","Ecuador",-0.528,-78.658,4786,NA,"Subduction zone / Continental crust (>25 km)","Pleistocene",15.2310438156128,-108.079147338867,15.7095279693604,-78.658,-0.528,TRUE
"2476",352816,"Santa Cruz","Ecuador","Stratovolcano",NA,NA,"South America","Ecuador",-0.648,-78.631,3945,NA,"Subduction zone / Continental crust (>25 km)","Pleistocene",15.4425296783447,-109.480545043945,13.8676567077637,-78.631,-0.648,TRUE
"2477",352817,"Putzalagua","Ecuador","Lava dome",NA,NA,"South America","Ecuador",-0.962,-78.56,3512,NA,"Subduction zone / Continental crust (>25 km)","Pleistocene",16.6144237518311,-113.550964355469,8.55309104919434,-78.56,-0.962,TRUE
"2478",352818,"Sagoatoa","Ecuador","Stratovolcano",NA,NA,"South America","Ecuador",-1.151,-78.666,4153,NA,"Subduction zone / Continental crust (>25 km)","Pleistocene",16.2689876556396,-110.914047241211,3.104567527771,-78.666,-1.151,TRUE
"2479",352819,"Llimpi","Ecuador","Stratovolcano",NA,NA,"South America","Ecuador",-1.381,-78.572,3732,NA,"Subduction zone / Continental crust (>25 km)","Pleistocene",16.8760929107666,-114.089416503906,354.051574707031,-78.572,-1.381,TRUE
"2480",352820,"Puyo","Ecuador","Pyroclastic cone(s)",NA,NA,"South America","Ecuador",-1.459,-77.917,1072,NA,"Subduction zone / Continental crust (>25 km)","Pleistocene",18.9268989562988,-136.41145324707,339.110168457031,-77.917,-1.459,TRUE
"2481",352821,"Carihuairazo","Ecuador","Stratovolcano",NA,NA,"South America","Ecuador",-1.404,-78.75,5102,NA,"Subduction zone / Continental crust (>25 km)","Pleistocene",15.8977851867676,-108.077796936035,354.134552001953,-78.75,-1.404,TRUE
"2482",352822,"Igualata","Ecuador","Stratovolcano",NA,NA,"South America","Ecuador",-1.49,-78.639,4430,NA,"Subduction zone / Continental crust (>25 km)","Pleistocene",16.4515018463135,-111.422660827637,349.583648681641,-78.639,-1.49,TRUE
"2483",352823,"Calpi","Ecuador","Tuff cone(s)",NA,NA,"South America","Ecuador",-1.634,-78.728,3215,NA,"Subduction zone / Continental crust (>25 km)","Pleistocene",15.7891693115234,-107.16397857666,343.089447021484,-78.728,-1.634,TRUE
"2484",352824,"Altar","Ecuador","Stratovolcano",NA,NA,"South America","Ecuador",-1.67,-78.42,5321,NA,"Unknown","Pleistocene",17.4299297332764,-116.597999572754,335.6435546875,-78.42,-1.67,TRUE
"2485",352826,"Chalupas","Ecuador","Caldera",NA,NA,"South America","Ecuador",-0.804,-78.3,4812,NA,"Subduction zone / Continental crust (>25 km)","Pleistocene",17.9580154418945,-121.449615478516,14.2667808532715,-78.3,-0.804,TRUE
"2493",354801,"Huambutillo-Rumicola","Peru","Unknown",NA,NA,"South America","Peru",-13.58,-71.72,0,NA,"Subduction zone / Continental crust (>25 km)","Pleistocene",26.7664413452148,-120.221282958984,342.484741210938,-71.72,-13.58,TRUE
"2494",354802,"Firura, Nevados","Peru","Stratovolcano(es)",NA,NA,"South America","Peru",-15.23,-72.63,5498,NA,"Subduction zone / Continental crust (>25 km)","Pleistocene",7.13134527206421,-88.5191802978516,340.169982910156,-72.63,-15.23,TRUE
"2495",354803,"Solimana","Peru","Stratovolcano",NA,NA,"South America","Peru",-15.4,-72.9,6093,NA,"Subduction zone / Continental crust (>25 km)","Pleistocene",8.57383728027344,-84.1541900634766,312.424621582031,-72.9,-15.4,TRUE
"2496",354804,"Purupuruni, Cerros","Peru","Lava dome(s)",NA,NA,"South America","Peru",-17.32,-69.9,5315,NA,"Subduction zone / Continental crust (>25 km)","Pleistocene",23.6486415863037,-112.361587524414,312.997985839844,-69.9,-17.32,TRUE
"2497",355060,"Ollague","Chile-Bolivia","Stratovolcano",NA,NA,"South America","Northern Chile, Bolivia and Argentina",-21.3,-68.18,5868,NA,"Subduction zone / Continental crust (>25 km)","Pleistocene",21.9908180236816,-107.908996582031,349.700134277344,-68.18,-21.3,TRUE
"2498",355065,"Inacalari","Chile-Bolivia","Stratovolcano",NA,NA,"South America","Northern Chile, Bolivia and Argentina",-21.981,-68.071,5618,NA,"Subduction zone / Continental crust (>25 km)","Pleistocene",22.1273555755615,-107.793975830078,351.195495605469,-68.071,-21.981,TRUE
"2499",355140,"Copiapo","Chile","Stratovolcano",NA,NA,"South America","Northern Chile, Bolivia and Argentina",-27.3,-69.13,6052,NA,"Subduction zone / Continental crust (>25 km)","Pleistocene",5.54528760910034,-88.4705352783203,358.535827636719,-69.13,-27.3,TRUE
"2500",355805,"Lexone","Chile","Lava dome(s)",NA,NA,"South America","Northern Chile, Bolivia and Argentina",-17.87,-69.48,5340,NA,"Subduction zone / Continental crust (>25 km)","Pleistocene",22.4630126953125,-109.946823120117,326.269317626953,-69.48,-17.87,TRUE
"2501",355806,"Anallajsi, Nevado","Bolivia","Stratovolcano",NA,NA,"South America","Northern Chile, Bolivia and Argentina",-17.92,-68.92,5750,NA,"Subduction zone / Continental crust (>25 km)","Pleistocene",27.0373439788818,-132.390960693359,333.324798583984,-68.92,-17.92,TRUE
"2502",355807,"Pucara, Cerro","Bolivia","Volcanic field",NA,NA,"South America","Northern Chile, Bolivia and Argentina",-16.236,-69.471,4080,NA,"Unknown","Pleistocene",35.6278839111328,-183.263229370117,300.723541259766,-69.471,-16.236,TRUE
"2503",355808,"Patilla Pata","Bolivia","Stratovolcano",NA,NA,"South America","Northern Chile, Bolivia and Argentina",-18.05,-69.03,5300,NA,"Subduction zone / Continental crust (>25 km)","Pleistocene",25.6730289459229,-123.611099243164,333.074676513672,-69.03,-18.05,TRUE
"2504",355809,"Sajama, Nevado del","Bolivia","Stratovolcano",NA,NA,"South America","Northern Chile, Bolivia and Argentina",-18.1,-68.88,6542,NA,"Subduction zone / Continental crust (>25 km)","Pleistocene",27.1264038085938,-129.481750488281,334.999481201172,-68.88,-18.1,TRUE
"2505",355810,"Larancagua, Volcan","Chile","Stratovolcano",NA,NA,"South America","Northern Chile, Bolivia and Argentina",-18.02,-69.08,5580,NA,"Unknown","Pleistocene",25.2496509552002,-122.188163757324,332.243347167969,-69.08,-18.02,TRUE
"2506",355811,"Caquena","Chile","Lava dome(s)",NA,NA,"South America","Northern Chile, Bolivia and Argentina",-18.07,-69.22,0,NA,"Subduction zone / Continental crust (>25 km)","Pleistocene",23.7868957519531,-115.326110839844,331.297546386719,-69.22,-18.07,TRUE
"2507",355812,"Vilacollo","Chile","Pyroclastic cone(s)",NA,NA,"South America","Northern Chile, Bolivia and Argentina",-18.241,-69.307,4688,NA,"Subduction zone / Continental crust (>25 km)","Pleistocene",22.4635066986084,-108.257873535156,331.984191894531,-69.307,-18.241,TRUE
"2508",355813,"Acotango","Chile-Bolivia","Stratovolcano(es)",NA,NA,"South America","Northern Chile, Bolivia and Argentina",-18.37,-69.05,6052,NA,"Subduction zone / Continental crust (>25 km)","Pleistocene",24.5709667205811,-115.605262756348,334.668884277344,-69.05,-18.37,TRUE
"2509",355814,"Arintica","Chile","Stratovolcano(es)",NA,NA,"South America","Northern Chile, Bolivia and Argentina",-18.75,-69.05,5597,NA,"Subduction zone / Continental crust (>25 km)","Pleistocene",23.239917755127,-107.748100280762,336.217864990234,-69.05,-18.75,TRUE
"2510",355815,"Rochaculla-Inca Camacha","Bolivia","Stratovolcano(es)",NA,NA,"South America","Northern Chile, Bolivia and Argentina",-18.8,-68.3,5300,NA,"Unknown","Pleistocene",31.7126560211182,-146.025726318359,341.876220703125,-68.3,-18.8,TRUE
"2511",355817,"Tatajachura, Cerro","Chile","Stratovolcano",NA,NA,"South America","Northern Chile, Bolivia and Argentina",-19.5,-69.12,5240,NA,"Unknown","Pleistocene",20.1949844360352,-92.6008453369141,339.845672607422,-69.12,-19.5,TRUE
"2512",355818,"Cariquima, Cerro","Chile","Stratovolcano",NA,NA,"South America","Northern Chile, Bolivia and Argentina",-19.55,-68.68,5365,NA,"Subduction zone / Continental crust (>25 km)","Pleistocene",25.1448574066162,-109.250022888184,339.805053710938,-68.68,-19.55,TRUE
"2513",355819,"Porquesa","Chile","Lava dome(s)",NA,NA,"South America","Northern Chile, Bolivia and Argentina",-19.958,-68.73,5190,NA,"Subduction zone / Continental crust (>25 km)","Pleistocene",21.4304313659668,-100.677742004395,341.432830810547,-68.73,-19.958,TRUE
"2514",355820,"Napa, Cerro","Chile","Stratovolcano",NA,NA,"South America","Northern Chile, Bolivia and Argentina",-20.52,-68.68,5145,NA,"Unknown","Pleistocene",18.2210903167725,-96.1344528198242,346.408081054688,-68.68,-20.52,TRUE
"2515",355821,"Ocana","Bolivia","Stratovolcano",NA,NA,"South America","Northern Chile, Bolivia and Argentina",-20.58,-68.45,0,NA,"Subduction zone / Continental crust (>25 km)","Pleistocene",21.0702896118164,-103.852439880371,345.749053955078,-68.45,-20.58,TRUE
"2516",355822,"Copa, Cerro","Chile","Stratovolcano(es)",NA,NA,"South America","Northern Chile, Bolivia and Argentina",-20.63,-68.45,5330,NA,"Unknown","Pleistocene",20.7472248077393,-103.337730407715,346.186096191406,-68.45,-20.63,TRUE
"2517",355823,"Aucanquilcha","Chile","Stratovolcano",NA,NA,"South America","Northern Chile, Bolivia and Argentina",-21.22,-68.47,6176,NA,"Subduction zone / Continental crust (>25 km)","Pleistocene",17.7194538116455,-98.1242904663086,349.489837646484,-68.47,-21.22,TRUE
"2518",355824,"San Agustin, Cerro","Bolivia","Stratovolcano",NA,NA,"South America","Northern Chile, Bolivia and Argentina",-21.25,-67.75,4980,NA,"Subduction zone / Continental crust (>25 km)","Pleistocene",28.2484340667725,-129.34098815918,348.975982666016,-67.75,-21.25,TRUE
"2519",355825,"Cañapa","Chile","Stratovolcano",NA,NA,"South America","Northern Chile, Bolivia and Argentina",-21.5,-68.12,5630,NA,"Subduction zone / Continental crust (>25 km)","Pleistocene",22.4831409454346,-109.131256103516,350.531097412109,-68.12,-21.5,TRUE
"2520",355826,"Ascotan, Cerro","Chile","Stratovolcano",NA,NA,"South America","Northern Chile, Bolivia and Argentina",-21.68,-68.12,5473,NA,"Unknown","Pleistocene",22.0121669769287,-107.799362182617,351.016815185547,-68.12,-21.68,TRUE
"2521",355827,"Escala","Bolivia","Lava dome",NA,NA,"South America","Northern Chile, Bolivia and Argentina",-21.6,-66.88,4000,NA,"Subduction zone / Continental crust (>25 km)","Pleistocene",31.8246059417725,-176.903717041016,350.125244140625,-66.88,-21.6,TRUE
"2522",355828,"Moiro, Cerro","Bolivia","Pyroclastic cone",NA,NA,"South America","Northern Chile, Bolivia and Argentina",-21.68,-67.47,4250,NA,"Subduction zone / Continental crust (>25 km)","Pleistocene",29.3247394561768,-140.593353271484,350.690460205078,-67.47,-21.68,TRUE
"2523",355829,"Chascon, Cerro","Bolivia","Lava dome",NA,NA,"South America","Northern Chile, Bolivia and Argentina",-21.88,-67.9,5125,NA,"Subduction zone / Continental crust (>25 km)","Pleistocene",24.8469982147217,-115.91983795166,351.319213867188,-67.9,-21.88,TRUE
"2524",355830,"Apagado","Chile","Stratovolcano",NA,NA,"South America","Northern Chile, Bolivia and Argentina",-22.05,-67.97,5680,NA,"Unknown","Pleistocene",23.5484848022461,-111.607948303223,351.163391113281,-67.97,-22.05,TRUE
"2525",355831,"Paniri","Chile","Stratovolcano",NA,NA,"South America","Northern Chile, Bolivia and Argentina",-22.059,-68.228,5946,NA,"Subduction zone / Continental crust (>25 km)","Pleistocene",19.1910915374756,-100.852729797363,351.015625,-68.228,-22.059,TRUE
"2526",355832,"Leon, Cerro del","Chile","Stratovolcano(es)",NA,NA,"South America","Northern Chile, Bolivia and Argentina",-22.142,-68.108,5754,NA,"Subduction zone / Continental crust (>25 km)","Pleistocene",21.1851329803467,-105.295295715332,350.914733886719,-68.108,-22.142,TRUE
"2527",355833,"Deslinde","Chile","Stratovolcano",NA,NA,"South America","Northern Chile, Bolivia and Argentina",-22.27,-67.97,5651,NA,"Unknown","Pleistocene",23.0754432678223,-109.972351074219,350.658020019531,-67.97,-22.27,TRUE
"2528",355834,"Linzor, Volcan","Chile-Bolivia","Stratovolcano",NA,NA,"South America","Northern Chile, Bolivia and Argentina",-22.18,-67.95,5680,NA,"Subduction zone / Continental crust (>25 km)","Pleistocene",23.5232791900635,-111.331977844238,350.893707275391,-67.95,-22.18,TRUE
"2529",355835,"Jorcada","Bolivia","Stratovolcano",NA,NA,"South America","Northern Chile, Bolivia and Argentina",-22.08,-67.77,5750,NA,"Subduction zone / Continental crust (>25 km)","Pleistocene",26.1777362823486,-120.810775756836,351.213836669922,-67.77,-22.08,TRUE
"2530",355836,"Quetena","Bolivia","Fissure vent",NA,NA,"South America","Northern Chile, Bolivia and Argentina",-22.25,-67.42,5730,NA,"Subduction zone / Continental crust (>25 km)","Pleistocene",29.2082023620605,-138.125549316406,351.428649902344,-67.42,-22.25,TRUE
"2531",355837,"Sunequera","Bolivia","Shield",NA,NA,"South America","Northern Chile, Bolivia and Argentina",-21.98,-67.23,5899,NA,"Subduction zone / Continental crust (>25 km)","Pleistocene",30.3092670440674,-151.282119750977,351.636505126953,-67.23,-21.98,TRUE
"2532",355838,"Uturuncu","Bolivia","Stratovolcano",NA,NA,"South America","Northern Chile, Bolivia and Argentina",-22.27,-67.18,6008,NA,"Subduction zone / Continental crust (>25 km)","Pleistocene",30.6906185150146,-151.67333984375,352.057983398438,-67.18,-22.27,TRUE
"2533",355840,"Tatio, Volcan","Chile","Stratovolcano",NA,NA,"South America","Northern Chile, Bolivia and Argentina",-22.42,-68.02,5314,NA,"Unknown","Pleistocene",21.8825912475586,-106.72380065918,350.173217773438,-68.02,-22.42,TRUE
"2534",355841,"Volcan, El","Chile","Stratovolcano",NA,NA,"South America","Northern Chile, Bolivia and Argentina",-22.33,-67.97,5100,NA,"Subduction zone / Continental crust (>25 km)","Pleistocene",22.9196968078613,-109.456260681152,350.456115722656,-67.97,-22.33,TRUE
"2535",355842,"Tocorpuri, Cerros de","Chile-Bolivia","Stratovolcano",NA,NA,"South America","Northern Chile, Bolivia and Argentina",-22.439,-67.888,5808,NA,"Subduction zone / Continental crust (>25 km)","Pleistocene",24.0050392150879,-112.311943054199,350.198181152344,-67.888,-22.439,TRUE
"2536",355843,"Zapaleri, Cerro","Chile","Stratovolcano",NA,NA,"South America","Northern Chile, Bolivia and Argentina",-22.82,-67.18,5643,NA,"Unknown","Pleistocene",31.3442211151123,-146.340454101562,351.097198486328,-67.18,-22.82,TRUE
"2537",355844,"Poquis","Chile","Stratovolcano",NA,NA,"South America","Northern Chile, Bolivia and Argentina",-23.02,-67.05,5770,NA,"Unknown","Pleistocene",32.5840110778809,-152.639221191406,351.392761230469,-67.05,-23.02,TRUE
"2538",355845,"Curutu","Chile","Stratovolcano",NA,NA,"South America","Northern Chile, Bolivia and Argentina",-23.17,-67.07,5394,NA,"Unknown","Pleistocene",32.5762329101562,-149.960754394531,351.322174072266,-67.07,-23.17,TRUE
"2539",355846,"Losloyo","Chile","Stratovolcano",NA,NA,"South America","Northern Chile, Bolivia and Argentina",-23.13,-67.37,5343,NA,"Unknown","Pleistocene",29.7373752593994,-131.960021972656,350.381561279297,-67.37,-23.13,TRUE
"2540",355847,"Potor","Chile","Stratovolcano",NA,NA,"South America","Northern Chile, Bolivia and Argentina",-23.2,-67.67,5318,NA,"Unknown","Pleistocene",25.4932384490967,-115.372016906738,350.231170654297,-67.67,-23.2,TRUE
"2541",355848,"Hecar","Chile","Stratovolcano",NA,NA,"South America","Northern Chile, Bolivia and Argentina",-23.23,-67.75,5029,NA,"Unknown","Pleistocene",23.9508266448975,-111.208206176758,350.410430908203,-67.75,-23.23,TRUE
"2542",355849,"Verde, Laguna","Chile","Stratovolcano",NA,NA,"South America","Northern Chile, Bolivia and Argentina",-23.252,-67.71,5464,NA,"Subduction zone / Continental crust (>25 km)","Pleistocene",24.4777889251709,-112.589134216309,350.491455078125,-67.71,-23.252,TRUE
"2543",355850,"Rio Negro, Cerro de","Chile","Stratovolcano",NA,NA,"South America","Northern Chile, Bolivia and Argentina",-23.398,-67.582,5067,NA,"Unknown","Pleistocene",26.2238883972168,-117.719039916992,351.433685302734,-67.582,-23.398,TRUE
"2544",355851,"Tumisa","Chile","Stratovolcano",NA,NA,"South America","Northern Chile, Bolivia and Argentina",-23.45,-67.82,5671,NA,"Unknown","Pleistocene",21.8803863525391,-106.807609558105,352.129486083984,-67.82,-23.45,TRUE
"2545",355852,"Lejia","Chile","Stratovolcano",NA,NA,"South America","Northern Chile, Bolivia and Argentina",-23.55,-67.77,5790,NA,"Unknown","Pleistocene",22.4564247131348,-108.281303405762,353.017486572266,-67.77,-23.55,TRUE
"2546",355853,"Miscanti","Chile","Stratovolcano",NA,NA,"South America","Northern Chile, Bolivia and Argentina",-23.67,-67.72,5613,NA,"Unknown","Pleistocene",22.9899311065674,-109.79566192627,354.129913330078,-67.72,-23.67,TRUE
"2547",355854,"Laco","Chile","Lava dome",NA,NA,"South America","Northern Chile, Bolivia and Argentina",-23.8,-67.5,5472,NA,"Unknown","Pleistocene",26.3239097595215,-119.237724304199,354.884918212891,-67.5,-23.8,TRUE
"2548",355855,"Incaguasi","Chile","Unknown",NA,NA,"South America","Northern Chile, Bolivia and Argentina",-24.03,-67.53,5689,NA,"Unknown","Pleistocene",25.1098976135254,-116.737602233887,356.906372070312,-67.53,-24.03,TRUE
"2549",355856,"Capur","Chile","Stratovolcano",NA,NA,"South America","Northern Chile, Bolivia and Argentina",-24.02,-67.85,5216,NA,"Unknown","Pleistocene",19.5144062042236,-103.507469177246,358.090789794922,-67.85,-24.02,TRUE
"2550",355857,"Aguas Delgadas","Chile","Stratovolcano",NA,NA,"South America","Northern Chile, Bolivia and Argentina",-24.45,-68.4,0,NA,"Subduction zone / Continental crust (>25 km)","Pleistocene",10.5145854949951,-89.203369140625,4.11497926712036,-68.4,-24.45,TRUE
"2551",355858,"Niebla, Cerro de la","Chile","Compound",NA,NA,"South America","Northern Chile, Bolivia and Argentina",-25.25,-68.63,4500,NA,"Unknown","Pleistocene",7.8519139289856,-87.2171096801758,10.630913734436,-68.63,-25.25,TRUE
"2552",355859,"Azufre, El","Chile","Unknown",NA,NA,"South America","Northern Chile, Bolivia and Argentina",-25.37,-68.88,5480,NA,"Unknown","Pleistocene",8.1447172164917,-84.2216873168945,13.699070930481,-68.88,-25.37,TRUE
"2553",355860,"Piedra Parada","Chile","Stratovolcano",NA,NA,"South America","Northern Chile, Bolivia and Argentina",-26.4,-68.75,5920,NA,"Subduction zone / Continental crust (>25 km)","Pleistocene",7.21988153457642,-90.4299468994141,21.0619106292725,-68.75,-26.4,TRUE
"2554",355861,"San Francisco","Chile","Stratovolcano",NA,NA,"South America","Northern Chile, Bolivia and Argentina",-26.9,-68.27,6018,NA,"Subduction zone / Continental crust (>25 km)","Pleistocene",8.73984718322754,-98.7887954711914,5.19693374633789,-68.27,-26.9,TRUE
"2555",355862,"Tres Cruces","Chile","Stratovolcano",NA,NA,"South America","Northern Chile, Bolivia and Argentina",-27.08,-68.8,6620,NA,"Subduction zone / Continental crust (>25 km)","Pleistocene",6.18624114990234,-91.8227081298828,358.115661621094,-68.8,-27.08,TRUE
"2556",355863,"Patos, Los","Chile","Stratovolcano",NA,NA,"South America","Northern Chile, Bolivia and Argentina",-27.27,-69,6250,NA,"Subduction zone / Continental crust (>25 km)","Pleistocene",5.26968765258789,-89.7197341918945,354.379272460938,-69,-27.27,TRUE
"2557",355864,"Queva, Nevado","Argentina","Unknown",NA,NA,"South America","Northern Chile, Bolivia and Argentina",-24.309,-66.732,6134,NA,"Subduction zone / Continental crust (>25 km)","Pleistocene",34.0457000732422,-161.791061401367,352.947631835938,-66.732,-24.309,TRUE
"2558",355865,"Tocomar","Argentina","Unknown",NA,NA,"South America","Northern Chile, Bolivia and Argentina",-24.2,-66.5,4950,NA,"Intraplate / Continental crust (>25 km)","Pleistocene",36.4304695129395,-179.587677001953,352.558685302734,-66.5,-24.2,TRUE
"2559",355866,"Gemelos-Saladillo","Argentina","Pyroclastic cone(s)",NA,NA,"South America","Northern Chile, Bolivia and Argentina",-24.75,-66.17,0,NA,"Intraplate / Continental crust (>25 km)","Pleistocene",38.3314971923828,-197.964706420898,351.062835693359,-66.17,-24.75,TRUE
"2560",355867,"Antofalla","Argentina","Stratovolcano(es)",NA,NA,"South America","Northern Chile, Bolivia and Argentina",-25.55,-67.92,6409,NA,"Subduction zone / Continental crust (>25 km)","Pleistocene",13.2410297393799,-100.308433532715,240.182846069336,-67.92,-25.55,TRUE
"2561",355868,"Galan, Cerro","Argentina","Caldera",NA,NA,"South America","Northern Chile, Bolivia and Argentina",-25.93,-66.92,6000,NA,"Subduction zone / Continental crust (>25 km)","Pleistocene",29.629976272583,-136.302963256836,352.001861572266,-66.92,-25.93,TRUE
"2562",355869,"Colorado, Cerro","Argentina","Stratovolcano",NA,NA,"South America","Northern Chile, Bolivia and Argentina",-26.18,-68.37,6049,NA,"Subduction zone / Continental crust (>25 km)","Pleistocene",8.39337539672852,-94.1231994628906,18.1768608093262,-68.37,-26.18,TRUE
"2563",355870,"Incapillo","Argentina","Caldera",NA,NA,"South America","Northern Chile, Bolivia and Argentina",-27.9,-68.8,5750,NA,"Subduction zone / Continental crust (>25 km)","Pleistocene",4.0625,-89.2711181640625,332.288818359375,-68.8,-27.9,TRUE
"2564",356010,"San Felix","Chile","Shield",NA,NA,"South America","Pacific Ocean (Chilean Islands)",-26.294,-80.112,159,NA,"Intraplate / Oceanic crust (< 15 km)","Pleistocene",NA,NA,NA,-80.112,-26.294,TRUE
"2565",356020,"Robinson Crusoe","Chile","Shield(s)",NA,NA,"South America","Pacific Ocean (Chilean Islands)",-33.658,-78.85,922,NA,"Intraplate / Oceanic crust (< 15 km)","Pleistocene",NA,NA,NA,-78.85,-33.658,TRUE
"2566",356040,"Seamount JF6","Chile","Submarine",NA,NA,"South America","Pacific Ocean (Chilean Islands)",-33.427,-76.87,-642,NA,"Intraplate / Oceanic crust (< 15 km)","Pleistocene",NA,NA,NA,-76.87,-33.427,TRUE
"2568",356801,"Alexander Selkirk","Chile","Shield",NA,NA,"South America","Pacific Ocean (Chilean Islands)",-33.763,-80.811,1266,NA,"Intraplate / Oceanic crust (< 15 km)","Pleistocene",NA,NA,NA,-80.811,-33.763,TRUE
"2569",357071,"Cochiquito Volcanic Group","Argentina","Stratovolcano(es)",NA,NA,"South America","Central Chile and Argentina",-36.739,-69.834,1435,NA,"Subduction zone / Continental crust (>25 km)","Pleistocene",44.9350776672363,-186.495529174805,18.1917304992676,-69.834,-36.739,TRUE
"2570",357800,"Tupungato","Chile-Argentina","Stratovolcano",NA,NA,"South America","Central Chile and Argentina",-33.359,-69.77,6570,NA,"Subduction zone / Continental crust (>25 km)","Pleistocene",18.937427520752,-103.07007598877,16.122673034668,-69.77,-33.359,TRUE
"2571",357801,"Piuquenes, Nevado de los","Chile-Argentina","Stratovolcano",NA,NA,"South America","Central Chile and Argentina",-33.52,-69.83,6019,NA,"Subduction zone / Continental crust (>25 km)","Pleistocene",19.8816471099854,-102.699195861816,17.8182601928711,-69.83,-33.52,TRUE
"2572",357802,"Northern Mendoza Volcanic Field","Argentina","Volcanic field",NA,NA,"South America","Central Chile and Argentina",-34.67,-69,0,NA,"Intraplate / Continental crust (>25 km)","Pleistocene",27.9617080688477,-159.840927124023,29.3177089691162,-69,-34.67,TRUE
"2573",357803,"Llancanelo Volcanic Field","Argentina","Pyroclastic cone(s)",NA,NA,"South America","Central Chile and Argentina",-35.75,-69.25,1876,NA,"Subduction zone / Continental crust (>25 km)","Pleistocene",36.3303604125977,-184.828582763672,33.0286521911621,-69.25,-35.75,TRUE
"2574",357804,"Puelche Volcanic Field","Chile","Volcanic field",NA,NA,"South America","Central Chile and Argentina",-35.78,-70.48,3140,NA,"Subduction zone / Continental crust (>25 km)","Pleistocene",29.9002475738525,-121.005149841309,14.7556562423706,-70.48,-35.78,TRUE
"2575",357805,"Sordo Lucas","Chile","Stratovolcano",NA,NA,"South America","Central Chile and Argentina",-34.987,-70.456,3349,NA,"Subduction zone / Continental crust (>25 km)","Pleistocene",27.210636138916,-107.92268371582,21.0374984741211,-70.456,-34.987,TRUE
"2576",357806,"Nevado, Cerro","Argentina","Volcanic field",NA,NA,"South America","Central Chile and Argentina",-35.58,-68.489,3791,NA,"Intraplate / Continental crust (>25 km)","Pleistocene",36.7662010192871,-219.782119750977,38.3583526611328,-68.489,-35.58,TRUE
"2577",357807,"Auca Mahuida Volcanic Field","Argentina","Volcanic field",NA,NA,"South America","Central Chile and Argentina",-37.738,-68.924,2243,NA,"Intraplate / Continental crust (>25 km)","Pleistocene",48.2665519714355,-313.317932128906,12.9397945404053,-68.924,-37.738,TRUE
"2578",357808,"Nevada, Sierra","Chile","Stratovolcano",NA,NA,"South America","Central Chile and Argentina",-38.58,-71.58,2554,NA,"Subduction zone / Continental crust (>25 km)","Pleistocene",24.6185150146484,-106.380180358887,10.5149841308594,-71.58,-38.58,TRUE
"2579",357809,"Pino Hachado","Argentina","Caldera",NA,NA,"South America","Central Chile and Argentina",-38.679,-70.814,2017,NA,"Intraplate / Continental crust (>25 km)","Pleistocene",33.2424125671387,-140.630508422852,11.1681718826294,-70.814,-38.679,TRUE
"2580",357810,"Trautrén, Cerro","Chile-Argentina","Stratovolcano(es)",NA,NA,"South America","Central Chile and Argentina",-39.17,-71.4,1846,NA,"Subduction zone / Continental crust (>25 km)","Pleistocene",26.3701400756836,-120.260765075684,13.8596506118774,-71.4,-39.17,TRUE
"2581",357811,"Caburgua, Nevados de","Chile","Stratovolcano(es)",NA,NA,"South America","Central Chile and Argentina",-39.17,-70.53,1862,NA,"Subduction zone / Continental crust (>25 km)","Pleistocene",45.5309638977051,-170.032806396484,13.7374668121338,-70.53,-39.17,TRUE
"2582",357812,"Maichín, Cerro","Chile","Stratovolcano",NA,NA,"South America","Central Chile and Argentina",-39.35,-71.55,0,NA,"Subduction zone / Continental crust (>25 km)","Pleistocene",25.9934558868408,-116.477783203125,13.5634784698486,-71.55,-39.35,TRUE
"2583",357813,"Quinchilca","Chile","Stratovolcano(es)",NA,NA,"South America","Central Chile and Argentina",-39.68,-72.008,1632,NA,"Subduction zone / Continental crust (>25 km)","Pleistocene",25.1655693054199,-102.638610839844,12.3882741928101,-72.008,-39.68,TRUE
"2584",358021,"Cuernos del Diablo","Chile","Stratovolcano",NA,NA,"South America","Southern Chile and Argentina",-41.363,-72.005,1846,NA,"Subduction zone / Continental crust (>25 km)","Pleistocene",31.7970218658447,-113.117073059082,4.25309038162231,-72.005,-41.363,TRUE
"2585",358058,"Rio Murta","Chile","Pyroclastic cone(s)",NA,NA,"South America","Southern Chile and Argentina",-46.17,-72.708,681,NA,"Subduction zone / Continental crust (>25 km)","Pleistocene",NA,NA,NA,-72.708,-46.17,TRUE
"2598",360812,"Caraïbes, Monts","France","Stratovolcano",NA,NA,"West Indies","West Indies",15.97,-61.68,687,NA,"Subduction zone / Oceanic crust (< 15 km)","Pleistocene",NA,NA,NA,-61.68,15.97,TRUE
"2599",360813,"Terre de Bas","France","Stratovolcano(es)",NA,NA,"West Indies","West Indies",15.87,-61.63,274,NA,"Subduction zone / Oceanic crust (< 15 km)","Pleistocene",NA,NA,NA,-61.63,15.87,TRUE
"2600",360814,"Foundland","Dominica","Stratovolcano",NA,NA,"West Indies","West Indies",15.27,-61.28,960,NA,"Subduction zone / Oceanic crust (< 15 km)","Pleistocene",NA,NA,NA,-61.28,15.27,TRUE
"2601",360815,"Carbets, Pitons de","France","Stratovolcano",NA,NA,"West Indies","West Indies",14.7,-61.12,1196,NA,"Subduction zone / Oceanic crust (< 15 km)","Pleistocene",NA,NA,NA,-61.12,14.7,TRUE
"2602",360816,"Unnamed","France","Volcanic field",NA,NA,"West Indies","West Indies",14.65,-61.08,0,NA,"Subduction zone / Oceanic crust (< 15 km)","Pleistocene",NA,NA,NA,-61.08,14.65,TRUE
"2603",360817,"Garu, Morne","Saint Vincent and the Grenadines","Stratovolcano",NA,NA,"West Indies","West Indies",13.292,-61.2,1074,NA,"Subduction zone / Continental crust (>25 km)","Pleistocene",NA,NA,NA,-61.2,13.292,TRUE
"2604",360818,"Grand Bonhomme","Saint Vincent and the Grenadines","Stratovolcano",NA,NA,"West Indies","West Indies",13.22,-61.208,1021,NA,"Subduction zone / Continental crust (>25 km)","Pleistocene",NA,NA,NA,-61.208,13.22,TRUE
