"","volcano.number","volcano.name","country","primary.volcano.type","activity.evidence","last.known.eruption","region","subregion","lat","long","elevation","dominant.rock.type","tectonic.setting","file","slab.dip","slab.depth","slab.strike","slab"
"1",311070,"Gareloi","United States","Stratovolcano","Eruption Observed","1989 CE","Alaska","Aleutian Islands",51.79,-178.794,1573,"Basalt / Picro-Basalt","Subduction zone / Intermediate crust (15-25 km)","Holocene",50.0416933966987,-73.0919953146465,265.041371667562,"alu"
"2",311080,"Tanaga","United States","Stratovolcano(es)","Eruption Observed","1914 CE","Alaska","Aleutian Islands",51.885,-178.146,1806,"Basalt / Picro-Basalt","Subduction zone / Intermediate crust (15-25 km)","Holocene",54.2162386845616,-82.2645213678179,264.088684083215,"alu"
"3",311090,"Takawangha","United States","Stratovolcano","Eruption Dated","1550 CE","Alaska","Aleutian Islands",51.873,-178.006,1449,"Basalt / Picro-Basalt","Subduction zone / Intermediate crust (15-25 km)","Holocene",53.0915108002371,-78.2655742230991,263.780537923918,"alu"
"4",311100,"Bobrof","United States","Stratovolcano","Evidence Uncertain","Unknown","Alaska","Aleutian Islands",51.91,-177.438,738,"Basalt / Picro-Basalt","Subduction zone / Intermediate crust (15-25 km)","Holocene",53.6174528610893,-80.4519213393363,264.961279975702,"alu"
"5",311110,"Kanaga","United States","Stratovolcano","Eruption Observed","2012 CE","Alaska","Aleutian Islands",51.923,-177.168,1307,"Andesite / Basaltic Andesite","Subduction zone / Intermediate crust (15-25 km)","Holocene",53.0535312511578,-78.4041138562235,265.318427193598,"alu"
"6",311111,"Moffett","United States","Stratovolcano","Eruption Dated","1600 BCE","Alaska","Aleutian Islands",51.944,-176.747,1196,"Andesite / Basaltic Andesite","Subduction zone / Intermediate crust (15-25 km)","Holocene",54.1111221567929,-79.7398453669504,263.37466430471,"alu"
"7",311120,"Great Sitkin","United States","Stratovolcano","Eruption Observed","2019 CE","Alaska","Aleutian Islands",52.076,-176.13,1740,"Andesite / Basaltic Andesite","Subduction zone / Intermediate crust (15-25 km)","Holocene",57.1000947099763,-91.0485747517873,258.445566810669,"alu"
"8",311130,"Kasatochi","United States","Stratovolcano","Eruption Observed","2008 CE","Alaska","Aleutian Islands",52.177,-175.508,314,"Basalt / Picro-Basalt","Subduction zone / Intermediate crust (15-25 km)","Holocene",56.8181368680454,-96.4794795678069,263.215443929236,"alu"
"9",311140,"Koniuji","United States","Stratovolcano","Eruption Dated","1150 BCE","Alaska","Aleutian Islands",52.22,-175.13,273,"Andesite / Basaltic Andesite","Subduction zone / Intermediate crust (15-25 km)","Holocene",56.343747471281,-98.9776536021434,267.022783065625,"alu"
"10",311160,"Atka","United States","Stratovolcano(es)","Eruption Observed","1812 CE","Alaska","Aleutian Islands",52.331,-174.139,1448,"Basalt / Picro-Basalt","Subduction zone / Intermediate crust (15-25 km)","Holocene",55.8247206060113,-111.20870811277,261.865207238547,"alu"
"11",311161,"Korovin","United States","Stratovolcano(es)","Eruption Observed","2007 CE","Alaska","Aleutian Islands",52.381,-174.166,1518,"Basalt / Picro-Basalt","Subduction zone / Continental crust (>25 km)","Holocene",56.9433254764945,-119.984941365942,261.64677258748,"alu"
"12",311180,"Seguam","United States","Stratovolcano(es)","Eruption Observed","1993 CE","Alaska","Aleutian Islands",52.315,-172.51,1054,"Andesite / Basaltic Andesite","Subduction zone / Intermediate crust (15-25 km)","Holocene",48.5915603842468,-80.9220768218501,254.993281045907,"alu"
"13",311190,"Amukta","United States","Stratovolcano","Eruption Observed","1997 CE","Alaska","Aleutian Islands",52.5,-171.252,1066,"Andesite / Basaltic Andesite","Subduction zone / Intermediate crust (15-25 km)","Holocene",47.1658668718424,-72.252342287328,252.607131964766,"alu"
"14",311200,"Chagulak","United States","Stratovolcano","Evidence Credible","Unknown","Alaska","Aleutian Islands",52.577,-171.13,1142,"Andesite / Basaltic Andesite","Subduction zone / Intermediate crust (15-25 km)","Holocene",49.748366904853,-79.6987830932821,253.169504805097,"alu"
"15",311210,"Yunaska","United States","Shield","Eruption Observed","1937 CE","Alaska","Aleutian Islands",52.643,-170.629,550,"Andesite / Basaltic Andesite","Subduction zone / Intermediate crust (15-25 km)","Holocene",50.2188390268103,-74.8065084480388,248.095372514484,"alu"
"16",311220,"Herbert","United States","Stratovolcano","Evidence Credible","Unknown","Alaska","Aleutian Islands",52.742,-170.111,1280,"Andesite / Basaltic Andesite","Subduction zone / Intermediate crust (15-25 km)","Holocene",49.2152099767466,-70.1401316931467,245.129938758609,"alu"
"17",311230,"Carlisle","United States","Stratovolcano","Eruption Observed","1828 CE","Alaska","Aleutian Islands",52.894,-170.054,1620,"Andesite / Basaltic Andesite","Subduction zone / Intermediate crust (15-25 km)","Holocene",53.0275192372735,-86.5520096507453,244.282257075822,"alu"
"18",311240,"Cleveland","United States","Stratovolcano","Eruption Observed","2019 CE","Alaska","Aleutian Islands",52.825,-169.944,1730,"Andesite / Basaltic Andesite","Subduction zone / Intermediate crust (15-25 km)","Holocene",49.5009549606565,-72.5221481925425,245.216979977956,"alu"
"19",311241,"Tana","United States","Stratovolcano(es)","Evidence Credible","Unknown","Alaska","Aleutian Islands",52.83,-169.77,1170,"Rhyolite","Subduction zone / Intermediate crust (15-25 km)","Holocene",47.9009310562631,-68.6469811895076,245.889227970327,"alu"
"20",311250,"Uliaga","United States","Stratovolcano","Evidence Credible","Unknown","Alaska","Aleutian Islands",53.065,-169.77,888,"No Data (checked)","Subduction zone / Intermediate crust (15-25 km)","Holocene",53.8486993655953,-97.8787282989653,243.706636211313,"alu"
"21",311260,"Kagamil","United States","Stratovolcano","Eruption Observed","1929 CE","Alaska","Aleutian Islands",52.974,-169.72,893,"No Data (checked)","Subduction zone / Intermediate crust (15-25 km)","Holocene",51.1637170689127,-82.8834966656768,244.95633442731,"alu"
"22",311270,"Vsevidof","United States","Stratovolcano","Eruption Observed","1878 CE","Alaska","Aleutian Islands",53.13,-168.693,2149,"Andesite / Basaltic Andesite","Subduction zone / Intermediate crust (15-25 km)","Holocene",46.2280082850474,-69.2907054181094,248.033991498409,"alu"
"23",311280,"Recheschnoi","United States","Stratovolcano","Evidence Credible","Unknown","Alaska","Aleutian Islands",53.157,-168.539,1984,"Andesite / Basaltic Andesite","Subduction zone / Intermediate crust (15-25 km)","Holocene",45.1842753239489,-66.925610916641,249.546585083936,"alu"
"24",311290,"Okmok","United States","Shield","Eruption Observed","2008 CE","Alaska","Aleutian Islands",53.43,-168.13,1073,"Basalt / Picro-Basalt","Subduction zone / Intermediate crust (15-25 km)","Holocene",49.288497932502,-89.2145454182506,248.724200770791,"alu"
"25",311300,"Bogoslof","United States","Submarine","Eruption Observed","2017 CE","Alaska","Aleutian Islands",53.93,-168.03,150,"Trachyandesite / Basaltic Trachyandesite","Subduction zone / Intermediate crust (15-25 km)","Holocene",49.6977589913576,-146.210662896787,240.109073200275,"alu"
"26",311310,"Makushin","United States","Stratovolcano","Eruption Observed","1995 CE","Alaska","Aleutian Islands",53.891,-166.923,1800,"Andesite / Basaltic Andesite","Subduction zone / Intermediate crust (15-25 km)","Holocene",47.2526444420066,-87.3743990188972,235.998872549499,"alu"
"27",311320,"Akutan","United States","Stratovolcano","Eruption Observed","1992 CE","Alaska","Aleutian Islands",54.134,-165.986,1303,"Basalt / Picro-Basalt","Subduction zone / Intermediate crust (15-25 km)","Holocene",43.3919949122046,-79.9773822815943,242.241317752347,"alu"
"28",311340,"Westdahl","United States","Stratovolcano?","Eruption Observed","1992 CE","Alaska","Aleutian Islands",54.516,-164.65,1563,"Basalt / Picro-Basalt","Subduction zone / Continental crust (>25 km)","Holocene",43.644312551523,-86.6824849976398,250.183893833787,"alu"
"29",311350,"Fisher","United States","Stratovolcano","Eruption Observed","1830 CE","Alaska","Aleutian Islands",54.65,-164.43,1112,"Andesite / Basaltic Andesite","Subduction zone / Continental crust (>25 km)","Holocene",45.5092137753753,-95.2672857196043,247.074895215869,"alu"
"30",311360,"Shishaldin","United States","Stratovolcano","Eruption Observed","2019 CE","Alaska","Aleutian Islands",54.756,-163.97,2857,"Basalt / Picro-Basalt","Subduction zone / Continental crust (>25 km)","Holocene",45.4228197820439,-92.6541341663092,243.736368813635,"alu"
"31",311370,"Isanotski","United States","Stratovolcano","Evidence Uncertain","Unknown","Alaska","Aleutian Islands",54.765,-163.723,2446,"No Data (checked)","Subduction zone / Continental crust (>25 km)","Holocene",44.8830926778523,-87.0552156727922,242.503217908145,"alu"
"32",311380,"Roundtop","United States","Stratovolcano","Eruption Dated","7600 BCE","Alaska","Aleutian Islands",54.8,-163.589,1871,"Rhyolite","Subduction zone / Continental crust (>25 km)","Holocene",45.0367711477286,-86.3256098923915,241.852798461131,"alu"
"33",311390,"Amak","United States","Stratovolcano","Eruption Observed","1796 CE","Alaska","Aleutian Islands",55.424,-163.149,488,"Andesite / Basaltic Andesite","Subduction zone / Continental crust (>25 km)","Holocene",51.1848411597461,-138.230331475837,236.913991285436,"alu"
"34",312010,"Frosty","United States","Stratovolcano(es)","Evidence Credible","Unknown","Alaska","Alaska Peninsula",55.067,-162.835,1728,"Andesite / Basaltic Andesite","Subduction zone / Continental crust (>25 km)","Holocene",45.1620364805352,-88.3759706745609,238.474058357505,"alu"
"35",312011,"Dutton","United States","Stratovolcano","Evidence Credible","Unknown","Alaska","Alaska Peninsula",55.183,-162.276,1465,"Andesite / Basaltic Andesite","Subduction zone / Continental crust (>25 km)","Holocene",41.4887644551716,-81.9763260309076,241.169699775952,"alu"
"36",312020,"Emmons Lake","United States","Caldera","Evidence Credible","Unknown","Alaska","Alaska Peninsula",55.341,-162.073,1436,"Andesite / Basaltic Andesite","Subduction zone / Continental crust (>25 km)","Holocene",42.6004609104441,-89.5350350731004,243.563079837891,"alu"
"37",312030,"Pavlof","United States","Stratovolcano","Eruption Observed","2016 CE","Alaska","Alaska Peninsula",55.417,-161.894,2493,"Andesite / Basaltic Andesite","Subduction zone / Continental crust (>25 km)","Holocene",42.9956792298252,-93.0838598102807,245.37188720929,"alu"
"38",312040,"Pavlof Sister","United States","Stratovolcano","Evidence Credible","Unknown","Alaska","Alaska Peninsula",55.457,-161.854,2142,"Basalt / Picro-Basalt","Subduction zone / Continental crust (>25 km)","Holocene",43.3494529820803,-95.0075226332733,245.727615357788,"alu"
"39",312050,"Dana","United States","Stratovolcano","Eruption Dated","1890 BCE","Alaska","Alaska Peninsula",55.641,-161.214,1354,"Andesite / Basaltic Andesite","Subduction zone / Continental crust (>25 km)","Holocene",43.4400240686299,-97.264906190392,245.605638292796,"alu"
"40",312051,"Stepovak Bay 2","United States","Pyroclastic cone","Evidence Credible","Unknown","Alaska","Alaska Peninsula",55.913,-160.041,1323,"Andesite / Basaltic Andesite","Subduction zone / Continental crust (>25 km)","Holocene",46.0779872591614,-94.5230077599796,239.773103497021,"alu"
"41",312052,"Stepovak Bay 3","United States","Pyroclastic cone","Evidence Uncertain","Unknown","Alaska","Alaska Peninsula",55.929,-160.002,1555,"Andesite / Basaltic Andesite","Subduction zone / Continental crust (>25 km)","Holocene",46.2489318969542,-95.0943425980708,239.47060139466,"alu"
"42",312053,"Stepovak Bay 4","United States","Stratovolcano","Evidence Credible","Unknown","Alaska","Alaska Peninsula",55.954,-159.954,1557,"No Data (checked)","Subduction zone / Continental crust (>25 km)","Holocene",46.2753791919476,-95.0750580330576,239.092025750717,"alu"
"43",312060,"Kupreanof","United States","Stratovolcano","Eruption Observed","1987 CE","Alaska","Alaska Peninsula",56.011,-159.797,1895,"Andesite / Basaltic Andesite","Subduction zone / Continental crust (>25 km)","Holocene",46.5553639838231,-96.5940653961763,237.581939687124,"alu"
"44",312070,"Veniaminof","United States","Stratovolcano","Eruption Observed","2018 CE","Alaska","Alaska Peninsula",56.17,-159.38,2507,"Andesite / Basaltic Andesite","Subduction zone / Continental crust (>25 km)","Holocene",46.5970726128378,-94.5033010219678,227.759899540287,"alu"
"45",312080,"Black Peak","United States","Stratovolcano","Eruption Dated","1900 BCE","Alaska","Alaska Peninsula",56.552,-158.785,1032,"Andesite / Basaltic Andesite","Subduction zone / Continental crust (>25 km)","Holocene",45.3400357580119,-93.0280304194451,216.910232544859,"alu"
"46",312090,"Aniakchak","United States","Caldera","Eruption Observed","1931 CE","Alaska","Alaska Peninsula",56.88,-158.17,1341,"Andesite / Basaltic Andesite","Subduction zone / Continental crust (>25 km)","Holocene",37.2613093107586,-90.0094231756976,226.62508477369,"alu"
"47",312100,"Yantarni","United States","Stratovolcano","Eruption Dated","800 BCE","Alaska","Alaska Peninsula",57.019,-157.185,1345,"Andesite / Basaltic Andesite","Subduction zone / Continental crust (>25 km)","Holocene",31.0269773362257,-71.6449992087244,229.337773645873,"alu"
"48",312110,"Chiginagak","United States","Stratovolcano","Eruption Observed","1998 CE","Alaska","Alaska Peninsula",57.135,-156.99,2221,"Andesite / Basaltic Andesite","Subduction zone / Continental crust (>25 km)","Holocene",32.0908432103089,-72.9599906312866,230.662085647042,"alu"
"49",312120,"Kialagvik","United States","Stratovolcano","Evidence Credible","Unknown","Alaska","Alaska Peninsula",57.203,-156.745,1677,"Andesite / Basaltic Andesite","Subduction zone / Continental crust (>25 km)","Holocene",31.9995231725803,-71.0438080088942,231.648178104841,"alu"
"50",312130,"Ugashik-Peulik","United States","Stratovolcano","Eruption Observed","1814 CE","Alaska","Alaska Peninsula",57.751,-156.368,1474,"Andesite / Basaltic Andesite","Subduction zone / Continental crust (>25 km)","Holocene",40.2555262339615,-94.3184560424205,225.161437977506,"alu"
"51",312131,"Ukinrek Maars","United States","Maar(s)","Eruption Observed","1977 CE","Alaska","Alaska Peninsula",57.832,-156.51,91,"Basalt / Picro-Basalt","Subduction zone / Continental crust (>25 km)","Holocene",42.3331421831873,-105.623479238634,226.485136233477,"alu"
"52",312132,"Unnamed","United States","Lava dome","Evidence Credible","Unknown","Alaska","Alaska Peninsula",57.87,-155.411,402,"No Data (checked)","Subduction zone / Continental crust (>25 km)","Holocene",32.3869908740502,-70.0058212482702,223.884506225303,"alu"
"53",312140,"Martin","United States","Stratovolcano","Eruption Dated","1953 CE","Alaska","Alaska Peninsula",58.172,-155.361,1863,"Dacite","Subduction zone / Continental crust (>25 km)","Holocene",37.6326247398014,-84.7207692705208,223.213745112695,"alu"
"54",312150,"Mageik","United States","Stratovolcano","Eruption Dated","500 BCE","Alaska","Alaska Peninsula",58.195,-155.253,2165,"Andesite / Basaltic Andesite","Subduction zone / Continental crust (>25 km)","Holocene",37.5095634542987,-82.7816238637175,222.121398919462,"alu"
"55",312160,"Trident","United States","Stratovolcano","Eruption Observed","1974 CE","Alaska","Alaska Peninsula",58.236,-155.1,1864,"Andesite / Basaltic Andesite","Subduction zone / Continental crust (>25 km)","Holocene",37.2594591863318,-79.6143697314201,220.424942010321,"alu"
"56",312170,"Katmai","United States","Stratovolcano","Eruption Observed","1912 CE","Alaska","Alaska Peninsula",58.28,-154.963,2047,"Andesite / Basaltic Andesite","Subduction zone / Continental crust (>25 km)","Holocene",37.2498508112098,-77.7468855314579,218.97107780721,"alu"
"57",312180,"Novarupta","United States","Caldera","Eruption Observed","1912 CE","Alaska","Alaska Peninsula",58.27,-155.157,841,"Rhyolite","Subduction zone / Continental crust (>25 km)","Holocene",38.1185836875431,-83.1953481262721,220.787943515527,"alu"
"58",312190,"Griggs","United States","Stratovolcano","Eruption Dated","1790 BCE","Alaska","Alaska Peninsula",58.354,-155.092,2317,"Andesite / Basaltic Andesite","Subduction zone / Continental crust (>25 km)","Holocene",39.2596817096844,-86.2065582503475,219.857864373216,"alu"
"59",312200,"Snowy Mountain","United States","Stratovolcano(es)","Eruption Dated","1710 CE","Alaska","Alaska Peninsula",58.336,-154.682,2162,"Andesite / Basaltic Andesite","Subduction zone / Continental crust (>25 km)","Holocene",35.1215349898288,-70.6859012352392,217.491302485505,"alu"
"60",312210,"Denison","United States","Stratovolcano","Evidence Uncertain","Unknown","Alaska","Alaska Peninsula",58.418,-154.449,2287,"Andesite / Basaltic Andesite","Subduction zone / Continental crust (>25 km)","Holocene",33.2577997907167,-67.0979309239281,216.556981396564,"alu"
"61",312220,"Steller","United States","Stratovolcano","Evidence Credible","Unknown","Alaska","Alaska Peninsula",58.43,-154.4,2272,"Andesite / Basaltic Andesite","Subduction zone / Continental crust (>25 km)","Holocene",32.8259506292349,-66.2901408028034,216.253199250568,"alu"
"62",312230,"Kukak","United States","Stratovolcano","Unrest / Holocene","Unknown","Alaska","Alaska Peninsula",58.453,-154.355,2043,"Andesite / Basaltic Andesite","Subduction zone / Continental crust (>25 km)","Holocene",32.4140281745154,-65.478805556893,215.881088247263,"alu"
"63",312250,"Kaguyak","United States","Lava dome(s)","Eruption Dated","3850 BCE","Alaska","Alaska Peninsula",58.608,-154.028,901,"Dacite","Subduction zone / Continental crust (>25 km)","Holocene",31.2386563695299,-61.8154665742612,211.888244621181,"alu"
"64",312260,"Fourpeaked","United States","Stratovolcano","Eruption Observed","2006 CE","Alaska","Alaska Peninsula",58.77,-153.672,2105,"Andesite / Basaltic Andesite","Subduction zone / Continental crust (>25 km)","Holocene",29.4204497932333,-56.5693863850499,209.534396702646,"alu"
"65",312270,"Douglas","United States","Stratovolcano","Evidence Credible","Unknown","Alaska","Alaska Peninsula",58.855,-153.542,2140,"Andesite / Basaltic Andesite","Subduction zone / Continental crust (>25 km)","Holocene",29.1492233339054,-55.8520736789726,209.891952519149,"alu"
"66",313010,"Augustine","United States","Lava dome(s)","Eruption Observed","2006 CE","Alaska","Alaska (southwestern)",59.363,-153.43,1252,"Andesite / Basaltic Andesite","Subduction zone / Continental crust (>25 km)","Holocene",38.0588641774909,-72.5091637674571,214.123938668249,"alu"
"67",313020,"Iliamna","United States","Stratovolcano","Eruption Observed","1876 CE","Alaska","Alaska (southwestern)",60.032,-153.09,3053,"Andesite / Basaltic Andesite","Subduction zone / Continental crust (>25 km)","Holocene",47.7032191039604,-91.7853359750291,203.948496484688,"alu"
"68",313030,"Redoubt","United States","Stratovolcano","Eruption Observed","2009 CE","Alaska","Alaska (southwestern)",60.485,-152.742,3108,"Andesite / Basaltic Andesite","Subduction zone / Continental crust (>25 km)","Holocene",50.0301017767473,-90.215810138915,195.110417678244,"alu"
"69",313040,"Spurr","United States","Stratovolcano","Eruption Observed","1992 CE","Alaska","Alaska (southwestern)",61.299,-152.251,3374,"Andesite / Basaltic Andesite","Subduction zone / Continental crust (>25 km)","Holocene",47.0811080907095,-84.4514770475266,192.899688720585,"alu"
"70",313050,"Hayes","United States","Stratovolcano","Eruption Dated","1200 CE","Alaska","Alaska (southwestern)",61.64,-152.411,3034,"Dacite","Subduction zone / Continental crust (>25 km)","Holocene",53.1815465249722,-104.437772108954,191.927341038524,"alu"
"71",314010,"St. Paul Island","United States","Shield","Eruption Dated","1280 BCE","Alaska","Alaska (western)",57.18,-170.3,203,"Trachybasalt / Tephrite Basanite","Intraplate / Continental crust (>25 km)","Holocene",NA,NA,NA,"alu"
"72",314030,"Ingakslugwat Hills","United States","Pyroclastic cone(s)","Evidence Credible","Unknown","Alaska","Alaska (western)",61.43,-164.47,190,"Basalt / Picro-Basalt","Intraplate / Continental crust (>25 km)","Holocene",NA,NA,NA,"alu"
"73",314040,"St. Michael","United States","Shield(s)","Evidence Credible","Unknown","Alaska","Alaska (western)",63.45,-162.12,715,"Basalt / Picro-Basalt","Intraplate / Continental crust (>25 km)","Holocene",NA,NA,NA,"alu"
"74",314060,"Imuruk Lake","United States","Shield(s)","Eruption Dated","300 CE","Alaska","Alaska (western)",65.517,-163.45,610,"Basalt / Picro-Basalt","Intraplate / Continental crust (>25 km)","Holocene",NA,NA,NA,"alu"
"75",315001,"Buzzard Creek","United States","Tuff ring(s)","Eruption Dated","1050 BCE","Alaska","Alaska (eastern)",64.062,-148.433,830,"Basalt / Picro-Basalt","Subduction zone / Continental crust (>25 km)","Holocene",42.8581814318211,-109.356088453882,218.887276527827,"alu"
"76",315020,"Wrangell","United States","Shield","Eruption Observed","1912 CE","Alaska","Alaska (eastern)",62.006,-144.017,4278,"Andesite / Basaltic Andesite","Intraplate / Continental crust (>25 km)","Holocene",18.718849181439,-45.1476021050343,292.157908134035,"alu"
"77",315030,"Churchill","United States","Stratovolcano","Eruption Dated","847 CE","Alaska","Alaska (eastern)",61.38,-141.75,5005,"Dacite","Intraplate / Continental crust (>25 km)","Holocene",8.23090966870111,-13.4094743822286,262.056233725736,"alu"
"78",315040,"Edgecumbe","United States","Stratovolcano(es)","Eruption Dated","2220 BCE","Alaska","Alaska (eastern)",57.05,-135.75,970,"Andesite / Basaltic Andesite","Intraplate / Continental crust (>25 km)","Holocene",NA,NA,NA,"alu"
"79",315050,"Duncan Canal","United States","Volcanic field","Evidence Credible","Unknown","Alaska","Alaska (eastern)",56.5,-133.1,15,"Basalt / Picro-Basalt","Subduction zone / Continental crust (>25 km)","Holocene",NA,NA,NA,"alu"
"80",315060,"Tlevak Strait-Suemez Is.","United States","Volcanic field","Evidence Credible","Unknown","Alaska","Alaska (eastern)",55.25,-133.3,50,"Basalt / Picro-Basalt","Subduction zone / Continental crust (>25 km)","Holocene",NA,NA,NA,"alu"
"81",320010,"Fort Selkirk","Canada","Volcanic field","Evidence Uncertain","Unknown","Canada and Western USA","Canada",62.93,-137.38,1239,"Trachybasalt / Tephrite Basanite","Intraplate / Continental crust (>25 km)","Holocene",NA,NA,NA,"alu"
"82",320020,"Alligator Lake","Canada","Volcanic field","Evidence Credible","Unknown","Canada and Western USA","Canada",60.42,-135.42,2217,"Basalt / Picro-Basalt","Intraplate / Continental crust (>25 km)","Holocene",NA,NA,NA,"alu"
"83",320030,"Atlin Volcanic Field","Canada","Pyroclastic cone(s)","Evidence Credible","Unknown","Canada and Western USA","Canada",59.68,-133.32,1880,"Trachybasalt / Tephrite Basanite","Intraplate / Continental crust (>25 km)","Holocene",NA,NA,NA,"alu"
"84",311150,"Sergief","United States","Stratovolcano",NA,NA,"Alaska","Aleutian Islands",52.05,-174.95,560,NA,"Subduction zone / Intermediate crust (15-25 km)","Pleistocene",50.3430404888554,-73.1882782805401,268.713989255865,"alu"
"85",311800,"Adagdak","United States","Stratovolcano",NA,NA,"Alaska","Aleutian Islands",51.988,-176.592,610,NA,"Subduction zone / Intermediate crust (15-25 km)","Pleistocene",55.2090225472259,-83.1469015370253,261.895996090438,"alu"
"86",311801,"Table Top","United States","Pyroclastic cone",NA,NA,"Alaska","Aleutian Islands",53.967,-166.679,792,NA,"Subduction zone / Intermediate crust (15-25 km)","Pleistocene",46.4919132768083,-86.8704580148049,238.213916356717,"alu"
"87",311802,"Wide Bay","United States","Pyroclastic cone",NA,NA,"Alaska","Aleutian Islands",53.961,-166.615,640,NA,"Subduction zone / Continental crust (>25 km)","Pleistocene",45.771589078877,-84.4943271680681,238.585457697201,"alu"
"88",311803,"Gilbert","United States","Stratovolcano",NA,NA,"Alaska","Aleutian Islands",54.25,-165.65,818,NA,"Subduction zone / Intermediate crust (15-25 km)","Pleistocene",43.3281288264913,-81.9004974862641,245.339126590495,"alu"
"89",312801,"Trader Mountain","United States","Stratovolcano",NA,NA,"Alaska","Alaska Peninsula",55.565,-161.944,775,NA,"Subduction zone / Continental crust (>25 km)","Pleistocene",46.0773073896165,-109.346641594269,244.843170168562,"alu"
"90",312802,"Stepovak Bay 1","United States","Stratovolcano",NA,NA,"Alaska","Alaska Peninsula",55.868,-160.096,1320,NA,"Subduction zone / Continental crust (>25 km)","Pleistocene",45.2628695301092,-91.7074814327273,240.431482946694,"alu"
"91",312803,"Blue Mountain","United States","Lava dome(s)",NA,NA,"Alaska","Alaska Peninsula",57.72,-157.83,541,NA,"Subduction zone / Continental crust (>25 km)","Pleistocene",47.7903035549884,-142.563752962672,233.604765156856,"alu"
"92",312804,"Gertrude Creek","United States","Pyroclastic cone",NA,NA,"Alaska","Alaska Peninsula",58.034,-156.146,437,NA,"Subduction zone / Continental crust (>25 km)","Pleistocene",43.8347396917551,-105.214269029886,221.283259070984,"alu"
"93",312805,"Devils Desk","United States","Stratovolcano",NA,NA,"Alaska","Alaska Peninsula",58.474,-154.306,1955,NA,"Subduction zone / Continental crust (>25 km)","Pleistocene",32.0215187144377,-64.6765467467536,215.441365549695,"alu"
"94",312806,"Savonovski River Cluster","United States","Stratovolcano(es)",NA,NA,"Alaska","Alaska Peninsula",58.55,-154.5,1298,NA,"Subduction zone / Continental crust (>25 km)","Pleistocene",36.5173950254252,-74.7885666059809,215.035263053362,"alu"
"95",313800,"Double Glacier","United States","Lava dome(s)",NA,NA,"Alaska","Alaska (southwestern)",60.68,-152.62,1239,NA,"Subduction zone / Continental crust (>25 km)","Pleistocene",49.4725545230894,-88.4181382888351,193.843992442787,"alu"
"96",314020,"Nunivak Island","United States","Shield",NA,NA,"Alaska","Alaska (western)",60.02,-166.33,511,NA,"Intraplate / Continental crust (>25 km)","Pleistocene",NA,NA,NA,"alu"
"97",314050,"Kookooligit Mountains","United States","Shield",NA,NA,"Alaska","Alaska (western)",63.6,-170.43,673,NA,"Intraplate / Continental crust (>25 km)","Pleistocene",NA,NA,NA,"alu"
"98",314800,"St. George","United States","Volcanic field",NA,NA,"Alaska","Alaska (western)",56.58,-169.58,288,NA,"Intraplate / Continental crust (>25 km)","Pleistocene",NA,NA,NA,"alu"
"99",314801,"Otter Island","United States","Unknown",NA,NA,"Alaska","Alaska (western)",57.05,-170.4,87,NA,"Intraplate / Continental crust (>25 km)","Pleistocene",NA,NA,NA,"alu"
"100",314802,"Walrus Island","United States","Unknown",NA,NA,"Alaska","Alaska (western)",57.18,-169.93,0,NA,"Intraplate / Continental crust (>25 km)","Pleistocene",NA,NA,NA,"alu"
"101",314803,"Togiak Valley","United States","Volcanic field",NA,NA,"Alaska","Alaska (western)",59.2,-160.08,300,NA,"Intraplate / Continental crust (>25 km)","Pleistocene",NA,NA,NA,"alu"
"102",314804,"Ingrichuak Hills","United States","Pyroclastic cone(s)",NA,NA,"Alaska","Alaska (western)",62.22,-164.3,188,NA,"Intraplate / Continental crust (>25 km)","Pleistocene",NA,NA,NA,"alu"
"103",314805,"Selawik Hills","United States","Pyroclastic cone(s)",NA,NA,"Alaska","Alaska (western)",66.033,-160.067,365,NA,"Intraplate / Continental crust (>25 km)","Pleistocene",NA,NA,NA,"alu"
"104",314806,"Espenberg","United States","Volcanic field",NA,NA,"Alaska","Alaska (western)",66.35,-164.33,243,NA,"Intraplate / Continental crust (>25 km)","Pleistocene",NA,NA,NA,"alu"
"105",315010,"Sanford","United States","Shield",NA,NA,"Alaska","Alaska (eastern)",62.213,-144.13,4959,NA,"Intraplate / Continental crust (>25 km)","Pleistocene",18.5115638266801,-51.0168024914445,309.547217489944,"alu"
"106",315021,"Gordon","United States","Pyroclastic cone(s)",NA,NA,"Alaska","Alaska (eastern)",62.13,-143.08,2755,NA,"Subduction zone / Continental crust (>25 km)","Pleistocene",22.5677666133711,-44.6997507020528,223.076449897082,"alu"
"107",315800,"Prindle","United States","Pyroclastic cone",NA,NA,"Alaska","Alaska (eastern)",63.716,-141.634,1245,NA,"Intraplate / Continental crust (>25 km)","Pleistocene",NA,NA,NA,"alu"
"108",315801,"Capital","United States","Shield",NA,NA,"Alaska","Alaska (eastern)",62.43,-144.12,2356,NA,"Subduction zone / Continental crust (>25 km)","Pleistocene",17.3434995003552,-56.2535972628107,319.03624132424,"alu"
"109",315802,"Jumbo Dome","United States","Lava dome",NA,NA,"Alaska","Alaska (eastern)",63.966,-148.685,1369,NA,"Intraplate / Continental crust (>25 km)","Pleistocene",43.5914552580912,-111.240901555163,222.45863171426,"alu"
"110",315803,"Drum","United States","Stratovolcano",NA,NA,"Alaska","Alaska (eastern)",62.12,-144.63,3661,NA,"Intraplate / Continental crust (>25 km)","Pleistocene",16.8838331498797,-42.5375756346931,314.072757316967,"alu"
"111",315804,"Tanada","United States","Shield",NA,NA,"Alaska","Alaska (eastern)",62.3,-143.52,2816,NA,"Subduction zone / Continental crust (>25 km)","Pleistocene",NA,NA,NA,"alu"
"112",315805,"Jarvis","United States","Stratovolcano",NA,NA,"Alaska","Alaska (eastern)",62.024,-143.619,4112,NA,"Subduction zone / Continental crust (>25 km)","Pleistocene",19.1828719200877,-46.5461171685808,257.498314709333,"alu"
"113",315808,"Basalt Knob","United States","Cone",NA,NA,"Alaska","Alaska (eastern)",58.03,-136.33,100,NA,"Intraplate / Continental crust (>25 km)","Pleistocene",NA,NA,NA,"alu"
"114",315809,"Skookum Creek","United States","Lava dome(s)",NA,NA,"Alaska","Alaska (eastern)",62.4,-143.147,2172,NA,"Intraplate / Continental crust (>25 km)","Pleistocene",NA,NA,NA,"alu"
"115",211003,"Vulsini","Italy","Caldera","Eruption Observed","104 BCE","Mediterranean and Western Asia","Italy",42.6,11.93,800,"Trachyte / Trachydacite","Subduction zone / Continental crust (>25 km)","Holocene",NA,NA,NA,"cal"
"116",211004,"Colli Albani","Italy","Caldera","Evidence Uncertain","Unknown","Mediterranean and Western Asia","Italy",41.73,12.7,949,"Foidite","Subduction zone / Continental crust (>25 km)","Holocene",NA,NA,NA,"cal"
"117",211010,"Campi Flegrei","Italy","Caldera","Eruption Observed","1538 CE","Mediterranean and Western Asia","Italy",40.827,14.139,458,"Trachyte / Trachydacite","Subduction zone / Continental crust (>25 km)","Holocene",51.9720925395108,-308.781504218907,140.64867315315,"cal"
"118",211020,"Vesuvius","Italy","Stratovolcano","Eruption Observed","1944 CE","Mediterranean and Western Asia","Italy",40.821,14.426,1281,"Phono-tephrite /  Tephri-phonolite","Subduction zone / Continental crust (>25 km)","Holocene",55.3598925537097,-285.157395994688,135.840886429272,"cal"
"119",211030,"Ischia","Italy","Complex","Eruption Observed","1302 CE","Mediterranean and Western Asia","Italy",40.73,13.897,789,"Trachyte / Trachydacite","Subduction zone / Continental crust (>25 km)","Holocene",49.2056961126123,-335.746429360318,145.082931508426,"cal"
"120",211031,"Palinuro","Italy","Submarine","Eruption Dated","8040 BCE","Mediterranean and Western Asia","Italy",39.48,14.83,-70,"Phonolite","Subduction zone / Continental crust (>25 km)","Holocene",47.6472676594307,-299.54571869597,195.878935053322,"cal"
"121",211040,"Stromboli","Italy","Stratovolcano","Eruption Observed","2019 CE","Mediterranean and Western Asia","Italy",38.789,15.213,924,"Trachyandesite / Basaltic Trachyandesite","Subduction zone / Continental crust (>25 km)","Holocene",67.8634779195647,-181.336856453729,225.651814730022,"cal"
"122",211041,"Panarea","Italy","Stratovolcano","Evidence Uncertain","Unknown","Mediterranean and Western Asia","Italy",38.638,15.064,399,"Andesite / Basaltic Andesite","Subduction zone / Continental crust (>25 km)","Holocene",68.0970577645174,-168.803721183344,237.218304072086,"cal"
"123",211042,"Lipari","Italy","Stratovolcano(es)","Eruption Dated","1230 CE","Mediterranean and Western Asia","Italy",38.49,14.933,590,"Rhyolite","Subduction zone / Continental crust (>25 km)","Holocene",68.3905580319245,-146.339267402446,244.029919071314,"cal"
"124",211050,"Vulcano","Italy","Stratovolcano(es)","Eruption Observed","1890 CE","Mediterranean and Western Asia","Italy",38.404,14.962,500,"Trachybasalt / Tephrite Basanite","Subduction zone / Continental crust (>25 km)","Holocene",67.7829895051568,-122.287155245727,244.463144916274,"cal"
"125",211060,"Etna","Italy","Stratovolcano(es)","Eruption Observed","2019 CE","Mediterranean and Western Asia","Italy",37.748,14.999,3295,"Trachybasalt / Tephrite Basanite","Subduction zone / Continental crust (>25 km)","Holocene",21.2152519500711,-28.8290519946313,260.858398374534,"cal"
"126",211070,"Campi Flegrei del Mar di Sicilia","Italy","Submarine","Eruption Observed","1867 CE","Mediterranean and Western Asia","Italy",37.1,12.7,-8,"Trachybasalt / Tephrite Basanite","Rift zone / Continental crust (>25 km)","Holocene",NA,NA,NA,"cal"
"127",211071,"Pantelleria","Italy","Shield","Eruption Observed","1891 CE","Mediterranean and Western Asia","Italy",36.77,12.02,836,"Rhyolite","Rift zone / Continental crust (>25 km)","Holocene",NA,NA,NA,"cal"
"128",211080,"Marsili","Italy","Submarine","Eruption Dated","1050 BCE","Mediterranean and Western Asia","Italy",39.284,14.399,-779,"","","Holocene",44.8915049107506,-326.080200189096,209.605626386184,"cal"
"129",212020,"Methana","Greece","Lava dome(s)","Eruption Observed","258 BCE","Mediterranean and Western Asia","Greece",37.615,23.336,760,"Andesite / Basaltic Andesite","Subduction zone / Continental crust (>25 km)","Holocene",NA,NA,NA,"cal"
"130",212030,"Milos","Greece","Stratovolcano(es)","Eruption Dated","140 CE","Mediterranean and Western Asia","Greece",36.699,24.439,751,"Rhyolite","Subduction zone / Continental crust (>25 km)","Holocene",NA,NA,NA,"cal"
"131",210803,"Apuseni Mountains","Romania","Volcanic field",NA,NA,"Mediterranean and Western Asia","Western Europe",45.93,22.88,353,NA,"Intraplate / Continental crust (>25 km)","Pleistocene",NA,NA,NA,"cal"
"132",210804,"Lucaret Basalts","Romania","Fissure vent",NA,NA,"Mediterranean and Western Asia","Western Europe",45.826,21.69,190,NA,"Intraplate / Continental crust (>25 km)","Pleistocene",NA,NA,NA,"cal"
"133",211800,"Amiata","Italy","Lava dome(s)",NA,NA,"Mediterranean and Western Asia","Italy",42.9,11.63,1738,NA,"Subduction zone / Continental crust (>25 km)","Pleistocene",NA,NA,NA,"cal"
"134",211801,"Radicofani","Italy","Volcanic remnant",NA,NA,"Mediterranean and Western Asia","Italy",42.87,11.77,0,NA,"Subduction zone / Continental crust (>25 km)","Pleistocene",NA,NA,NA,"cal"
"135",211802,"Torre Alfina","Italy","Volcanic remnant",NA,NA,"Mediterranean and Western Asia","Italy",42.78,11.92,0,NA,"Subduction zone / Continental crust (>25 km)","Pleistocene",NA,NA,NA,"cal"
"136",211803,"San Venanzo","Italy","Maar",NA,NA,"Mediterranean and Western Asia","Italy",42.85,12.28,466,NA,"Subduction zone / Continental crust (>25 km)","Pleistocene",NA,NA,NA,"cal"
"137",211804,"Acquasparta","Italy","Volcanic field",NA,NA,"Mediterranean and Western Asia","Italy",42.65,12.3,0,NA,"Subduction zone / Continental crust (>25 km)","Pleistocene",NA,NA,NA,"cal"
"138",211805,"Polino","Italy","Explosion crater(s)",NA,NA,"Mediterranean and Western Asia","Italy",42.57,12.82,0,NA,"Subduction zone / Continental crust (>25 km)","Pleistocene",NA,NA,NA,"cal"
"139",211806,"Cupaello","Italy","Pyroclastic cone",NA,NA,"Mediterranean and Western Asia","Italy",42.43,12.93,650,NA,"Subduction zone / Continental crust (>25 km)","Pleistocene",NA,NA,NA,"cal"
"140",211807,"Oricola-Carsoli","Italy","Pyroclastic cone(s)",NA,NA,"Mediterranean and Western Asia","Italy",42.15,13.08,0,NA,"Subduction zone / Continental crust (>25 km)","Pleistocene",NA,NA,NA,"cal"
"141",211808,"Vico-Cimino Complex","Italy","Stratovolcano(es)",NA,NA,"Mediterranean and Western Asia","Italy",42.367,12.188,1053,NA,"Subduction zone / Continental crust (>25 km)","Pleistocene",NA,NA,NA,"cal"
"142",211809,"Sabatini Complex","Italy","Stratovolcano(es)",NA,NA,"Mediterranean and Western Asia","Italy",42.17,12.22,612,NA,"Unknown","Pleistocene",NA,NA,NA,"cal"
"143",211810,"Ernici, Monti","Italy","Volcanic field",NA,NA,"Mediterranean and Western Asia","Italy",41.58,13.33,0,NA,"Subduction zone / Continental crust (>25 km)","Pleistocene",NA,NA,NA,"cal"
"144",211811,"Roccamonfina","Italy","Stratovolcano",NA,NA,"Mediterranean and Western Asia","Italy",41.3,13.93,1066,NA,"Subduction zone / Continental crust (>25 km)","Pleistocene",NA,NA,NA,"cal"
"145",211812,"Vulture, Monte","Italy","Stratovolcano",NA,NA,"Mediterranean and Western Asia","Italy",40.92,15.67,1330,NA,"Subduction zone / Continental crust (>25 km)","Pleistocene",NA,NA,NA,"cal"
"146",211813,"Ventotene","Italy","Stratovolcano(es)",NA,NA,"Mediterranean and Western Asia","Italy",40.8,13.42,139,NA,"Subduction zone / Continental crust (>25 km)","Pleistocene",52.611484530062,-374.972442539565,154.392542516678,"cal"
"147",211814,"Pontine Islands","Italy","Lava dome(s)",NA,NA,"Mediterranean and Western Asia","Italy",40.9,12.95,283,NA,"Subduction zone / Continental crust (>25 km)","Pleistocene",46.5341453670211,-410.076538008308,144.819061282695,"cal"
"148",211815,"Logudoro","Italy","Volcanic field",NA,NA,"Mediterranean and Western Asia","Italy",40.58,8.67,0,NA,"Unknown","Pleistocene",NA,NA,NA,"cal"
"149",211816,"Salina","Italy","Stratovolcano(es)",NA,NA,"Mediterranean and Western Asia","Italy",38.58,14.85,962,NA,"Subduction zone / Continental crust (>25 km)","Pleistocene",68.0011545775642,-179.483683361254,243.991246516632,"cal"
"150",211817,"Filicudi","Italy","Stratovolcano(es)",NA,NA,"Mediterranean and Western Asia","Italy",38.58,14.55,773,NA,"Subduction zone / Continental crust (>25 km)","Pleistocene",68.8564198713612,-205.687011829535,248.065322848646,"cal"
"151",211818,"Alicudi","Italy","Stratovolcano",NA,NA,"Mediterranean and Western Asia","Italy",38.55,14.33,675,NA,"Subduction zone / Continental crust (>25 km)","Pleistocene",70.4224827962864,-213.969411339074,251.405019096556,"cal"
"152",211819,"Ustica","Italy","Stratovolcano(es)",NA,NA,"Mediterranean and Western Asia","Italy",38.72,13.18,248,NA,"Subduction zone / Continental crust (>25 km)","Pleistocene",65.474164316972,-324.306939160322,271.267581502728,"cal"
"153",211820,"Iblei","Italy","Shield?",NA,NA,"Mediterranean and Western Asia","Italy",37.117,14.821,825,NA,"Subduction zone / Continental crust (>25 km)","Pleistocene",10.2665749745207,-11.2062187336747,315.077501038551,"cal"
"154",211821,"Linosa","Italy","Pyroclastic cone(s)",NA,NA,"Mediterranean and Western Asia","Italy",35.87,12.87,195,NA,"Rift zone / Continental crust (>25 km)","Pleistocene",NA,NA,NA,"cal"
"155",211822,"Gaeta Bay Volcanic Field","Italy","Submarine",NA,NA,"Mediterranean and Western Asia","Italy",40.978,13.663,0,NA,"Subduction zone / Continental crust (>25 km)","Pleistocene",52.9370375784722,-338.155354727004,150.918490929179,"cal"
"156",212800,"Sporades","Greece","Lava dome",NA,NA,"Mediterranean and Western Asia","Greece",39.5,24.18,0,NA,"Subduction zone / Continental crust (>25 km)","Pleistocene",NA,NA,NA,"cal"
"157",212801,"Volos-Atalanti","Greece","Volcanic field",NA,NA,"Mediterranean and Western Asia","Greece",39.033,22.8,900,NA,"Subduction zone / Continental crust (>25 km)","Pleistocene",NA,NA,NA,"cal"
"158",212802,"Aegina","Greece","Volcanic field",NA,NA,"Mediterranean and Western Asia","Greece",37.75,23.5,530,NA,"Subduction zone / Continental crust (>25 km)","Pleistocene",NA,NA,NA,"cal"
"159",212803,"Poros","Greece","Fissure vent",NA,NA,"Mediterranean and Western Asia","Greece",37.48,23.43,80,NA,"Subduction zone / Continental crust (>25 km)","Pleistocene",NA,NA,NA,"cal"
"160",225806,"Gharyan Volcanic Field","Libya","Stratovolcano(es)",NA,NA,"Africa and Red Sea","Africa (northern)",32,13.25,850,NA,"Intraplate / Continental crust (>25 km)","Pleistocene",NA,NA,NA,"cal"
"161",334020,"Northern EPR at 17°N","Undersea Features","Submarine","Eruption Dated","50 BCE","Hawaii and Pacific Ocean","Pacific Ocean (eastern)",16.55,-105.32,-2700,"Basalt / Picro-Basalt","Rift zone / Oceanic crust (< 15 km)","Holocene",NA,NA,NA,"cam"
"162",334021,"Northern EPR at 16°N","Undersea Features","Submarine","Eruption Dated","50 BCE","Hawaii and Pacific Ocean","Pacific Ocean (eastern)",15.83,-105.43,-2300,"Basalt / Picro-Basalt","Rift zone / Oceanic crust (< 15 km)","Holocene",NA,NA,NA,"cam"
"163",334040,"Northern EPR at 10.7°N","Undersea Features","Submarine","Eruption Observed","2003 CE","Hawaii and Pacific Ocean","Pacific Ocean (eastern)",10.73,-103.58,-2900,"Basalt / Picro-Basalt","Intraplate / Oceanic crust (< 15 km)","Holocene",NA,NA,NA,"cam"
"164",334050,"Northern EPR at 9.8°N","Undersea Features","Submarine","Eruption Observed","2006 CE","Hawaii and Pacific Ocean","Pacific Ocean (eastern)",9.83,-104.3,-2500,"Basalt / Picro-Basalt","Rift zone / Oceanic crust (< 15 km)","Holocene",NA,NA,NA,"cam"
"165",341011,"Tortuga, Isla","Mexico","Shield","Evidence Credible","Unknown","México and Central America","Mexico",27.438,-111.881,224,"Basalt / Picro-Basalt","Rift zone / Continental crust (>25 km)","Holocene",NA,NA,NA,"cam"
"166",341012,"Comondu-La Purisima","Mexico","Volcanic field","Evidence Uncertain","Unknown","México and Central America","Mexico",26,-111.92,780,"Trachyandesite / Basaltic Trachyandesite","Rift zone / Continental crust (>25 km)","Holocene",NA,NA,NA,"cam"
"167",341020,"Barcena","Mexico","Pyroclastic cone(s)","Eruption Observed","1953 CE","México and Central America","Mexico",19.3,-110.82,332,"Trachyte / Trachydacite","Rift zone / Oceanic crust (< 15 km)","Holocene",NA,NA,NA,"cam"
"168",341021,"Socorro","Mexico","Shield","Eruption Observed","1994 CE","México and Central America","Mexico",18.78,-110.95,1050,"Trachyte / Trachydacite","Rift zone / Oceanic crust (< 15 km)","Holocene",NA,NA,NA,"cam"
"169",341022,"Durango Volcanic Field","Mexico","Pyroclastic cone(s)","Evidence Credible","Unknown","México and Central America","Mexico",24.15,-104.45,2075,"Trachybasalt / Tephrite Basanite","Subduction zone / Continental crust (>25 km)","Holocene",NA,NA,NA,"cam"
"170",341023,"Isabel, Isla","Mexico","Tuff cone(s)","Evidence Uncertain","Unknown","México and Central America","Mexico",21.848,-105.886,95,"Basalt / Picro-Basalt","Subduction zone / Continental crust (>25 km)","Holocene",NA,NA,NA,"cam"
"171",341024,"Sanganguey","Mexico","Stratovolcano","Evidence Credible","Unknown","México and Central America","Mexico",21.45,-104.73,2340,"Andesite / Basaltic Andesite","Subduction zone / Continental crust (>25 km)","Holocene",NA,NA,NA,"cam"
"172",341030,"Ceboruco","Mexico","Stratovolcano","Eruption Observed","1875 CE","México and Central America","Mexico",21.125,-104.508,2280,"Andesite / Basaltic Andesite","Subduction zone / Continental crust (>25 km)","Holocene",NA,NA,NA,"cam"
"173",341031,"Mascota Volcanic Field","Mexico","Pyroclastic cone(s)","Evidence Credible","Unknown","México and Central America","Mexico",20.62,-104.83,2560,"Andesite / Basaltic Andesite","Subduction zone / Continental crust (>25 km)","Holocene",26.9121786992937,-61.5744027367004,331.409159320725,"cam"
"174",341040,"Colima","Mexico","Stratovolcano(es)","Eruption Observed","2019 CE","México and Central America","Mexico",19.514,-103.62,3850,"Andesite / Basaltic Andesite","Subduction zone / Continental crust (>25 km)","Holocene",46.6385922029579,-108.711852256173,315.635772699808,"cam"
"175",341060,"Michoacan-Guanajuato","Mexico","Pyroclastic cone(s)","Eruption Observed","1952 CE","México and Central America","Mexico",19.85,-101.75,3860,"Andesite / Basaltic Andesite","Subduction zone / Continental crust (>25 km)","Holocene",51.489482882406,-162.456909231111,248.209045412003,"cam"
"176",341061,"Zitacuaro-Valle de Bravo","Mexico","Caldera","Eruption Dated","3050 BCE","México and Central America","Mexico",19.4,-100.25,3500,"Dacite","Subduction zone / Continental crust (>25 km)","Holocene",42.9756584639576,-73.5685501772673,283.562530532498,"cam"
"177",341062,"Jocotitlan","Mexico","Stratovolcano","Eruption Dated","1270 CE","México and Central America","Mexico",19.73,-99.758,3900,"Dacite","Subduction zone / Continental crust (>25 km)","Holocene",63.0614878463425,-150.46661899511,290.557698567707,"cam"
"178",341070,"Toluca, Nevado de","Mexico","Stratovolcano","Eruption Dated","1350 BCE","México and Central America","Mexico",19.108,-99.758,4680,"Andesite / Basaltic Andesite","Subduction zone / Continental crust (>25 km)","Holocene",35.859729816083,-62.4173584541276,297.841094968046,"cam"
"179",341080,"Chichinautzin","Mexico","Volcanic field","Eruption Dated","400 CE","México and Central America","Mexico",19.08,-99.13,3930,"Andesite / Basaltic Andesite","Subduction zone / Continental crust (>25 km)","Holocene",49.2415428527782,-85.5111288239355,288.490468348969,"cam"
"180",341081,"Papayo","Mexico","Lava dome","Evidence Credible","Unknown","México and Central America","Mexico",19.308,-98.7,3600,"Dacite","Subduction zone / Continental crust (>25 km)","Holocene",62.2560310490486,-145.331649918119,291.56924438333,"cam"
"181",341082,"Iztaccihuatl","Mexico","Stratovolcano","Evidence Credible","Unknown","México and Central America","Mexico",19.179,-98.642,5230,"Andesite / Basaltic Andesite","Subduction zone / Continental crust (>25 km)","Holocene",59.9931844236999,-127.059171163931,292.251088457707,"cam"
"182",341090,"Popocatepetl","Mexico","Stratovolcano(es)","Eruption Observed","2019 CE","México and Central America","Mexico",19.023,-98.622,5393,"Andesite / Basaltic Andesite","Subduction zone / Continental crust (>25 km)","Holocene",55.4845509229995,-101.939205698537,293.105258516099,"cam"
"183",341091,"Malinche, La","Mexico","Stratovolcano","Eruption Dated","1170 BCE","México and Central America","Mexico",19.231,-98.032,4461,"Andesite / Basaltic Andesite","Subduction zone / Continental crust (>25 km)","Holocene",64.5914255903224,-183.306879828465,291.578626843536,"cam"
"184",341092,"Serdan-Oriental","Mexico","Tuff cone(s)","Evidence Credible","Unknown","México and Central America","Mexico",19.27,-97.47,3485,"Rhyolite","Subduction zone / Continental crust (>25 km)","Holocene",69.1099955337851,-239.736894579341,286.892201735596,"cam"
"185",341093,"Humeros, Los","Mexico","Caldera(s)","Eruption Dated","4470 BCE","México and Central America","Mexico",19.68,-97.45,3150,"Rhyolite","Subduction zone / Continental crust (>25 km)","Holocene",70.1419219930007,-364.963399449176,292.573425294205,"cam"
"186",341094,"Atlixcos, Los","Mexico","Shield","Evidence Credible","Unknown","México and Central America","Mexico",19.809,-96.526,800,"Basalt / Picro-Basalt","Subduction zone / Continental crust (>25 km)","Holocene",NA,NA,NA,"cam"
"187",341095,"Naolinco Volcanic Field","Mexico","Pyroclastic cone(s)","Eruption Dated","1200 BCE","México and Central America","Mexico",19.67,-96.75,2000,"Basalt / Picro-Basalt","Subduction zone / Continental crust (>25 km)","Holocene",NA,NA,NA,"cam"
"188",341096,"Cofre de Perote","Mexico","Shield(s)","Eruption Dated","1150 CE","México and Central America","Mexico",19.492,-97.15,4282,"Andesite / Basaltic Andesite","Subduction zone / Continental crust (>25 km)","Holocene",71.5754699714028,-333.424011426486,279.433410641108,"cam"
"189",341097,"Gloria, La","Mexico","Volcanic field","Evidence Credible","Unknown","México and Central America","Mexico",19.33,-97.25,3500,"Andesite / Basaltic Andesite","Subduction zone / Continental crust (>25 km)","Holocene",70.428942369076,-274.567423688474,281.181111642533,"cam"
"190",341098,"Cumbres,  Las","Mexico","Stratovolcano","Eruption Dated","3920 BCE","México and Central America","Mexico",19.15,-97.27,3940,"Andesite / Basaltic Andesite","Subduction zone / Continental crust (>25 km)","Holocene",67.153388988935,-221.37064632357,282.542551661945,"cam"
"191",341100,"Orizaba, Pico de","Mexico","Stratovolcano","Eruption Observed","1846 CE","México and Central America","Mexico",19.03,-97.27,5564,"Andesite / Basaltic Andesite","Subduction zone / Continental crust (>25 km)","Holocene",63.9942597430006,-193.577645334887,284.507307246952,"cam"
"192",341110,"San Martin","Mexico","Shield","Eruption Observed","1796 CE","México and Central America","Mexico",18.57,-95.2,1650,"Trachybasalt / Tephrite Basanite","Subduction zone / Continental crust (>25 km)","Holocene",34.125081343429,-200.818745980118,300.08878582234,"cam"
"193",341120,"Chichon, El","Mexico","Lava dome(s)","Eruption Observed","1982 CE","México and Central America","Mexico",17.36,-93.228,1150,"Trachyandesite / Basaltic Trachyandesite","Subduction zone / Continental crust (>25 km)","Holocene",52.6491851990646,-190.513134521445,319.171461315559,"cam"
"194",341130,"Tacana","Mexico-Guatemala","Stratovolcano","Eruption Observed","1986 CE","México and Central America","Mexico",15.132,-92.109,4064,"Andesite / Basaltic Andesite","Subduction zone / Continental crust (>25 km)","Holocene",41.4397015348582,-85.1483375346613,308.829647493024,"cam"
"195",342020,"Tajumulco","Guatemala","Stratovolcano","Evidence Credible","Unknown","México and Central America","Guatemala",15.043,-91.903,4203,"Dacite","Subduction zone / Continental crust (>25 km)","Holocene",45.1933098132165,-91.5423508449673,306.36117554368,"cam"
"196",342030,"Santa Maria","Guatemala","Stratovolcano","Eruption Observed","2019 CE","México and Central America","Guatemala",14.757,-91.552,3745,"Dacite","Subduction zone / Continental crust (>25 km)","Holocene",44.4064750999462,-84.518646314173,301.105987553142,"cam"
"197",342040,"Almolonga","Guatemala","Stratovolcano","Eruption Observed","1818 CE","México and Central America","Guatemala",14.797,-91.519,3173,"Dacite","Subduction zone / Continental crust (>25 km)","Holocene",47.3224144286783,-91.3577347611907,301.522481287328,"cam"
"198",342060,"Atitlan","Guatemala","Stratovolcano(es)","Eruption Observed","1853 CE","México and Central America","Guatemala",14.583,-91.186,3535,"Andesite / Basaltic Andesite","Subduction zone / Continental crust (>25 km)","Holocene",46.8183127868912,-88.1558279171946,298.238769532022,"cam"
"199",342070,"Toliman","Guatemala","Stratovolcano(es)","Evidence Credible","Unknown","México and Central America","Guatemala",14.612,-91.189,3158,"Andesite / Basaltic Andesite","Subduction zone / Continental crust (>25 km)","Holocene",48.3505342609609,-91.730403559139,298.498352052249,"cam"
"200",342080,"Acatenango","Guatemala","Stratovolcano(es)","Eruption Observed","1972 CE","México and Central America","Guatemala",14.501,-90.876,3976,"Andesite / Basaltic Andesite","Subduction zone / Continental crust (>25 km)","Holocene",50.4978854202069,-95.1410497930677,295.067779543726,"cam"
"201",342090,"Fuego","Guatemala","Stratovolcano(es)","Eruption Observed","2019 CE","México and Central America","Guatemala",14.473,-90.88,3763,"Basalt / Picro-Basalt","Subduction zone / Continental crust (>25 km)","Holocene",48.8412776889572,-91.2326550787446,294.770619712661,"cam"
"202",342100,"Agua","Guatemala","Stratovolcano","Evidence Credible","Unknown","México and Central America","Guatemala",14.465,-90.743,3760,"Andesite / Basaltic Andesite","Subduction zone / Continental crust (>25 km)","Holocene",52.0816561718257,-98.4405620239949,294.261657717985,"cam"
"203",342110,"Pacaya","Guatemala","Complex","Eruption Observed","2019 CE","México and Central America","Guatemala",14.382,-90.601,2569,"Basalt / Picro-Basalt","Subduction zone / Continental crust (>25 km)","Holocene",51.5159073232977,-96.0533448164171,294.042063397695,"cam"
"204",342111,"Cuilapa-Barbarena","Guatemala","Volcanic field","Evidence Credible","Unknown","México and Central America","Guatemala",14.33,-90.4,1454,"Basalt / Picro-Basalt","Subduction zone / Continental crust (>25 km)","Holocene",53.5191396403507,-101.038503107919,294.620808920326,"cam"
"205",342120,"Tecuamburro","Guatemala","Stratovolcano","Eruption Dated","960 BCE","México and Central America","Guatemala",14.156,-90.407,1845,"Andesite / Basaltic Andesite","Subduction zone / Continental crust (>25 km)","Holocene",44.0368500160851,-79.5689774283559,294.289001467829,"cam"
"206",342121,"Jumaytepeque","Guatemala","Stratovolcano","Evidence Uncertain","Unknown","México and Central America","Guatemala",14.34,-90.271,1802,"Basalt / Picro-Basalt","Subduction zone / Continental crust (>25 km)","Holocene",56.0560752304994,-109.597742822368,294.829908583043,"cam"
"207",342130,"Moyuta","Guatemala","Stratovolcano","Evidence Credible","Unknown","México and Central America","Guatemala",14.03,-90.1,1662,"Andesite / Basaltic Andesite","Subduction zone / Continental crust (>25 km)","Holocene",45.6213570028623,-81.2543793456804,294.863179527894,"cam"
"208",342140,"Flores","Guatemala","Volcanic field","Evidence Credible","Unknown","México and Central America","Guatemala",14.308,-89.992,1600,"Basalt / Picro-Basalt","Subduction zone / Continental crust (>25 km)","Holocene",59.0154838770133,-123.343513611966,295.120971679616,"cam"
"209",342141,"Tahual","Guatemala","Stratovolcano","Evidence Credible","Unknown","México and Central America","Guatemala",14.43,-89.9,1716,"Basalt / Picro-Basalt","Subduction zone / Continental crust (>25 km)","Holocene",63.4051742694592,-156.45107537971,295.070587158204,"cam"
"210",342150,"Santiago, Cerro","Guatemala","Volcanic field","Evidence Credible","Unknown","México and Central America","Guatemala",14.33,-89.87,1192,"Basalt / Picro-Basalt","Subduction zone / Continental crust (>25 km)","Holocene",61.526680857996,-140.058807505164,295.375854492212,"cam"
"211",342160,"Suchitan","Guatemala","Stratovolcano(es)","Evidence Credible","Unknown","México and Central America","Guatemala",14.4,-89.78,2042,"Andesite / Basaltic Andesite","Subduction zone / Continental crust (>25 km)","Holocene",63.7588780847941,-160.460469712625,295.458770751892,"cam"
"212",342170,"Chingo","Guatemala-El Salvador","Stratovolcano","Evidence Credible","Unknown","México and Central America","Guatemala",14.12,-89.73,1775,"Andesite / Basaltic Andesite","Subduction zone / Continental crust (>25 km)","Holocene",56.9561852591965,-113.919654110913,296.308570013651,"cam"
"213",342180,"Ixtepeque","Guatemala","Lava dome(s)","Evidence Credible","Unknown","México and Central America","Guatemala",14.42,-89.68,1292,"Rhyolite","Subduction zone / Continental crust (>25 km)","Holocene",64.7908494848403,-173.634613191453,295.614725747858,"cam"
"214",342190,"Ipala","Guatemala","Stratovolcano","Evidence Credible","Unknown","México and Central America","Guatemala",14.55,-89.63,1650,"Basalt / Picro-Basalt","Subduction zone / Continental crust (>25 km)","Holocene",66.8737945630044,-208.725448779199,295.32935587418,"cam"
"215",342200,"Chiquimula Volcanic Field","Guatemala","Pyroclastic cone(s)","Evidence Credible","Unknown","México and Central America","Guatemala",14.83,-89.55,1192,"Basalt / Picro-Basalt","Subduction zone / Continental crust (>25 km)","Holocene",69.0777384447949,-289.773396924538,294.787994382365,"cam"
"216",342210,"Quezaltepeque","Guatemala","Volcanic field","Evidence Credible","Unknown","México and Central America","Guatemala",14.57,-89.45,1200,"Basalt / Picro-Basalt","Subduction zone / Continental crust (>25 km)","Holocene",67.588528956337,-232.719289318643,294.508585606782,"cam"
"217",343001,"San Diego","El Salvador-Guatemala","Volcanic field","Evidence Credible","Unknown","México and Central America","El Salvador and Honduras",14.27,-89.48,781,"Basalt / Picro-Basalt","Subduction zone / Continental crust (>25 km)","Holocene",63.5282660709675,-161.930140323407,295.765604650986,"cam"
"218",343002,"Singuil, Cerro","El Salvador","Pyroclastic cone(s)","Evidence Credible","Unknown","México and Central America","El Salvador and Honduras",14.054,-89.631,926,"Basalt / Picro-Basalt","Subduction zone / Continental crust (>25 km)","Holocene",56.2382494852476,-111.106305551519,296.693369546186,"cam"
"219",343010,"Apaneca Range","El Salvador","Stratovolcano(es)","Evidence Credible","Unknown","México and Central America","El Salvador and Honduras",13.891,-89.786,2036,"Basalt / Picro-Basalt","Subduction zone / Continental crust (>25 km)","Holocene",45.8645066524014,-81.1073456551245,296.779425727599,"cam"
"220",343020,"Santa Ana","El Salvador","Stratovolcano","Eruption Observed","2005 CE","México and Central America","El Salvador and Honduras",13.853,-89.63,2381,"Andesite / Basaltic Andesite","Subduction zone / Continental crust (>25 km)","Holocene",47.8159027441267,-85.3884227307492,297.100504556249,"cam"
"221",343030,"Izalco","El Salvador","Stratovolcano","Eruption Observed","1966 CE","México and Central America","El Salvador and Honduras",13.813,-89.633,1950,"Andesite / Basaltic Andesite","Subduction zone / Continental crust (>25 km)","Holocene",46.1846627486092,-81.9007670850058,297.109157985316,"cam"
"222",343041,"Coatepeque Caldera","El Salvador","Caldera","Evidence Credible","Unknown","México and Central America","El Salvador and Honduras",13.87,-89.55,746,"Rhyolite","Subduction zone / Continental crust (>25 km)","Holocene",50.4307009697163,-92.0717062250869,296.953348794428,"cam"
"223",343050,"San Salvador","El Salvador","Stratovolcano","Eruption Observed","1917 CE","México and Central America","El Salvador and Honduras",13.734,-89.294,1893,"Andesite / Basaltic Andesite","Subduction zone / Continental crust (>25 km)","Holocene",50.093083731797,-90.5862936245811,295.986195885713,"cam"
"224",343051,"Cinotepeque, Cerro","El Salvador","Volcanic field","Evidence Credible","Unknown","México and Central America","El Salvador and Honduras",14.02,-89.25,665,"No Data (checked)","Subduction zone / Continental crust (>25 km)","Holocene",59.9097722516772,-135.626485314544,295.996032711091,"cam"
"225",343052,"Guazapa","El Salvador","Stratovolcano","Evidence Uncertain","Unknown","México and Central America","El Salvador and Honduras",13.9,-89.12,1438,"Basalt / Picro-Basalt","Subduction zone / Continental crust (>25 km)","Holocene",58.510424310946,-126.79382081907,296.706726073329,"cam"
"226",343060,"Ilopango","El Salvador","Caldera","Eruption Observed","1880 CE","México and Central America","El Salvador and Honduras",13.672,-89.053,450,"Dacite","Subduction zone / Continental crust (>25 km)","Holocene",53.0130030585578,-97.1179607092883,296.001322432294,"cam"
"227",343070,"San Vicente","El Salvador","Stratovolcano","Evidence Credible","Unknown","México and Central America","El Salvador and Honduras",13.595,-88.837,2182,"Andesite / Basaltic Andesite","Subduction zone / Continental crust (>25 km)","Holocene",54.8608233371948,-101.693389997083,294.51548258635,"cam"
"228",343071,"Apastepeque Field","El Salvador","Volcanic field","Evidence Credible","Unknown","México and Central America","El Salvador and Honduras",13.72,-88.77,700,"Dacite","Subduction zone / Continental crust (>25 km)","Holocene",58.9031380694254,-124.638830516973,295.208214657096,"cam"
"229",343072,"Taburete","El Salvador","Stratovolcano","Evidence Uncertain","Unknown","México and Central America","El Salvador and Honduras",13.435,-88.532,1172,"Basalt / Picro-Basalt","Subduction zone / Continental crust (>25 km)","Holocene",53.5112440646913,-95.9885339637374,293.465464276192,"cam"
"230",343080,"Tecapa","El Salvador","Stratovolcano","Evidence Credible","Unknown","México and Central America","El Salvador and Honduras",13.494,-88.502,1593,"Andesite / Basaltic Andesite","Subduction zone / Continental crust (>25 km)","Holocene",56.874996209713,-107.801109427216,293.649322514628,"cam"
"231",343081,"Usulutan","El Salvador","Stratovolcano","Evidence Credible","Unknown","México and Central America","El Salvador and Honduras",13.419,-88.471,1449,"Basalt / Picro-Basalt","Subduction zone / Continental crust (>25 km)","Holocene",54.0889422413878,-97.6391814489759,294.132253013985,"cam"
"232",343082,"Tigre, El","El Salvador","Stratovolcano","Evidence Credible","Unknown","México and Central America","El Salvador and Honduras",13.47,-88.43,1640,"Basalt / Picro-Basalt","Subduction zone / Continental crust (>25 km)","Holocene",56.789716111554,-107.178694094427,294.388071700224,"cam"
"233",343090,"Chinameca","El Salvador","Stratovolcano","Evidence Credible","Unknown","México and Central America","El Salvador and Honduras",13.478,-88.33,1300,"Andesite / Basaltic Andesite","Subduction zone / Continental crust (>25 km)","Holocene",59.1054908143199,-117.177340309802,295.543226457916,"cam"
"234",343100,"San Miguel","El Salvador","Stratovolcano","Eruption Observed","2018 CE","México and Central America","El Salvador and Honduras",13.434,-88.269,2130,"Andesite / Basaltic Andesite","Subduction zone / Continental crust (>25 km)","Holocene",58.5877512023528,-114.117748801819,296.35419040505,"cam"
"235",343101,"Aramuaca, Laguna","El Salvador","Maar","Evidence Credible","Unknown","México and Central America","El Salvador and Honduras",13.428,-88.105,181,"No Data (checked)","Subduction zone / Continental crust (>25 km)","Holocene",61.0572014043912,-128.237292103056,297.428822833599,"cam"
"236",343130,"Tigre, Isla el","Honduras","Stratovolcano","Evidence Credible","Unknown","México and Central America","El Salvador and Honduras",13.272,-87.641,783,"Basalt / Picro-Basalt","Subduction zone / Continental crust (>25 km)","Holocene",61.9205780147539,-144.128658857399,302.797407365066,"cam"
"237",343140,"Zacate Grande, Isla","Honduras","Stratovolcano","Evidence Credible","Unknown","México and Central America","El Salvador and Honduras",13.33,-87.63,640,"Basalt / Picro-Basalt","Subduction zone / Continental crust (>25 km)","Holocene",62.7767605342273,-156.083367384513,302.15872870813,"cam"
"238",343150,"Yojoa, Lake","Honduras","Volcanic field","Evidence Credible","Unknown","México and Central America","El Salvador and Honduras",14.98,-87.98,1090,"Trachybasalt / Tephrite Basanite","Subduction zone / Continental crust (>25 km)","Holocene",NA,NA,NA,"cam"
"239",343160,"Utila Island","Honduras","Pyroclastic cone(s)","Evidence Credible","Unknown","México and Central America","El Salvador and Honduras",16.12,-86.882,74,"Basalt / Picro-Basalt","Subduction zone / Continental crust (>25 km)","Holocene",NA,NA,NA,"cam"
"240",344010,"Cosiguina","Nicaragua","Stratovolcano","Eruption Observed","1859 CE","México and Central America","Nicaragua",12.98,-87.57,872,"Andesite / Basaltic Andesite","Subduction zone / Continental crust (>25 km)","Holocene",56.4003088499748,-106.43366676303,304.878879127163,"cam"
"241",344020,"San Cristobal","Nicaragua","Stratovolcano","Eruption Observed","2019 CE","México and Central America","Nicaragua",12.702,-87.004,1745,"Basalt / Picro-Basalt","Subduction zone / Continental crust (>25 km)","Holocene",64.0995559941414,-127.841285862644,310.071838389,"cam"
"242",344040,"Telica","Nicaragua","Stratovolcano(es)","Eruption Observed","2018 CE","México and Central America","Nicaragua",12.606,-86.84,1036,"Basalt / Picro-Basalt","Subduction zone / Continental crust (>25 km)","Holocene",66.3689677152544,-135.53803016069,312.159210214379,"cam"
"243",344060,"Rota","Nicaragua","Stratovolcano","Evidence Credible","Unknown","México and Central America","Nicaragua",12.55,-86.75,832,"Andesite / Basaltic Andesite","Subduction zone / Continental crust (>25 km)","Holocene",67.5034179903006,-140.213791076812,312.940917976881,"cam"
"244",344070,"Negro, Cerro","Nicaragua","Pyroclastic cone(s)","Eruption Observed","1999 CE","México and Central America","Nicaragua",12.506,-86.702,728,"Basalt / Picro-Basalt","Subduction zone / Continental crust (>25 km)","Holocene",67.6744079811334,-139.326965516878,313.070739753085,"cam"
"245",344080,"Pilas, Las","Nicaragua","Complex","Eruption Observed","1954 CE","México and Central America","Nicaragua",12.495,-86.688,1088,"Andesite / Basaltic Andesite","Subduction zone / Continental crust (>25 km)","Holocene",68.0983963229163,-142.447998233764,313.187815355524,"cam"
"246",344090,"Momotombo","Nicaragua","Stratovolcano","Eruption Observed","2016 CE","México and Central America","Nicaragua",12.423,-86.539,1270,"Basalt / Picro-Basalt","Subduction zone / Continental crust (>25 km)","Holocene",69.8121473721772,-153.96710055788,313.012888594559,"cam"
"247",344091,"Apoyeque","Nicaragua","Pyroclastic shield","Eruption Dated","50 BCE","México and Central America","Nicaragua",12.242,-86.342,518,"Dacite","Subduction zone / Continental crust (>25 km)","Holocene",69.9001922806051,-152.975052087441,311.694427490524,"cam"
"248",344092,"Nejapa-Miraflores","Nicaragua","Fissure vent(s)","Eruption Dated","1060 CE","México and Central America","Nicaragua",12.12,-86.32,360,"Basalt / Picro-Basalt","Subduction zone / Continental crust (>25 km)","Holocene",66.9047690778413,-131.086800643101,311.756032306613,"cam"
"249",344100,"Masaya","Nicaragua","Caldera","Eruption Observed","2019 CE","México and Central America","Nicaragua",11.984,-86.161,635,"Basalt / Picro-Basalt","Subduction zone / Continental crust (>25 km)","Holocene",66.7724813117111,-130.980492655506,312.803402369702,"cam"
"250",344101,"Granada","Nicaragua","Fissure vent(s)","Evidence Credible","Unknown","México and Central America","Nicaragua",11.92,-85.98,300,"Basalt / Picro-Basalt","Subduction zone / Continental crust (>25 km)","Holocene",69.6666438012416,-152.07450039083,314.360287135502,"cam"
"251",344110,"Mombacho","Nicaragua","Stratovolcano","Unrest / Holocene","Unknown","México and Central America","Nicaragua",11.826,-85.968,1344,"Andesite / Basaltic Andesite","Subduction zone / Continental crust (>25 km)","Holocene",67.7945234786798,-138.357468676924,314.927927650437,"cam"
"252",344111,"Zapatera","Nicaragua","Shield","Evidence Credible","Unknown","México and Central America","Nicaragua",11.73,-85.82,629,"Andesite / Basaltic Andesite","Subduction zone / Continental crust (>25 km)","Holocene",68.7140740545562,-147.690341712342,314.82297091434,"cam"
"253",344120,"Concepcion","Nicaragua","Stratovolcano","Eruption Observed","2011 CE","México and Central America","Nicaragua",11.538,-85.622,1700,"Andesite / Basaltic Andesite","Subduction zone / Continental crust (>25 km)","Holocene",66.9401304719194,-144.95822669354,311.858669694203,"cam"
"254",344131,"Esteli","Nicaragua","Fissure vent(s)","Evidence Uncertain","Unknown","México and Central America","Nicaragua",13.17,-86.4,899,"Basalt / Picro-Basalt","Subduction zone / Continental crust (>25 km)","Holocene",NA,NA,NA,"cam"
"255",344132,"Ciguatepe, Cerro el","Nicaragua","Stratovolcano","Evidence Uncertain","Unknown","México and Central America","Nicaragua",12.53,-86.142,603,"Basalt / Picro-Basalt","Subduction zone / Continental crust (>25 km)","Holocene",NA,NA,NA,"cam"
"256",344133,"Lajas, Las","Nicaragua","Shield","Evidence Uncertain","Unknown","México and Central America","Nicaragua",12.3,-85.73,926,"Basalt / Picro-Basalt","Subduction zone / Continental crust (>25 km)","Holocene",NA,NA,NA,"cam"
"257",344140,"Azul, Volcan","Nicaragua","Pyroclastic cone(s)","Evidence Credible","Unknown","México and Central America","Nicaragua",12.53,-83.87,201,"Trachybasalt / Tephrite Basanite","Subduction zone / Intermediate crust (15-25 km)","Holocene",NA,NA,NA,"cam"
"258",345010,"Orosi","Costa Rica","Stratovolcano(es)","Evidence Uncertain","Unknown","México and Central America","Costa Rica",10.98,-85.473,1659,"Andesite / Basaltic Andesite","Subduction zone / Continental crust (>25 km)","Holocene",51.1156374919985,-85.609714174882,311.130981443539,"cam"
"259",345020,"Rincon de la Vieja","Costa Rica","Complex","Eruption Observed","2019 CE","México and Central America","Costa Rica",10.83,-85.324,1916,"Andesite / Basaltic Andesite","Subduction zone / Continental crust (>25 km)","Holocene",50.0636715683482,-82.906753627504,308.84171549562,"cam"
"260",345030,"Miravalles","Costa Rica","Stratovolcano","Eruption Observed","1946 CE","México and Central America","Costa Rica",10.748,-85.153,2028,"Andesite / Basaltic Andesite","Subduction zone / Continental crust (>25 km)","Holocene",52.1119804706496,-87.611785986409,307.059906010158,"cam"
"261",345031,"Tenorio","Costa Rica","Stratovolcano(es)","Evidence Credible","Unknown","México and Central America","Costa Rica",10.673,-85.015,1916,"Andesite / Basaltic Andesite","Subduction zone / Continental crust (>25 km)","Holocene",53.128285759338,-89.3450810043392,306.506764733959,"cam"
"262",345033,"Arenal","Costa Rica","Stratovolcano","Eruption Observed","2010 CE","México and Central America","Costa Rica",10.463,-84.703,1670,"Andesite / Basaltic Andesite","Subduction zone / Continental crust (>25 km)","Holocene",55.0999794301744,-93.7167969829595,308.40631103484,"cam"
"263",345034,"Platanar","Costa Rica","Stratovolcano(es)","Evidence Credible","Unknown","México and Central America","Costa Rica",10.3,-84.366,2267,"Andesite / Basaltic Andesite","Subduction zone / Continental crust (>25 km)","Holocene",57.6014086586771,-107.80611940092,310.984812413849,"cam"
"264",345040,"Poas","Costa Rica","Stratovolcano","Eruption Observed","2019 CE","México and Central America","Costa Rica",10.2,-84.233,2708,"Andesite / Basaltic Andesite","Subduction zone / Continental crust (>25 km)","Holocene",57.2821642702112,-109.338262038532,309.10629271835,"cam"
"265",345050,"Barva","Costa Rica","Complex","Eruption Dated","6050 BCE","México and Central America","Costa Rica",10.135,-84.1,2906,"Andesite / Basaltic Andesite","Subduction zone / Continental crust (>25 km)","Holocene",57.2440897745836,-113.862142040823,304.54904173987,"cam"
"266",345060,"Irazu","Costa Rica","Stratovolcano","Eruption Observed","1994 CE","México and Central America","Costa Rica",9.979,-83.852,3432,"Andesite / Basaltic Andesite","Subduction zone / Continental crust (>25 km)","Holocene",55.9542376347925,-111.577507123374,293.134419749922,"cam"
"267",345070,"Turrialba","Costa Rica","Stratovolcano","Eruption Observed","2019 CE","México and Central America","Costa Rica",10.025,-83.767,3340,"Andesite / Basaltic Andesite","Subduction zone / Continental crust (>25 km)","Holocene",57.0308511624079,-121.935195184496,291.057152633969,"cam"
"268",346010,"Baru","Panama","Stratovolcano","Eruption Observed","1550 CE","México and Central America","Panama",8.808,-82.543,3474,"Andesite / Basaltic Andesite","Subduction zone / Continental crust (>25 km)","Holocene",NA,NA,NA,"cam"
"269",346030,"Valle, El","Panama","Stratovolcano","Evidence Uncertain","Unknown","México and Central America","Panama",8.58,-80.17,1185,"Dacite","Subduction zone / Continental crust (>25 km)","Holocene",NA,NA,NA,"cam"
"270",341010,"Tres Virgenes","Mexico","Stratovolcano(es)",NA,NA,"México and Central America","Mexico",27.47,-112.591,1934,NA,"Rift zone / Continental crust (>25 km)","Pleistocene",NA,NA,NA,"cam"
"271",341801,"San Ignacio Volcanic Field","Mexico","Volcanic field",NA,NA,"México and Central America","Mexico",27.633,-113.05,1500,NA,"Rift zone / Oceanic crust (< 15 km)","Pleistocene",NA,NA,NA,"cam"
"272",341802,"Aguajito, El","Mexico","Caldera",NA,NA,"México and Central America","Mexico",27.554,-112.552,1274,NA,"Rift zone / Continental crust (>25 km)","Pleistocene",NA,NA,NA,"cam"
"273",341803,"Reforma, La","Mexico","Caldera",NA,NA,"México and Central America","Mexico",27.508,-112.392,1300,NA,"Rift zone / Continental crust (>25 km)","Pleistocene",NA,NA,NA,"cam"
"274",341804,"Pulpito, Punta","Mexico","Lava dome",NA,NA,"México and Central America","Mexico",26.517,-111.444,131,NA,"Rift zone / Continental crust (>25 km)","Pleistocene",NA,NA,NA,"cam"
"275",341805,"Mencenares, Cerro","Mexico","Lava dome(s)",NA,NA,"México and Central America","Mexico",26.28,-111.47,790,NA,"Rift zone / Continental crust (>25 km)","Pleistocene",NA,NA,NA,"cam"
"276",341807,"Camargo Volcanic Field","Mexico","Pyroclastic cone(s)",NA,NA,"México and Central America","Mexico",27.75,-104.42,1900,NA,"Intraplate / Continental crust (>25 km)","Pleistocene",NA,NA,NA,"cam"
"277",341808,"Santo Domingo Volcanic Field","Mexico","Maar(s)",NA,NA,"México and Central America","Mexico",22.83,-100.08,1550,NA,"Intraplate / Continental crust (>25 km)","Pleistocene",NA,NA,NA,"cam"
"278",341809,"Ventura Volcanic Field","Mexico","Maar(s)",NA,NA,"México and Central America","Mexico",22.35,-100.7,2035,NA,"Intraplate / Continental crust (>25 km)","Pleistocene",NA,NA,NA,"cam"
"279",341810,"San Juan","Mexico","Stratovolcano(es)",NA,NA,"México and Central America","Mexico",21.47,-104.97,2240,NA,"Subduction zone / Continental crust (>25 km)","Pleistocene",NA,NA,NA,"cam"
"280",341811,"Navajas, Las","Mexico","Shield",NA,NA,"México and Central America","Mexico",21.531,-104.729,1680,NA,"Subduction zone / Continental crust (>25 km)","Pleistocene",NA,NA,NA,"cam"
"281",341812,"Santa Maria del Oro","Mexico","Maar",NA,NA,"México and Central America","Mexico",21.371,-104.571,1120,NA,"Subduction zone / Continental crust (>25 km)","Pleistocene",NA,NA,NA,"cam"
"282",341813,"Tepetiltic","Mexico","Stratovolcano",NA,NA,"México and Central America","Mexico",21.27,-104.7,2020,NA,"Subduction zone / Continental crust (>25 km)","Pleistocene",NA,NA,NA,"cam"
"283",341814,"San Pedro","Mexico","Caldera",NA,NA,"México and Central America","Mexico",21.17,-104.73,2000,NA,"Subduction zone / Continental crust (>25 km)","Pleistocene",NA,NA,NA,"cam"
"284",341815,"San Sebastian Volcanic Field","Mexico","Pyroclastic cone(s)",NA,NA,"México and Central America","Mexico",20.83,-104.82,1780,NA,"Subduction zone / Continental crust (>25 km)","Pleistocene",33.0332620622,-69.5184190970488,328.602193187888,"cam"
"285",341816,"Volcanes, Los","Mexico","Volcanic field",NA,NA,"México and Central America","Mexico",20.33,-104.5,2080,NA,"Subduction zone / Continental crust (>25 km)","Pleistocene",29.3457343130981,-69.6498566039612,334.350941961407,"cam"
"286",341817,"Northern Atenguillo","Mexico","Shield(s)",NA,NA,"México and Central America","Mexico",20.75,-104.5,1700,NA,"Subduction zone / Continental crust (>25 km)","Pleistocene",39.7148819170718,-86.08463293089,327.489288333128,"cam"
"287",341818,"Tequila","Mexico","Stratovolcano",NA,NA,"México and Central America","Mexico",20.788,-103.847,2920,NA,"Subduction zone / Continental crust (>25 km)","Pleistocene",51.3721961976621,-151.37258916052,338.844268805409,"cam"
"288",341819,"Northern Guadalajara Mesa","Mexico","Lava dome(s)",NA,NA,"México and Central America","Mexico",20.88,-103.4,1820,NA,"Subduction zone / Continental crust (>25 km)","Pleistocene",NA,NA,NA,"cam"
"289",341820,"Primavera, Sierra la","Mexico","Caldera",NA,NA,"México and Central America","Mexico",20.62,-103.52,2270,NA,"Subduction zone / Continental crust (>25 km)","Pleistocene",49.1416651311829,-186.224524670722,343.352990038031,"cam"
"290",341821,"Southern Guadalajara","Mexico","Volcanic field",NA,NA,"México and Central America","Mexico",20.525,-103.242,2160,NA,"Subduction zone / Continental crust (>25 km)","Pleistocene",41.3255271809122,-208.867858919337,335.983459449877,"cam"
"291",341822,"Acatlan Volcanic Field","Mexico","Caldera",NA,NA,"México and Central America","Mexico",20.45,-103.57,1990,NA,"Subduction zone / Continental crust (>25 km)","Pleistocene",50.8873430774979,-174.161931425905,344.198822020461,"cam"
"292",341823,"Cantaro, Volcan el","Mexico","Stratovolcano",NA,NA,"México and Central America","Mexico",19.72,-103.63,2920,NA,"Subduction zone / Continental crust (>25 km)","Pleistocene",50.2617187596646,-123.593726347637,323.277136908078,"cam"
"293",341824,"Azufres, Los","Mexico","Caldera",NA,NA,"México and Central America","Mexico",19.85,-100.63,3400,NA,"Subduction zone / Continental crust (>25 km)","Pleistocene",62.2211253130225,-135.557856367347,275.419840524265,"cam"
"294",341825,"Tláloc","Mexico","Stratovolcano",NA,NA,"México and Central America","Mexico",19.411,-98.713,4120,NA,"Subduction zone / Continental crust (>25 km)","Pleistocene",64.2653325506658,-168.15323399419,291.223839653104,"cam"
"295",341826,"Telapón","Mexico","Stratovolcano",NA,NA,"México and Central America","Mexico",19.37,-98.72,4080,NA,"Subduction zone / Continental crust (>25 km)","Pleistocene",63.4101893225503,-157.596973138109,291.326022677092,"cam"
"296",341827,"Acoculco","Mexico","Caldera",NA,NA,"México and Central America","Mexico",19.97,-98.2,3020,NA,"Subduction zone / Continental crust (>25 km)","Pleistocene",66.8384119660586,-348.948222011488,295.200968436774,"cam"
"297",341828,"Grande, Cerro","Mexico","Volcanic field",NA,NA,"México and Central America","Mexico",19.62,-97.93,3050,NA,"Subduction zone / Continental crust (>25 km)","Pleistocene",69.3375566289116,-289.076389079717,293.702660462775,"cam"
"298",341829,"Poza Rica","Mexico","Volcanic field",NA,NA,"México and Central America","Mexico",20.42,-97.83,2250,NA,"Subduction zone / Continental crust (>25 km)","Pleistocene",NA,NA,NA,"cam"
"299",341830,"San Martin Pajapan","Mexico","Stratovolcano(es)",NA,NA,"México and Central America","Mexico",18.303,-94.73,1250,NA,"Subduction zone / Continental crust (>25 km)","Pleistocene",38.6395021746177,-201.069910741325,298.160502122616,"cam"
"300",341831,"Apas-Navenchauc","Mexico","Caldera(s)",NA,NA,"México and Central America","Mexico",16.716,-92.786,0,NA,"Subduction zone / Continental crust (>25 km)","Pleistocene",56.4316533530655,-179.647223687545,319.004187705687,"cam"
"301",341832,"Huitepec","Mexico","Lava dome",NA,NA,"México and Central America","Mexico",16.743,-92.694,2744,NA,"Subduction zone / Continental crust (>25 km)","Pleistocene",58.4825401419725,-194.005676387485,321.259796158392,"cam"
"302",341833,"Mispia","Mexico","Lava dome(s)",NA,NA,"México and Central America","Mexico",16.447,-92.539,1750,NA,"Subduction zone / Continental crust (>25 km)","Pleistocene",61.1672630428437,-183.4735210434,323.761128758392,"cam"
"303",341836,"Aldama Volcanic Field","Mexico","Volcanic field",NA,NA,"México and Central America","Mexico",23.2,-98.02,600,NA,"Intraplate / Continental crust (>25 km)","Pleistocene",NA,NA,NA,"cam"
"304",341837,"Flores, Los","Mexico","Volcanic field",NA,NA,"México and Central America","Mexico",22.58,-99.38,520,NA,"Intraplate / Continental crust (>25 km)","Pleistocene",NA,NA,NA,"cam"
"305",341838,"Apan-Tezontepec","Mexico","Volcanic field",NA,NA,"México and Central America","Mexico",19.75,-98.5,3100,NA,"Subduction zone / Continental crust (>25 km)","Pleistocene",67.7642288195455,-267.115448171505,291.002258303284,"cam"
"306",342800,"Santo Tomas","Guatemala","Stratovolcano(es)",NA,NA,"México and Central America","Guatemala",14.71,-91.479,3542,NA,"Subduction zone / Continental crust (>25 km)","Pleistocene",44.8313251409436,-85.0567602257775,300.61252170465,"cam"
"307",342801,"Cuxliquel","Guatemala","Lava dome(s)",NA,NA,"México and Central America","Guatemala",14.889,-91.398,3029,NA,"Subduction zone / Continental crust (>25 km)","Pleistocene",53.0724729158729,-108.862012325133,302.055460616545,"cam"
"308",342802,"Barahona","Guatemala","Caldera(s)",NA,NA,"México and Central America","Guatemala",14.55,-90.78,2282,NA,"Subduction zone / Continental crust (>25 km)","Pleistocene",54.9876378662637,-107.798240767261,295.01706950207,"cam"
"309",342803,"Pueblo Nuevo Viñas","Guatemala","Stratovolcano",NA,NA,"México and Central America","Guatemala",14.199,-90.505,1939,NA,"Subduction zone / Continental crust (>25 km)","Pleistocene",44.161495249484,-80.1969681513162,294.066619876075,"cam"
"310",342804,"Piedra Grande","Guatemala","Stratovolcano(es)",NA,NA,"México and Central America","Guatemala",14.25,-90.4,1640,NA,"Subduction zone / Continental crust (>25 km)","Pleistocene",49.4848747615369,-90.3550873677449,294.553619386434,"cam"
"311",342805,"Ixhuatan","Guatemala","Complex",NA,NA,"México and Central America","Guatemala",14.161,-90.286,1675,NA,"Subduction zone / Continental crust (>25 km)","Pleistocene",47.9913139720492,-86.8027124154629,294.656338164054,"cam"
"312",342806,"Ayarza","Guatemala","Caldera(s)",NA,NA,"México and Central America","Guatemala",14.42,-90.12,1409,NA,"Subduction zone / Continental crust (>25 km)","Pleistocene",60.9128757238532,-134.612999940363,294.778761120986,"cam"
"313",342807,"Alutate, Cerro","Guatemala","Stratovolcano",NA,NA,"México and Central America","Guatemala",14.647,-90.144,2116,NA,"Subduction zone / Continental crust (>25 km)","Pleistocene",65.410362253047,-178.848220984419,294.228118895581,"cam"
"314",342808,"Guistepeque Volcanic Field","Guatemala","Pyroclastic cone(s)",NA,NA,"México and Central America","Guatemala",14.57,-89.78,1358,NA,"Subduction zone / Continental crust (>25 km)","Pleistocene",66.3190290750574,-196.692974679666,295.134623209826,"cam"
"315",342809,"Siete Orejas","Guatemala","Stratovolcano",NA,NA,"México and Central America","Guatemala",14.82,-91.62,3370,NA,"Subduction zone / Continental crust (>25 km)","Pleistocene",45.188560517871,-87.1171799448827,302.039249001665,"cam"
"316",342810,"San Pedro","Guatemala","Stratovolcano",NA,NA,"México and Central America","Guatemala",14.656,-91.267,3020,NA,"Subduction zone / Continental crust (>25 km)","Pleistocene",47.717554761107,-90.4779638476487,299.247701011149,"cam"
"317",342811,"Jumay Volcanic Field","Guatemala","Stratovolcano",NA,NA,"México and Central America","Guatemala",14.694,-89.993,2174,NA,"Subduction zone / Continental crust (>25 km)","Pleistocene",66.7789611888418,-205.259643724161,294.27374267633,"cam"
"318",342812,"Ananopa, Cerro","Guatemala","Volcanic field",NA,NA,"México and Central America","Guatemala",14.9,-89.93,386,NA,"Subduction zone / Continental crust (>25 km)","Pleistocene",68.5668360425204,-262.165781841037,294.482910158791,"cam"
"319",342813,"Redondo, Cerro","Guatemala","Shield(s)",NA,NA,"México and Central America","Guatemala",14.27,-89.62,768,NA,"Subduction zone / Continental crust (>25 km)","Pleistocene",62.5142012850471,-149.54811110172,296.042517766556,"cam"
"320",343110,"Conchagua","El Salvador","Stratovolcano",NA,NA,"México and Central America","El Salvador and Honduras",13.275,-87.845,1225,NA,"Subduction zone / Continental crust (>25 km)","Pleistocene",59.4810969226475,-122.352030562032,300.083546954717,"cam"
"321",343120,"Conchaguita","El Salvador","Stratovolcano",NA,NA,"México and Central America","El Salvador and Honduras",13.229,-87.767,505,NA,"Subduction zone / Continental crust (>25 km)","Pleistocene",59.7065921549408,-124.766371109856,301.232496473247,"cam"
"322",343800,"Masahuat Volcanic Field","El Salvador","Stratovolcano",NA,NA,"México and Central America","El Salvador and Honduras",14.2,-89.4,1005,NA,"Subduction zone / Continental crust (>25 km)","Pleistocene",62.7952919123391,-156.379348897608,295.629119867657,"cam"
"323",343801,"Tablas, Cerro las","El Salvador","Stratovolcano(es)",NA,NA,"México and Central America","El Salvador and Honduras",14.07,-89.4,782,NA,"Subduction zone / Continental crust (>25 km)","Pleistocene",59.7997525704746,-131.970621870208,296.236643469576,"cam"
"324",343802,"Limones Volcanic Field, Los","El Salvador","Pyroclastic cone(s)",NA,NA,"México and Central America","El Salvador and Honduras",14.05,-89.13,420,NA,"Subduction zone / Continental crust (>25 km)","Pleistocene",61.2124481300584,-151.251663341336,295.659779860981,"cam"
"325",343803,"Cacahuatique, Cerro","El Salvador","Stratovolcano",NA,NA,"México and Central America","El Salvador and Honduras",13.75,-88.2,1500,NA,"Subduction zone / Continental crust (>25 km)","Pleistocene",65.1285705620388,-181.582031407788,297.280639651811,"cam"
"326",343804,"Buena Vista, Cerro","El Salvador","Stratovolcano",NA,NA,"México and Central America","El Salvador and Honduras",13.25,-88.15,750,NA,"Subduction zone / Continental crust (>25 km)","Pleistocene",53.4623985619698,-95.5630341597532,298.272277831517,"cam"
"327",343805,"Yayantique, Cerro","El Salvador","Stratovolcano(es)",NA,NA,"México and Central America","El Salvador and Honduras",13.435,-87.999,613,NA,"Subduction zone / Continental crust (>25 km)","Pleistocene",62.0683059842039,-137.499399957848,297.665710445817,"cam"
"328",343806,"Unnamed","El Salvador","Volcanic field",NA,NA,"México and Central America","El Salvador and Honduras",13.67,-87.82,377,NA,"Subduction zone / Continental crust (>25 km)","Pleistocene",65.1467090200267,-203.645397766277,295.38921101263,"cam"
"329",343807,"Zacatillo, Isla","El Salvador","Pyroclastic cone(s)",NA,NA,"México and Central America","El Salvador and Honduras",13.295,-87.761,158,NA,"Subduction zone / Continental crust (>25 km)","Pleistocene",61.206952426401,-135.96576958503,300.550801593369,"cam"
"330",343815,"Lolotique, Cerro","El Salvador","Unknown",NA,NA,"México and Central America","El Salvador and Honduras",13.559,-88.364,804,NA,"Subduction zone / Continental crust (>25 km)","Pleistocene",60.8984930428571,-129.060340163811,295.186574306145,"cam"
"331",343816,"Meanguera, Isla","El Salvador","Stratovolcano(es)",NA,NA,"México and Central America","El Salvador and Honduras",13.19,-87.72,468,NA,"Subduction zone / Continental crust (>25 km)","Pleistocene",59.1786295777122,-121.572857449144,302.243106419409,"cam"
"332",343817,"Izopo, Montaña de","Honduras","Shield(s)",NA,NA,"México and Central America","El Salvador and Honduras",13.92,-87.15,2020,NA,"Subduction zone / Continental crust (>25 km)","Pleistocene",NA,NA,NA,"cam"
"333",343818,"Hule, Cerro de","Honduras","Shield",NA,NA,"México and Central America","El Salvador and Honduras",13.95,-87.23,1725,NA,"Subduction zone / Continental crust (>25 km)","Pleistocene",NA,NA,NA,"cam"
"334",343819,"Gavilantepeque, Cerro","Honduras","Shield",NA,NA,"México and Central America","El Salvador and Honduras",14,-87.18,1280,NA,"Subduction zone / Continental crust (>25 km)","Pleistocene",NA,NA,NA,"cam"
"335",343820,"Pedregal, El","Honduras","Shield",NA,NA,"México and Central America","El Salvador and Honduras",14.1,-87.27,1593,NA,"Subduction zone / Continental crust (>25 km)","Pleistocene",NA,NA,NA,"cam"
"336",343821,"Calanterique, Cerro","Honduras","Lava cone",NA,NA,"México and Central America","El Salvador and Honduras",14.6,-87.87,0,NA,"Subduction zone / Continental crust (>25 km)","Pleistocene",NA,NA,NA,"cam"
"337",344130,"Maderas","Nicaragua","Stratovolcano",NA,NA,"México and Central America","Nicaragua",11.446,-85.515,1394,NA,"Subduction zone / Continental crust (>25 km)","Pleistocene",66.2221069583361,-145.280009123337,310.352162668205,"cam"
"338",344801,"Malpaisillo","Nicaragua","Pyroclastic shield",NA,NA,"México and Central America","Nicaragua",12.58,-86.6,181,NA,"Subduction zone / Continental crust (>25 km)","Pleistocene",71.3310012953925,-177.834513566036,314.57565308451,"cam"
"339",344802,"Apoyo","Nicaragua","Caldera",NA,NA,"México and Central America","Nicaragua",11.92,-86.03,600,NA,"Subduction zone / Continental crust (>25 km)","Pleistocene",68.4193183303098,-142.14331751703,314.093275281044,"cam"
"340",344803,"San Jacinto, Cerro","Nicaragua","Stratovolcano",NA,NA,"México and Central America","Nicaragua",12.37,-86.02,300,NA,"Subduction zone / Continental crust (>25 km)","Pleistocene",75.7630182938554,-262.139002602727,312.477467858508,"cam"
"341",344805,"Tambor Grande","Nicaragua","Caldera",NA,NA,"México and Central America","Nicaragua",10.97,-84.08,648,NA,"Subduction zone / Intermediate crust (15-25 km)","Pleistocene",NA,NA,NA,"cam"
"342",345800,"Chopo, Cerro","Costa Rica","Pyroclastic cone",NA,NA,"México and Central America","Costa Rica",10.472,-85.07,402,NA,"Subduction zone / Continental crust (>25 km)","Pleistocene",42.6064169531943,-65.6188694257571,305.600233292388,"cam"
"343",345801,"Tilaran, Cerro","Costa Rica","Shield",NA,NA,"México and Central America","Costa Rica",10.451,-84.978,634,NA,"Subduction zone / Continental crust (>25 km)","Pleistocene",44.8218333322668,-69.2359212995027,306.042572025258,"cam"
"344",345802,"Perdidos, Los","Costa Rica","Caldera",NA,NA,"México and Central America","Costa Rica",10.403,-84.675,1357,NA,"Subduction zone / Continental crust (>25 km)","Pleistocene",53.1225115776823,-87.2757493076999,308.979756673481,"cam"
"345",345803,"Poco Sol, Laguna","Costa Rica","Explosion crater(?)",NA,NA,"México and Central America","Costa Rica",10.35,-84.67,789,NA,"Subduction zone / Continental crust (>25 km)","Pleistocene",51.7288844126501,-83.1775106747727,309.458150228773,"cam"
"346",345804,"San Miguel, Cerro","Costa Rica","Lava dome",NA,NA,"México and Central America","Costa Rica",10.022,-84.708,414,NA,"Subduction zone / Continental crust (>25 km)","Pleistocene",37.7024803474294,-52.5571543957931,308.938608815542,"cam"
"347",345805,"Mercedes, Cerro las","Costa Rica","Pyroclastic cone",NA,NA,"México and Central America","Costa Rica",10.97,-84.35,190,NA,"Intraplate / Continental crust (>25 km)","Pleistocene",69.7506281617146,-235.079732457525,300.824768050069,"cam"
"348",345806,"Negro, Cerro","Costa Rica","Shield",NA,NA,"México and Central America","Costa Rica",10.462,-83.855,136,NA,"Subduction zone / Continental crust (>25 km)","Pleistocene",59.6058349655043,-189.852869793016,298.97725422032,"cam"
"349",345807,"Colorado, Lomas de","Costa Rica","Shield(s)",NA,NA,"México and Central America","Costa Rica",10.658,-83.721,229,NA,"Subduction zone / Continental crust (>25 km)","Pleistocene",61.7860374510024,-233.835881687017,295.522969551517,"cam"
"350",345808,"Tortuguero","Costa Rica","Pyroclastic cone",NA,NA,"México and Central America","Costa Rica",10.586,-83.53,119,NA,"Unknown","Pleistocene",61.209331940131,-236.401726745396,292.145470507182,"cam"
"351",345809,"Sierpe, Lomas de","Costa Rica","Shield(s)",NA,NA,"México and Central America","Costa Rica",10.376,-83.545,311,NA,"Subduction zone / Continental crust (>25 km)","Pleistocene",59.8822174114874,-198.635696531655,290.450398763366,"cam"
"352",345810,"Durika","Costa Rica","Lava dome(s)",NA,NA,"México and Central America","Costa Rica",9.374,-83.302,3257,NA,"Subduction zone / Continental crust (>25 km)","Pleistocene",41.4505386453874,-78.741752689635,317.201934810633,"cam"
"353",345811,"Coco, Isla del","Costa Rica","Shield",NA,NA,"México and Central America","Costa Rica",5.53,-87.082,575,NA,"Intraplate / Oceanic crust (< 15 km)","Pleistocene",NA,NA,NA,"cam"
"354",346800,"Tisingal","Panama","Stratovolcano",NA,NA,"México and Central America","Panama",8.88,-82.67,2986,NA,"Subduction zone / Continental crust (>25 km)","Pleistocene",NA,NA,NA,"cam"
"355",346801,"Yeguada, La","Panama","Stratovolcano",NA,NA,"México and Central America","Panama",8.47,-80.82,1297,NA,"Subduction zone / Continental crust (>25 km)","Pleistocene",NA,NA,NA,"cam"
"356",351011,"Romeral","Colombia","Stratovolcano","Eruption Dated","5390 BCE","South America","Colombia",5.203,-75.363,3769,"Andesite / Basaltic Andesite","Subduction zone / Continental crust (>25 km)","Holocene",NA,NA,NA,"car"
"357",351012,"Bravo, Cerro","Colombia","Stratovolcano","Eruption Dated","1720 CE","South America","Colombia",5.091,-75.293,3985,"Dacite","Subduction zone / Continental crust (>25 km)","Holocene",NA,NA,NA,"car"
"358",351020,"Ruiz, Nevado del","Colombia","Stratovolcano","Eruption Observed","2019 CE","South America","Colombia",4.892,-75.324,5279,"Andesite / Basaltic Andesite","Subduction zone / Continental crust (>25 km)","Holocene",NA,NA,NA,"car"
"359",351021,"Santa Isabel","Colombia","Shield","Eruption Dated","850 BCE","South America","Colombia",4.818,-75.365,4944,"Andesite / Basaltic Andesite","Subduction zone / Continental crust (>25 km)","Holocene",NA,NA,NA,"car"
"360",351030,"Tolima, Nevado del","Colombia","Stratovolcano","Eruption Observed","1943 CE","South America","Colombia",4.658,-75.33,5215,"Andesite / Basaltic Andesite","Subduction zone / Continental crust (>25 km)","Holocene",NA,NA,NA,"car"
"361",351040,"Machin","Colombia","Stratovolcano","Eruption Dated","1180 CE","South America","Colombia",4.487,-75.389,2749,"Dacite","Subduction zone / Continental crust (>25 km)","Holocene",NA,NA,NA,"car"
"362",360010,"Saba","Netherlands","Stratovolcano","Eruption Observed","1640 CE","West Indies","West Indies",17.63,-63.23,887,"Andesite / Basaltic Andesite","Subduction zone / Oceanic crust (< 15 km)","Holocene",39.2657788353695,-81.9208288638975,119.989098439514,"car"
"363",360020,"Quill, The","Netherlands","Stratovolcano","Eruption Dated","250 CE","West Indies","West Indies",17.478,-62.96,601,"Andesite / Basaltic Andesite","Subduction zone / Oceanic crust (< 15 km)","Holocene",38.095000774842,-81.809007373528,121.985566027805,"car"
"364",360030,"Liamuiga","Saint Kitts and Nevis","Stratovolcano","Eruption Dated","160 CE","West Indies","West Indies",17.37,-62.8,1156,"Andesite / Basaltic Andesite","Subduction zone / Oceanic crust (< 15 km)","Holocene",37.55789564019,-82.6523487786646,125.13228098137,"car"
"365",360040,"Nevis Peak","Saint Kitts and Nevis","Stratovolcano","Evidence Uncertain","Unknown","West Indies","West Indies",17.15,-62.58,985,"Andesite / Basaltic Andesite","Subduction zone / Oceanic crust (< 15 km)","Holocene",37.9188511990132,-86.1895751370067,131.781071978332,"car"
"366",360050,"Soufriere Hills","United Kingdom","Stratovolcano","Eruption Observed","2013 CE","West Indies","West Indies",16.72,-62.18,915,"Andesite / Basaltic Andesite","Subduction zone / Oceanic crust (< 15 km)","Holocene",39.1172692865847,-88.0450481238653,139.870691937322,"car"
"367",360060,"Soufriere Guadeloupe","France","Stratovolcano","Eruption Observed","1977 CE","West Indies","West Indies",16.044,-61.664,1467,"Andesite / Basaltic Andesite","Subduction zone / Oceanic crust (< 15 km)","Holocene",39.965379064103,-88.9468027141823,144.472859699355,"car"
"368",360080,"Diables, Morne aux","Dominica","Lava dome(s)","Evidence Credible","Unknown","West Indies","West Indies",15.612,-61.43,861,"Andesite / Basaltic Andesite","Subduction zone / Oceanic crust (< 15 km)","Holocene",40.7341817112477,-93.7284392705689,150.613379578079,"car"
"369",360090,"Diablotins, Morne","Dominica","Stratovolcano","Evidence Uncertain","Unknown","West Indies","West Indies",15.503,-61.397,1430,"Andesite / Basaltic Andesite","Subduction zone / Oceanic crust (< 15 km)","Holocene",41.0848960779767,-96.247856080269,153.794433585089,"car"
"370",360100,"Trois Pitons, Morne","Dominica","Complex","Eruption Dated","920 CE","West Indies","West Indies",15.37,-61.33,1387,"Andesite / Basaltic Andesite","Subduction zone / Oceanic crust (< 15 km)","Holocene",40.8621665020504,-95.7957161227161,158.466761259025,"car"
"371",360101,"Watt, Morne","Dominica","Stratovolcano(es)","Eruption Observed","1997 CE","West Indies","West Indies",15.307,-61.305,1224,"Andesite / Basaltic Andesite","Subduction zone / Oceanic crust (< 15 km)","Holocene",40.6936530975348,-95.1253432674141,160.930633531556,"car"
"372",360110,"Plat Pays, Morne","Dominica","Stratovolcano","Eruption Dated","1270 CE","West Indies","West Indies",15.255,-61.341,940,"Dacite","Subduction zone / Oceanic crust (< 15 km)","Holocene",41.2679926485176,-99.6114552255456,162.328669215792,"car"
"373",360120,"Pelee","France","Stratovolcano","Eruption Observed","1932 CE","West Indies","West Indies",14.809,-61.165,1394,"Andesite / Basaltic Andesite","Subduction zone / Oceanic crust (< 15 km)","Holocene",39.0377269246318,-91.7565188522395,177.006381547781,"car"
"374",360140,"Qualibou","Saint Lucia","Caldera","Eruption Observed","1766 CE","West Indies","West Indies",13.83,-61.05,777,"Andesite / Basaltic Andesite","Subduction zone / Oceanic crust (< 15 km)","Holocene",30.4108556001682,-75.7172647888793,187.829717001073,"car"
"375",360150,"Soufriere St. Vincent","Saint Vincent and the Grenadines","Stratovolcano","Eruption Observed","1979 CE","West Indies","West Indies",13.33,-61.18,1220,"Andesite / Basaltic Andesite","Subduction zone / Oceanic crust (< 15 km)","Holocene",32.5296221712821,-80.2619687997378,187.89229667857,"car"
"376",360160,"Kick 'em Jenny","Grenada","Submarine","Eruption Observed","2017 CE","West Indies","West Indies",12.3,-61.64,-185,"Basalt / Picro-Basalt","Subduction zone / Oceanic crust (< 15 km)","Holocene",34.5856081616047,-81.9944483394895,214.343358351373,"car"
"377",360170,"St. Catherine","Grenada","Stratovolcano","Evidence Credible","Unknown","West Indies","West Indies",12.15,-61.67,840,"Andesite / Basaltic Andesite","Subduction zone / Oceanic crust (< 15 km)","Holocene",32.9714101130317,-77.5911966923462,215.30463154918,"car"
"378",351001,"San Diego","Colombia","Maar",NA,NA,"South America","Colombia",5.65,-74.961,1163,NA,"","Pleistocene",NA,NA,NA,"car"
"379",351002,"Escondido, El","Colombia","Lava dome",NA,NA,"South America","Colombia",5.514,-75.043,1620,NA,"","Pleistocene",NA,NA,NA,"car"
"380",351800,"Santa Rosa","Colombia","Shield",NA,NA,"South America","Colombia",4.8,-75.458,4584,NA,"Subduction zone / Continental crust (>25 km)","Pleistocene",NA,NA,NA,"car"
"381",351801,"Quindio, Nevado del","Colombia","Stratovolcano",NA,NA,"South America","Colombia",4.701,-75.386,4756,NA,"Subduction zone / Continental crust (>25 km)","Pleistocene",NA,NA,NA,"car"
"382",360800,"Vigie, Morne la","Haiti","Pyroclastic cone",NA,NA,"West Indies","West Indies",18.78,-72.28,831,NA,"Subduction zone / Continental crust (>25 km)","Pleistocene",NA,NA,NA,"car"
"383",360801,"Thomazeau","Haiti","Pyroclastic cone(s)",NA,NA,"West Indies","West Indies",18.68,-72.08,0,NA,"Subduction zone / Continental crust (>25 km)","Pleistocene",NA,NA,NA,"car"
"384",360802,"San Juan","Dominican Republic","Pyroclastic cone(s)",NA,NA,"West Indies","West Indies",18.87,-71.33,0,NA,"Subduction zone / Continental crust (>25 km)","Pleistocene",NA,NA,NA,"car"
"385",360803,"Dos Hermanos","Dominican Republic","Volcanic field",NA,NA,"West Indies","West Indies",18.75,-70.92,0,NA,"Subduction zone / Continental crust (>25 km)","Pleistocene",33.1456209749058,-55.2313753377924,91.0696411235339,"car"
"386",360804,"Valle Nuevo","Dominican Republic","Volcanic field",NA,NA,"West Indies","West Indies",18.83,-70.67,0,NA,"Subduction zone / Continental crust (>25 km)","Pleistocene",33.5570949869866,-48.6878763426289,92.0156614626396,"car"
"387",360805,"South East Range","Saint Kitts and Nevis","Stratovolcano",NA,NA,"West Indies","West Indies",17.33,-62.77,900,NA,"Subduction zone / Oceanic crust (< 15 km)","Pleistocene",37.6384887502147,-83.392617908954,126.112447098362,"car"
"388",360806,"Northern Centres","Netherlands","Stratovolcano(es)",NA,NA,"West Indies","West Indies",17.508,-62.992,0,NA,"Subduction zone / Oceanic crust (< 15 km)","Pleistocene",38.3513221509662,-82.0108947171589,121.607688899233,"car"
"389",360807,"Silver Hills","United Kingdom","Lava dome(s)",NA,NA,"West Indies","West Indies",16.81,-62.194,403,NA,"Subduction zone / Oceanic crust (< 15 km)","Pleistocene",37.5387992672295,-83.4050241540914,139.314203899968,"car"
"390",360808,"Centre Hills","United Kingdom","Lava dome(s)",NA,NA,"West Indies","West Indies",16.759,-62.196,741,NA,"Subduction zone / Oceanic crust (< 15 km)","Pleistocene",38.4905776797049,-86.232620180781,139.522486370832,"car"
"391",360809,"Septentrional Chain","France","Lava dome(s)",NA,NA,"West Indies","West Indies",16.23,-61.72,744,NA,"Subduction zone / Oceanic crust (< 15 km)","Pleistocene",38.3098284227758,-82.7559618900312,143.924887762651,"car"
"392",360810,"Axial Chain","France","Stratovolcano(es)",NA,NA,"West Indies","West Indies",16.12,-61.7,1354,NA,"Subduction zone / Oceanic crust (< 15 km)","Pleistocene",39.7035980064749,-87.7474822399447,144.220265705497,"car"
"393",360811,"Bouillante Chain","France","Maar(s)",NA,NA,"West Indies","West Indies",16.12,-61.75,420,NA,"Subduction zone / Oceanic crust (< 15 km)","Pleistocene",40.6232414097119,-91.4050292349797,144.181894936933,"car"
"394",360812,"Caraïbes, Monts","France","Stratovolcano",NA,NA,"West Indies","West Indies",15.97,-61.68,687,NA,"Subduction zone / Oceanic crust (< 15 km)","Pleistocene",41.2077488243201,-94.7985423831371,144.810231524855,"car"
"395",360813,"Terre de Bas","France","Stratovolcano(es)",NA,NA,"West Indies","West Indies",15.87,-61.63,274,NA,"Subduction zone / Oceanic crust (< 15 km)","Pleistocene",41.4319220535099,-96.5296214843779,145.562779742008,"car"
"396",360814,"Foundland","Dominica","Stratovolcano",NA,NA,"West Indies","West Indies",15.27,-61.28,960,NA,"Subduction zone / Oceanic crust (< 15 km)","Pleistocene",40.5542343901216,-94.6747698771228,162.171417222273,"car"
"397",360815,"Carbets, Pitons de","France","Stratovolcano",NA,NA,"West Indies","West Indies",14.7,-61.12,1196,NA,"Subduction zone / Oceanic crust (< 15 km)","Pleistocene",37.7306607480327,-87.7674153268579,179.968414290359,"car"
