"","volcano.number","volcano.name","country","primary.volcano.type","activity.evidence","last.known.eruption","region","subregion","lat","long","elevation","dominant.rock.type","tectonic.setting","file","slab.dip","slab.depth","slab.strike","slab"
"1",311070,"Gareloi","United States","Stratovolcano","Eruption Observed","1989 CE","Alaska","Aleutian Islands",51.79,-178.794,1573,"Basalt / Picro-Basalt","Subduction zone / Intermediate crust (15-25 km)","Holocene",50.0416946411133,-73.0919952392578,265.041381835938,"alu"
"2",311080,"Tanaga","United States","Stratovolcano(es)","Eruption Observed","1914 CE","Alaska","Aleutian Islands",51.885,-178.146,1806,"Basalt / Picro-Basalt","Subduction zone / Intermediate crust (15-25 km)","Holocene",54.2162399291992,-82.264518737793,264.088684082031,"alu"
"3",311090,"Takawangha","United States","Stratovolcano","Eruption Dated","1550 CE","Alaska","Aleutian Islands",51.873,-178.006,1449,"Basalt / Picro-Basalt","Subduction zone / Intermediate crust (15-25 km)","Holocene",53.0915107727051,-78.2655715942383,263.780548095703,"alu"
"4",311100,"Bobrof","United States","Stratovolcano","Evidence Uncertain","Unknown","Alaska","Aleutian Islands",51.91,-177.438,738,"Basalt / Picro-Basalt","Subduction zone / Intermediate crust (15-25 km)","Holocene",53.6174545288086,-80.4519195556641,264.961273193359,"alu"
"5",311110,"Kanaga","United States","Stratovolcano","Eruption Observed","2012 CE","Alaska","Aleutian Islands",51.923,-177.168,1307,"Andesite / Basaltic Andesite","Subduction zone / Intermediate crust (15-25 km)","Holocene",53.0535316467285,-78.4041137695312,265.318420410156,"alu"
"6",311111,"Moffett","United States","Stratovolcano","Eruption Dated","1600 BCE","Alaska","Aleutian Islands",51.944,-176.747,1196,"Andesite / Basaltic Andesite","Subduction zone / Intermediate crust (15-25 km)","Holocene",54.1111221313477,-79.7398452758789,263.374664306641,"alu"
"7",311120,"Great Sitkin","United States","Stratovolcano","Eruption Observed","2019 CE","Alaska","Aleutian Islands",52.076,-176.13,1740,"Andesite / Basaltic Andesite","Subduction zone / Intermediate crust (15-25 km)","Holocene",57.1000938415527,-91.0485763549805,258.445556640625,"alu"
"8",311130,"Kasatochi","United States","Stratovolcano","Eruption Observed","2008 CE","Alaska","Aleutian Islands",52.177,-175.508,314,"Basalt / Picro-Basalt","Subduction zone / Intermediate crust (15-25 km)","Holocene",56.8181381225586,-96.4794769287109,263.215454101562,"alu"
"9",311140,"Koniuji","United States","Stratovolcano","Eruption Dated","1150 BCE","Alaska","Aleutian Islands",52.22,-175.13,273,"Andesite / Basaltic Andesite","Subduction zone / Intermediate crust (15-25 km)","Holocene",56.3437461853027,-98.977653503418,267.022796630859,"alu"
"10",311160,"Atka","United States","Stratovolcano(es)","Eruption Observed","1812 CE","Alaska","Aleutian Islands",52.331,-174.139,1448,"Basalt / Picro-Basalt","Subduction zone / Intermediate crust (15-25 km)","Holocene",55.8247222900391,-111.208709716797,261.865203857422,"alu"
"11",311161,"Korovin","United States","Stratovolcano(es)","Eruption Observed","2007 CE","Alaska","Aleutian Islands",52.381,-174.166,1518,"Basalt / Picro-Basalt","Subduction zone / Continental crust (>25 km)","Holocene",56.9433250427246,-119.984939575195,261.646759033203,"alu"
"12",311180,"Seguam","United States","Stratovolcano(es)","Eruption Observed","1993 CE","Alaska","Aleutian Islands",52.315,-172.51,1054,"Andesite / Basaltic Andesite","Subduction zone / Intermediate crust (15-25 km)","Holocene",48.5915603637695,-80.9220733642578,254.993286132812,"alu"
"13",311190,"Amukta","United States","Stratovolcano","Eruption Observed","1997 CE","Alaska","Aleutian Islands",52.5,-171.252,1066,"Andesite / Basaltic Andesite","Subduction zone / Intermediate crust (15-25 km)","Holocene",47.1658668518066,-72.2523422241211,252.607131958008,"alu"
"14",311200,"Chagulak","United States","Stratovolcano","Evidence Credible","Unknown","Alaska","Aleutian Islands",52.577,-171.13,1142,"Andesite / Basaltic Andesite","Subduction zone / Intermediate crust (15-25 km)","Holocene",49.7483673095703,-79.6987838745117,253.169509887695,"alu"
"15",311210,"Yunaska","United States","Shield","Eruption Observed","1937 CE","Alaska","Aleutian Islands",52.643,-170.629,550,"Andesite / Basaltic Andesite","Subduction zone / Intermediate crust (15-25 km)","Holocene",50.2188377380371,-74.806510925293,248.095367431641,"alu"
"16",311220,"Herbert","United States","Stratovolcano","Evidence Credible","Unknown","Alaska","Aleutian Islands",52.742,-170.111,1280,"Andesite / Basaltic Andesite","Subduction zone / Intermediate crust (15-25 km)","Holocene",49.2152099609375,-70.1401290893555,245.129943847656,"alu"
"17",311230,"Carlisle","United States","Stratovolcano","Eruption Observed","1828 CE","Alaska","Aleutian Islands",52.894,-170.054,1620,"Andesite / Basaltic Andesite","Subduction zone / Intermediate crust (15-25 km)","Holocene",53.0275192260742,-86.5520095825195,244.282257080078,"alu"
"18",311240,"Cleveland","United States","Stratovolcano","Eruption Observed","2019 CE","Alaska","Aleutian Islands",52.825,-169.944,1730,"Andesite / Basaltic Andesite","Subduction zone / Intermediate crust (15-25 km)","Holocene",49.5009536743164,-72.5221481323242,245.216979980469,"alu"
"19",311241,"Tana","United States","Stratovolcano(es)","Evidence Credible","Unknown","Alaska","Aleutian Islands",52.83,-169.77,1170,"Rhyolite","Subduction zone / Intermediate crust (15-25 km)","Holocene",47.9009323120117,-68.6469802856445,245.889221191406,"alu"
"20",311250,"Uliaga","United States","Stratovolcano","Evidence Credible","Unknown","Alaska","Aleutian Islands",53.065,-169.77,888,"No Data (checked)","Subduction zone / Intermediate crust (15-25 km)","Holocene",53.8486976623535,-97.8787307739258,243.706634521484,"alu"
"21",311260,"Kagamil","United States","Stratovolcano","Eruption Observed","1929 CE","Alaska","Aleutian Islands",52.974,-169.72,893,"No Data (checked)","Subduction zone / Intermediate crust (15-25 km)","Holocene",51.1637153625488,-82.8834991455078,244.956329345703,"alu"
"22",311270,"Vsevidof","United States","Stratovolcano","Eruption Observed","1878 CE","Alaska","Aleutian Islands",53.13,-168.693,2149,"Andesite / Basaltic Andesite","Subduction zone / Intermediate crust (15-25 km)","Holocene",46.2280082702637,-69.2907028198242,248.033996582031,"alu"
"23",311280,"Recheschnoi","United States","Stratovolcano","Evidence Credible","Unknown","Alaska","Aleutian Islands",53.157,-168.539,1984,"Andesite / Basaltic Andesite","Subduction zone / Intermediate crust (15-25 km)","Holocene",45.1842765808105,-66.9256134033203,249.546585083008,"alu"
"24",311290,"Okmok","United States","Shield","Eruption Observed","2008 CE","Alaska","Aleutian Islands",53.43,-168.13,1073,"Basalt / Picro-Basalt","Subduction zone / Intermediate crust (15-25 km)","Holocene",49.2884979248047,-89.2145462036133,248.724197387695,"alu"
"25",311300,"Bogoslof","United States","Submarine","Eruption Observed","2017 CE","Alaska","Aleutian Islands",53.93,-168.03,150,"Trachyandesite / Basaltic Trachyandesite","Subduction zone / Intermediate crust (15-25 km)","Holocene",49.6977577209473,-146.210662841797,240.109069824219,"alu"
"26",311310,"Makushin","United States","Stratovolcano","Eruption Observed","1995 CE","Alaska","Aleutian Islands",53.891,-166.923,1800,"Andesite / Basaltic Andesite","Subduction zone / Intermediate crust (15-25 km)","Holocene",47.2526435852051,-87.374397277832,235.998870849609,"alu"
"27",311320,"Akutan","United States","Stratovolcano","Eruption Observed","1992 CE","Alaska","Aleutian Islands",54.134,-165.986,1303,"Basalt / Picro-Basalt","Subduction zone / Intermediate crust (15-25 km)","Holocene",43.3919944763184,-79.9773788452148,242.241317749023,"alu"
"28",311340,"Westdahl","United States","Stratovolcano?","Eruption Observed","1992 CE","Alaska","Aleutian Islands",54.516,-164.65,1563,"Basalt / Picro-Basalt","Subduction zone / Continental crust (>25 km)","Holocene",43.6443138122559,-86.682487487793,250.183898925781,"alu"
"29",311350,"Fisher","United States","Stratovolcano","Eruption Observed","1830 CE","Alaska","Aleutian Islands",54.65,-164.43,1112,"Andesite / Basaltic Andesite","Subduction zone / Continental crust (>25 km)","Holocene",45.5092124938965,-95.2672882080078,247.074890136719,"alu"
"30",311360,"Shishaldin","United States","Stratovolcano","Eruption Observed","2019 CE","Alaska","Aleutian Islands",54.756,-163.97,2857,"Basalt / Picro-Basalt","Subduction zone / Continental crust (>25 km)","Holocene",45.4228210449219,-92.6541366577148,243.736373901367,"alu"
"31",311370,"Isanotski","United States","Stratovolcano","Evidence Uncertain","Unknown","Alaska","Aleutian Islands",54.765,-163.723,2446,"No Data (checked)","Subduction zone / Continental crust (>25 km)","Holocene",44.8830909729004,-87.0552139282227,242.503219604492,"alu"
"32",311380,"Roundtop","United States","Stratovolcano","Eruption Dated","7600 BCE","Alaska","Aleutian Islands",54.8,-163.589,1871,"Rhyolite","Subduction zone / Continental crust (>25 km)","Holocene",45.0367698669434,-86.3256072998047,241.852798461914,"alu"
"33",311390,"Amak","United States","Stratovolcano","Eruption Observed","1796 CE","Alaska","Aleutian Islands",55.424,-163.149,488,"Andesite / Basaltic Andesite","Subduction zone / Continental crust (>25 km)","Holocene",51.1848411560059,-138.230331420898,236.913986206055,"alu"
"34",312010,"Frosty","United States","Stratovolcano(es)","Evidence Credible","Unknown","Alaska","Alaska Peninsula",55.067,-162.835,1728,"Andesite / Basaltic Andesite","Subduction zone / Continental crust (>25 km)","Holocene",45.162036895752,-88.3759689331055,238.474060058594,"alu"
"35",312011,"Dutton","United States","Stratovolcano","Evidence Credible","Unknown","Alaska","Alaska Peninsula",55.183,-162.276,1465,"Andesite / Basaltic Andesite","Subduction zone / Continental crust (>25 km)","Holocene",41.4887657165527,-81.9763259887695,241.169692993164,"alu"
"36",312020,"Emmons Lake","United States","Caldera","Evidence Credible","Unknown","Alaska","Alaska Peninsula",55.341,-162.073,1436,"Andesite / Basaltic Andesite","Subduction zone / Continental crust (>25 km)","Holocene",42.6004600524902,-89.5350341796875,243.563079833984,"alu"
"37",312030,"Pavlof","United States","Stratovolcano","Eruption Observed","2016 CE","Alaska","Alaska Peninsula",55.417,-161.894,2493,"Andesite / Basaltic Andesite","Subduction zone / Continental crust (>25 km)","Holocene",42.995677947998,-93.0838623046875,245.371887207031,"alu"
"38",312040,"Pavlof Sister","United States","Stratovolcano","Evidence Credible","Unknown","Alaska","Alaska Peninsula",55.457,-161.854,2142,"Basalt / Picro-Basalt","Subduction zone / Continental crust (>25 km)","Holocene",43.3494529724121,-95.0075225830078,245.727615356445,"alu"
"39",312050,"Dana","United States","Stratovolcano","Eruption Dated","1890 BCE","Alaska","Alaska Peninsula",55.641,-161.214,1354,"Andesite / Basaltic Andesite","Subduction zone / Continental crust (>25 km)","Holocene",43.4400253295898,-97.2649078369141,245.60563659668,"alu"
"40",312051,"Stepovak Bay 2","United States","Pyroclastic cone","Evidence Credible","Unknown","Alaska","Alaska Peninsula",55.913,-160.041,1323,"Andesite / Basaltic Andesite","Subduction zone / Continental crust (>25 km)","Holocene",46.0779876708984,-94.5230102539062,239.773101806641,"alu"
"41",312052,"Stepovak Bay 3","United States","Pyroclastic cone","Evidence Uncertain","Unknown","Alaska","Alaska Peninsula",55.929,-160.002,1555,"Andesite / Basaltic Andesite","Subduction zone / Continental crust (>25 km)","Holocene",46.2489318847656,-95.0943450927734,239.470596313477,"alu"
"42",312053,"Stepovak Bay 4","United States","Stratovolcano","Evidence Credible","Unknown","Alaska","Alaska Peninsula",55.954,-159.954,1557,"No Data (checked)","Subduction zone / Continental crust (>25 km)","Holocene",46.2753791809082,-95.0750579833984,239.092025756836,"alu"
"43",312060,"Kupreanof","United States","Stratovolcano","Eruption Observed","1987 CE","Alaska","Alaska Peninsula",56.011,-159.797,1895,"Andesite / Basaltic Andesite","Subduction zone / Continental crust (>25 km)","Holocene",46.555362701416,-96.5940628051758,237.581939697266,"alu"
"44",312070,"Veniaminof","United States","Stratovolcano","Eruption Observed","2018 CE","Alaska","Alaska Peninsula",56.17,-159.38,2507,"Andesite / Basaltic Andesite","Subduction zone / Continental crust (>25 km)","Holocene",46.5970726013184,-94.503303527832,227.759902954102,"alu"
"45",312080,"Black Peak","United States","Stratovolcano","Eruption Dated","1900 BCE","Alaska","Alaska Peninsula",56.552,-158.785,1032,"Andesite / Basaltic Andesite","Subduction zone / Continental crust (>25 km)","Holocene",45.3400344848633,-93.0280303955078,216.910232543945,"alu"
"46",312090,"Aniakchak","United States","Caldera","Eruption Observed","1931 CE","Alaska","Alaska Peninsula",56.88,-158.17,1341,"Andesite / Basaltic Andesite","Subduction zone / Continental crust (>25 km)","Holocene",37.2613105773926,-90.0094223022461,226.625091552734,"alu"
"47",312100,"Yantarni","United States","Stratovolcano","Eruption Dated","800 BCE","Alaska","Alaska Peninsula",57.019,-157.185,1345,"Andesite / Basaltic Andesite","Subduction zone / Continental crust (>25 km)","Holocene",31.0269775390625,-71.6449966430664,229.337768554688,"alu"
"48",312110,"Chiginagak","United States","Stratovolcano","Eruption Observed","1998 CE","Alaska","Alaska Peninsula",57.135,-156.99,2221,"Andesite / Basaltic Andesite","Subduction zone / Continental crust (>25 km)","Holocene",32.0908432006836,-72.9599914550781,230.662078857422,"alu"
"49",312120,"Kialagvik","United States","Stratovolcano","Evidence Credible","Unknown","Alaska","Alaska Peninsula",57.203,-156.745,1677,"Andesite / Basaltic Andesite","Subduction zone / Continental crust (>25 km)","Holocene",31.9995231628418,-71.0438079833984,231.648178100586,"alu"
"50",312130,"Ugashik-Peulik","United States","Stratovolcano","Eruption Observed","1814 CE","Alaska","Alaska Peninsula",57.751,-156.368,1474,"Andesite / Basaltic Andesite","Subduction zone / Continental crust (>25 km)","Holocene",40.2555274963379,-94.3184585571289,225.161437988281,"alu"
"51",312131,"Ukinrek Maars","United States","Maar(s)","Eruption Observed","1977 CE","Alaska","Alaska Peninsula",57.832,-156.51,91,"Basalt / Picro-Basalt","Subduction zone / Continental crust (>25 km)","Holocene",42.3331413269043,-105.623481750488,226.485137939453,"alu"
"52",312132,"Unnamed","United States","Lava dome","Evidence Credible","Unknown","Alaska","Alaska Peninsula",57.87,-155.411,402,"No Data (checked)","Subduction zone / Continental crust (>25 km)","Holocene",32.3869895935059,-70.0058212280273,223.884506225586,"alu"
"53",312140,"Martin","United States","Stratovolcano","Eruption Dated","1953 CE","Alaska","Alaska Peninsula",58.172,-155.361,1863,"Dacite","Subduction zone / Continental crust (>25 km)","Holocene",37.632625579834,-84.7207717895508,223.213745117188,"alu"
"54",312150,"Mageik","United States","Stratovolcano","Eruption Dated","500 BCE","Alaska","Alaska Peninsula",58.195,-155.253,2165,"Andesite / Basaltic Andesite","Subduction zone / Continental crust (>25 km)","Holocene",37.5095634460449,-82.781623840332,222.121398925781,"alu"
"55",312160,"Trident","United States","Stratovolcano","Eruption Observed","1974 CE","Alaska","Alaska Peninsula",58.236,-155.1,1864,"Andesite / Basaltic Andesite","Subduction zone / Continental crust (>25 km)","Holocene",37.2594604492188,-79.614372253418,220.424942016602,"alu"
"56",312170,"Katmai","United States","Stratovolcano","Eruption Observed","1912 CE","Alaska","Alaska Peninsula",58.28,-154.963,2047,"Andesite / Basaltic Andesite","Subduction zone / Continental crust (>25 km)","Holocene",37.2498512268066,-77.7468872070312,218.971084594727,"alu"
"57",312180,"Novarupta","United States","Caldera","Eruption Observed","1912 CE","Alaska","Alaska Peninsula",58.27,-155.157,841,"Rhyolite","Subduction zone / Continental crust (>25 km)","Holocene",38.1185836791992,-83.1953506469727,220.787948608398,"alu"
"58",312190,"Griggs","United States","Stratovolcano","Eruption Dated","1790 BCE","Alaska","Alaska Peninsula",58.354,-155.092,2317,"Andesite / Basaltic Andesite","Subduction zone / Continental crust (>25 km)","Holocene",39.2596817016602,-86.2065582275391,219.857864379883,"alu"
"59",312200,"Snowy Mountain","United States","Stratovolcano(es)","Eruption Dated","1710 CE","Alaska","Alaska Peninsula",58.336,-154.682,2162,"Andesite / Basaltic Andesite","Subduction zone / Continental crust (>25 km)","Holocene",35.1215362548828,-70.6858978271484,217.491302490234,"alu"
"60",312210,"Denison","United States","Stratovolcano","Evidence Uncertain","Unknown","Alaska","Alaska Peninsula",58.418,-154.449,2287,"Andesite / Basaltic Andesite","Subduction zone / Continental crust (>25 km)","Holocene",33.2578010559082,-67.0979309082031,216.556976318359,"alu"
"61",312220,"Steller","United States","Stratovolcano","Evidence Credible","Unknown","Alaska","Alaska Peninsula",58.43,-154.4,2272,"Andesite / Basaltic Andesite","Subduction zone / Continental crust (>25 km)","Holocene",32.8259506225586,-66.2901382446289,216.253204345703,"alu"
"62",312230,"Kukak","United States","Stratovolcano","Unrest / Holocene","Unknown","Alaska","Alaska Peninsula",58.453,-154.355,2043,"Andesite / Basaltic Andesite","Subduction zone / Continental crust (>25 km)","Holocene",32.4140281677246,-65.4788055419922,215.881088256836,"alu"
"63",312250,"Kaguyak","United States","Lava dome(s)","Eruption Dated","3850 BCE","Alaska","Alaska Peninsula",58.608,-154.028,901,"Dacite","Subduction zone / Continental crust (>25 km)","Holocene",31.2386569976807,-61.8154678344727,211.888244628906,"alu"
"64",312260,"Fourpeaked","United States","Stratovolcano","Eruption Observed","2006 CE","Alaska","Alaska Peninsula",58.77,-153.672,2105,"Andesite / Basaltic Andesite","Subduction zone / Continental crust (>25 km)","Holocene",29.4204502105713,-56.5693855285645,209.534393310547,"alu"
"65",312270,"Douglas","United States","Stratovolcano","Evidence Credible","Unknown","Alaska","Alaska Peninsula",58.855,-153.542,2140,"Andesite / Basaltic Andesite","Subduction zone / Continental crust (>25 km)","Holocene",29.1492233276367,-55.8520736694336,209.891952514648,"alu"
"66",313010,"Augustine","United States","Lava dome(s)","Eruption Observed","2006 CE","Alaska","Alaska (southwestern)",59.363,-153.43,1252,"Andesite / Basaltic Andesite","Subduction zone / Continental crust (>25 km)","Holocene",38.0588645935059,-72.509162902832,214.123931884766,"alu"
"67",313020,"Iliamna","United States","Stratovolcano","Eruption Observed","1876 CE","Alaska","Alaska (southwestern)",60.032,-153.09,3053,"Andesite / Basaltic Andesite","Subduction zone / Continental crust (>25 km)","Holocene",47.7032203674316,-91.7853393554688,203.948501586914,"alu"
"68",313030,"Redoubt","United States","Stratovolcano","Eruption Observed","2009 CE","Alaska","Alaska (southwestern)",60.485,-152.742,3108,"Andesite / Basaltic Andesite","Subduction zone / Continental crust (>25 km)","Holocene",50.030101776123,-90.2158126831055,195.110412597656,"alu"
"69",313040,"Spurr","United States","Stratovolcano","Eruption Observed","1992 CE","Alaska","Alaska (southwestern)",61.299,-152.251,3374,"Andesite / Basaltic Andesite","Subduction zone / Continental crust (>25 km)","Holocene",47.0811080932617,-84.4514770507812,192.899688720703,"alu"
"70",313050,"Hayes","United States","Stratovolcano","Eruption Dated","1200 CE","Alaska","Alaska (southwestern)",61.64,-152.411,3034,"Dacite","Subduction zone / Continental crust (>25 km)","Holocene",53.1815452575684,-104.437774658203,191.927337646484,"alu"
"71",314010,"St. Paul Island","United States","Shield","Eruption Dated","1280 BCE","Alaska","Alaska (western)",57.18,-170.3,203,"Trachybasalt / Tephrite Basanite","Intraplate / Continental crust (>25 km)","Holocene",NA,NA,NA,"alu"
"72",314030,"Ingakslugwat Hills","United States","Pyroclastic cone(s)","Evidence Credible","Unknown","Alaska","Alaska (western)",61.43,-164.47,190,"Basalt / Picro-Basalt","Intraplate / Continental crust (>25 km)","Holocene",NA,NA,NA,"alu"
"73",314040,"St. Michael","United States","Shield(s)","Evidence Credible","Unknown","Alaska","Alaska (western)",63.45,-162.12,715,"Basalt / Picro-Basalt","Intraplate / Continental crust (>25 km)","Holocene",NA,NA,NA,"alu"
"74",314060,"Imuruk Lake","United States","Shield(s)","Eruption Dated","300 CE","Alaska","Alaska (western)",65.517,-163.45,610,"Basalt / Picro-Basalt","Intraplate / Continental crust (>25 km)","Holocene",NA,NA,NA,"alu"
"75",315001,"Buzzard Creek","United States","Tuff ring(s)","Eruption Dated","1050 BCE","Alaska","Alaska (eastern)",64.062,-148.433,830,"Basalt / Picro-Basalt","Subduction zone / Continental crust (>25 km)","Holocene",42.8581809997559,-109.356086730957,218.887283325195,"alu"
"76",315020,"Wrangell","United States","Shield","Eruption Observed","1912 CE","Alaska","Alaska (eastern)",62.006,-144.017,4278,"Andesite / Basaltic Andesite","Intraplate / Continental crust (>25 km)","Holocene",18.7188491821289,-45.1476020812988,292.157897949219,"alu"
"77",315030,"Churchill","United States","Stratovolcano","Eruption Dated","847 CE","Alaska","Alaska (eastern)",61.38,-141.75,5005,"Dacite","Intraplate / Continental crust (>25 km)","Holocene",8.23090934753418,-13.4094743728638,262.056243896484,"alu"
"78",315040,"Edgecumbe","United States","Stratovolcano(es)","Eruption Dated","2220 BCE","Alaska","Alaska (eastern)",57.05,-135.75,970,"Andesite / Basaltic Andesite","Intraplate / Continental crust (>25 km)","Holocene",NA,NA,NA,"alu"
"79",320010,"Fort Selkirk","Canada","Volcanic field","Evidence Uncertain","Unknown","Canada and Western USA","Canada",62.93,-137.38,1239,"Trachybasalt / Tephrite Basanite","Intraplate / Continental crust (>25 km)","Holocene",NA,NA,NA,"alu"
"80",320020,"Alligator Lake","Canada","Volcanic field","Evidence Credible","Unknown","Canada and Western USA","Canada",60.42,-135.42,2217,"Basalt / Picro-Basalt","Intraplate / Continental crust (>25 km)","Holocene",NA,NA,NA,"alu"
"81",311150,"Sergief","United States","Stratovolcano",NA,NA,"Alaska","Aleutian Islands",52.05,-174.95,560,NA,"Subduction zone / Intermediate crust (15-25 km)","Pleistocene",50.3430404663086,-73.1882781982422,268.713989257812,"alu"
"82",311800,"Adagdak","United States","Stratovolcano",NA,NA,"Alaska","Aleutian Islands",51.988,-176.592,610,NA,"Subduction zone / Intermediate crust (15-25 km)","Pleistocene",55.2090225219727,-83.1469039916992,261.89599609375,"alu"
"83",311801,"Table Top","United States","Pyroclastic cone",NA,NA,"Alaska","Aleutian Islands",53.967,-166.679,792,NA,"Subduction zone / Intermediate crust (15-25 km)","Pleistocene",46.4919128417969,-86.8704605102539,238.213912963867,"alu"
"84",311802,"Wide Bay","United States","Pyroclastic cone",NA,NA,"Alaska","Aleutian Islands",53.961,-166.615,640,NA,"Subduction zone / Continental crust (>25 km)","Pleistocene",45.7715873718262,-84.4943237304688,238.585464477539,"alu"
"85",311803,"Gilbert","United States","Stratovolcano",NA,NA,"Alaska","Aleutian Islands",54.25,-165.65,818,NA,"Subduction zone / Intermediate crust (15-25 km)","Pleistocene",43.3281288146973,-81.9004974365234,245.339126586914,"alu"
"86",312801,"Trader Mountain","United States","Stratovolcano",NA,NA,"Alaska","Alaska Peninsula",55.565,-161.944,775,NA,"Subduction zone / Continental crust (>25 km)","Pleistocene",46.0773086547852,-109.346641540527,244.843170166016,"alu"
"87",312802,"Stepovak Bay 1","United States","Stratovolcano",NA,NA,"Alaska","Alaska Peninsula",55.868,-160.096,1320,NA,"Subduction zone / Continental crust (>25 km)","Pleistocene",45.2628707885742,-91.7074813842773,240.431488037109,"alu"
"88",312803,"Blue Mountain","United States","Lava dome(s)",NA,NA,"Alaska","Alaska Peninsula",57.72,-157.83,541,NA,"Subduction zone / Continental crust (>25 km)","Pleistocene",47.7903022766113,-142.563751220703,233.604766845703,"alu"
"89",312804,"Gertrude Creek","United States","Pyroclastic cone",NA,NA,"Alaska","Alaska Peninsula",58.034,-156.146,437,NA,"Subduction zone / Continental crust (>25 km)","Pleistocene",43.8347396850586,-105.21427154541,221.283264160156,"alu"
"90",312805,"Devils Desk","United States","Stratovolcano",NA,NA,"Alaska","Alaska Peninsula",58.474,-154.306,1955,NA,"Subduction zone / Continental crust (>25 km)","Pleistocene",32.0215187072754,-64.6765441894531,215.441360473633,"alu"
"91",312806,"Savonovski River Cluster","United States","Stratovolcano(es)",NA,NA,"Alaska","Alaska Peninsula",58.55,-154.5,1298,NA,"Subduction zone / Continental crust (>25 km)","Pleistocene",36.5173950195312,-74.7885665893555,215.035263061523,"alu"
"92",313800,"Double Glacier","United States","Lava dome(s)",NA,NA,"Alaska","Alaska (southwestern)",60.68,-152.62,1239,NA,"Subduction zone / Continental crust (>25 km)","Pleistocene",49.4725532531738,-88.4181365966797,193.843994140625,"alu"
"93",314020,"Nunivak Island","United States","Shield",NA,NA,"Alaska","Alaska (western)",60.02,-166.33,511,NA,"Intraplate / Continental crust (>25 km)","Pleistocene",NA,NA,NA,"alu"
"94",314050,"Kookooligit Mountains","United States","Shield",NA,NA,"Alaska","Alaska (western)",63.6,-170.43,673,NA,"Intraplate / Continental crust (>25 km)","Pleistocene",NA,NA,NA,"alu"
"95",314800,"St. George","United States","Volcanic field",NA,NA,"Alaska","Alaska (western)",56.58,-169.58,288,NA,"Intraplate / Continental crust (>25 km)","Pleistocene",NA,NA,NA,"alu"
"96",314801,"Otter Island","United States","Unknown",NA,NA,"Alaska","Alaska (western)",57.05,-170.4,87,NA,"Intraplate / Continental crust (>25 km)","Pleistocene",NA,NA,NA,"alu"
"97",314802,"Walrus Island","United States","Unknown",NA,NA,"Alaska","Alaska (western)",57.18,-169.93,0,NA,"Intraplate / Continental crust (>25 km)","Pleistocene",NA,NA,NA,"alu"
"98",314803,"Togiak Valley","United States","Volcanic field",NA,NA,"Alaska","Alaska (western)",59.2,-160.08,300,NA,"Intraplate / Continental crust (>25 km)","Pleistocene",NA,NA,NA,"alu"
"99",314804,"Ingrichuak Hills","United States","Pyroclastic cone(s)",NA,NA,"Alaska","Alaska (western)",62.22,-164.3,188,NA,"Intraplate / Continental crust (>25 km)","Pleistocene",NA,NA,NA,"alu"
"100",314805,"Selawik Hills","United States","Pyroclastic cone(s)",NA,NA,"Alaska","Alaska (western)",66.033,-160.067,365,NA,"Intraplate / Continental crust (>25 km)","Pleistocene",NA,NA,NA,"alu"
"101",314806,"Espenberg","United States","Volcanic field",NA,NA,"Alaska","Alaska (western)",66.35,-164.33,243,NA,"Intraplate / Continental crust (>25 km)","Pleistocene",NA,NA,NA,"alu"
"102",315010,"Sanford","United States","Shield",NA,NA,"Alaska","Alaska (eastern)",62.213,-144.13,4959,NA,"Intraplate / Continental crust (>25 km)","Pleistocene",18.5115642547607,-51.0168037414551,309.547210693359,"alu"
"103",315021,"Gordon","United States","Pyroclastic cone(s)",NA,NA,"Alaska","Alaska (eastern)",62.13,-143.08,2755,NA,"Subduction zone / Continental crust (>25 km)","Pleistocene",22.5677661895752,-44.6997489929199,223.076446533203,"alu"
"104",315800,"Prindle","United States","Pyroclastic cone",NA,NA,"Alaska","Alaska (eastern)",63.716,-141.634,1245,NA,"Intraplate / Continental crust (>25 km)","Pleistocene",NA,NA,NA,"alu"
"105",315801,"Capital","United States","Shield",NA,NA,"Alaska","Alaska (eastern)",62.43,-144.12,2356,NA,"Subduction zone / Continental crust (>25 km)","Pleistocene",17.3435001373291,-56.2535972595215,319.036254882812,"alu"
"106",315802,"Jumbo Dome","United States","Lava dome",NA,NA,"Alaska","Alaska (eastern)",63.966,-148.685,1369,NA,"Intraplate / Continental crust (>25 km)","Pleistocene",43.5914535522461,-111.240898132324,222.458633422852,"alu"
"107",315803,"Drum","United States","Stratovolcano",NA,NA,"Alaska","Alaska (eastern)",62.12,-144.63,3661,NA,"Intraplate / Continental crust (>25 km)","Pleistocene",16.8838329315186,-42.5375747680664,314.07275390625,"alu"
"108",315804,"Tanada","United States","Shield",NA,NA,"Alaska","Alaska (eastern)",62.3,-143.52,2816,NA,"Subduction zone / Continental crust (>25 km)","Pleistocene",NA,NA,NA,"alu"
"109",315805,"Jarvis","United States","Stratovolcano",NA,NA,"Alaska","Alaska (eastern)",62.024,-143.619,4112,NA,"Subduction zone / Continental crust (>25 km)","Pleistocene",19.1828727722168,-46.5461158752441,257.498321533203,"alu"
"110",315808,"Basalt Knob","United States","Cone",NA,NA,"Alaska","Alaska (eastern)",58.03,-136.33,100,NA,"Intraplate / Continental crust (>25 km)","Pleistocene",NA,NA,NA,"alu"
"111",315809,"Skookum Creek","United States","Lava dome(s)",NA,NA,"Alaska","Alaska (eastern)",62.4,-143.147,2172,NA,"Intraplate / Continental crust (>25 km)","Pleistocene",NA,NA,NA,"alu"
"112",211003,"Vulsini","Italy","Caldera","Eruption Observed","104 BCE","Mediterranean and Western Asia","Italy",42.6,11.93,800,"Trachyte / Trachydacite","Subduction zone / Continental crust (>25 km)","Holocene",NA,NA,NA,"cal"
"113",211004,"Colli Albani","Italy","Caldera","Evidence Uncertain","Unknown","Mediterranean and Western Asia","Italy",41.73,12.7,949,"Foidite","Subduction zone / Continental crust (>25 km)","Holocene",NA,NA,NA,"cal"
"114",211010,"Campi Flegrei","Italy","Caldera","Eruption Observed","1538 CE","Mediterranean and Western Asia","Italy",40.827,14.139,458,"Trachyte / Trachydacite","Subduction zone / Continental crust (>25 km)","Holocene",51.9720925395113,-308.781504218906,140.64867315315,"cal"
"115",211020,"Vesuvius","Italy","Stratovolcano","Eruption Observed","1944 CE","Mediterranean and Western Asia","Italy",40.821,14.426,1281,"Phono-tephrite /  Tephri-phonolite","Subduction zone / Continental crust (>25 km)","Holocene",55.3598925537099,-285.157395994687,135.840886429272,"cal"
"116",211030,"Ischia","Italy","Complex","Eruption Observed","1302 CE","Mediterranean and Western Asia","Italy",40.73,13.897,789,"Trachyte / Trachydacite","Subduction zone / Continental crust (>25 km)","Holocene",49.2056961126126,-335.746429360318,145.082931508427,"cal"
"117",211031,"Palinuro","Italy","Submarine","Eruption Dated","8040 BCE","Mediterranean and Western Asia","Italy",39.48,14.83,-70,"Phonolite","Subduction zone / Continental crust (>25 km)","Holocene",47.6472676594302,-299.545718695972,195.878935053322,"cal"
"118",211040,"Stromboli","Italy","Stratovolcano","Eruption Observed","2019 CE","Mediterranean and Western Asia","Italy",38.789,15.213,924,"Trachyandesite / Basaltic Trachyandesite","Subduction zone / Continental crust (>25 km)","Holocene",67.8634779195644,-181.336856453736,225.651814730023,"cal"
"119",211041,"Panarea","Italy","Stratovolcano","Evidence Uncertain","Unknown","Mediterranean and Western Asia","Italy",38.638,15.064,399,"Andesite / Basaltic Andesite","Subduction zone / Continental crust (>25 km)","Holocene",68.0970577645173,-168.803721183349,237.218304072087,"cal"
"120",211042,"Lipari","Italy","Stratovolcano(es)","Eruption Dated","1230 CE","Mediterranean and Western Asia","Italy",38.49,14.933,590,"Rhyolite","Subduction zone / Continental crust (>25 km)","Holocene",68.3905580319246,-146.339267402451,244.029919071314,"cal"
"121",211050,"Vulcano","Italy","Stratovolcano(es)","Eruption Observed","1890 CE","Mediterranean and Western Asia","Italy",38.404,14.962,500,"Trachybasalt / Tephrite Basanite","Subduction zone / Continental crust (>25 km)","Holocene",67.782989505157,-122.287155245733,244.463144916275,"cal"
"122",211060,"Etna","Italy","Stratovolcano(es)","Eruption Observed","2019 CE","Mediterranean and Western Asia","Italy",37.748,14.999,3295,"Trachybasalt / Tephrite Basanite","Subduction zone / Continental crust (>25 km)","Holocene",21.2152519500729,-28.8290519946321,260.858398374534,"cal"
"123",211070,"Campi Flegrei del Mar di Sicilia","Italy","Submarine","Eruption Observed","1867 CE","Mediterranean and Western Asia","Italy",37.1,12.7,-8,"Trachybasalt / Tephrite Basanite","Rift zone / Continental crust (>25 km)","Holocene",NA,NA,NA,"cal"
"124",211071,"Pantelleria","Italy","Shield","Eruption Observed","1891 CE","Mediterranean and Western Asia","Italy",36.77,12.02,836,"Rhyolite","Rift zone / Continental crust (>25 km)","Holocene",NA,NA,NA,"cal"
"125",211080,"Marsili","Italy","Submarine","Eruption Dated","1050 BCE","Mediterranean and Western Asia","Italy",39.284,14.399,-779,"","","Holocene",44.8915049107501,-326.080200189099,209.605626386183,"cal"
"126",212020,"Methana","Greece","Lava dome(s)","Eruption Observed","258 BCE","Mediterranean and Western Asia","Greece",37.615,23.336,760,"Andesite / Basaltic Andesite","Subduction zone / Continental crust (>25 km)","Holocene",NA,NA,NA,"cal"
"127",211800,"Amiata","Italy","Lava dome(s)",NA,NA,"Mediterranean and Western Asia","Italy",42.9,11.63,1738,NA,"Subduction zone / Continental crust (>25 km)","Pleistocene",NA,NA,NA,"cal"
"128",211801,"Radicofani","Italy","Volcanic remnant",NA,NA,"Mediterranean and Western Asia","Italy",42.87,11.77,0,NA,"Subduction zone / Continental crust (>25 km)","Pleistocene",NA,NA,NA,"cal"
"129",211802,"Torre Alfina","Italy","Volcanic remnant",NA,NA,"Mediterranean and Western Asia","Italy",42.78,11.92,0,NA,"Subduction zone / Continental crust (>25 km)","Pleistocene",NA,NA,NA,"cal"
"130",211803,"San Venanzo","Italy","Maar",NA,NA,"Mediterranean and Western Asia","Italy",42.85,12.28,466,NA,"Subduction zone / Continental crust (>25 km)","Pleistocene",NA,NA,NA,"cal"
"131",211804,"Acquasparta","Italy","Volcanic field",NA,NA,"Mediterranean and Western Asia","Italy",42.65,12.3,0,NA,"Subduction zone / Continental crust (>25 km)","Pleistocene",NA,NA,NA,"cal"
"132",211805,"Polino","Italy","Explosion crater(s)",NA,NA,"Mediterranean and Western Asia","Italy",42.57,12.82,0,NA,"Subduction zone / Continental crust (>25 km)","Pleistocene",NA,NA,NA,"cal"
"133",211806,"Cupaello","Italy","Pyroclastic cone",NA,NA,"Mediterranean and Western Asia","Italy",42.43,12.93,650,NA,"Subduction zone / Continental crust (>25 km)","Pleistocene",NA,NA,NA,"cal"
"134",211807,"Oricola-Carsoli","Italy","Pyroclastic cone(s)",NA,NA,"Mediterranean and Western Asia","Italy",42.15,13.08,0,NA,"Subduction zone / Continental crust (>25 km)","Pleistocene",NA,NA,NA,"cal"
"135",211808,"Vico-Cimino Complex","Italy","Stratovolcano(es)",NA,NA,"Mediterranean and Western Asia","Italy",42.367,12.188,1053,NA,"Subduction zone / Continental crust (>25 km)","Pleistocene",NA,NA,NA,"cal"
"136",211809,"Sabatini Complex","Italy","Stratovolcano(es)",NA,NA,"Mediterranean and Western Asia","Italy",42.17,12.22,612,NA,"Unknown","Pleistocene",NA,NA,NA,"cal"
"137",211810,"Ernici, Monti","Italy","Volcanic field",NA,NA,"Mediterranean and Western Asia","Italy",41.58,13.33,0,NA,"Subduction zone / Continental crust (>25 km)","Pleistocene",NA,NA,NA,"cal"
"138",211811,"Roccamonfina","Italy","Stratovolcano",NA,NA,"Mediterranean and Western Asia","Italy",41.3,13.93,1066,NA,"Subduction zone / Continental crust (>25 km)","Pleistocene",NA,NA,NA,"cal"
"139",211812,"Vulture, Monte","Italy","Stratovolcano",NA,NA,"Mediterranean and Western Asia","Italy",40.92,15.67,1330,NA,"Subduction zone / Continental crust (>25 km)","Pleistocene",NA,NA,NA,"cal"
"140",211813,"Ventotene","Italy","Stratovolcano(es)",NA,NA,"Mediterranean and Western Asia","Italy",40.8,13.42,139,NA,"Subduction zone / Continental crust (>25 km)","Pleistocene",52.6114845300621,-374.972442539565,154.392542516678,"cal"
"141",211814,"Pontine Islands","Italy","Lava dome(s)",NA,NA,"Mediterranean and Western Asia","Italy",40.9,12.95,283,NA,"Subduction zone / Continental crust (>25 km)","Pleistocene",46.534145367021,-410.076538008308,144.819061282694,"cal"
"142",211815,"Logudoro","Italy","Volcanic field",NA,NA,"Mediterranean and Western Asia","Italy",40.58,8.67,0,NA,"Unknown","Pleistocene",NA,NA,NA,"cal"
"143",211816,"Salina","Italy","Stratovolcano(es)",NA,NA,"Mediterranean and Western Asia","Italy",38.58,14.85,962,NA,"Subduction zone / Continental crust (>25 km)","Pleistocene",68.001154577564,-179.483683361259,243.991246516632,"cal"
"144",211817,"Filicudi","Italy","Stratovolcano(es)",NA,NA,"Mediterranean and Western Asia","Italy",38.58,14.55,773,NA,"Subduction zone / Continental crust (>25 km)","Pleistocene",68.8564198713611,-205.687011829541,248.065322848646,"cal"
"145",211818,"Alicudi","Italy","Stratovolcano",NA,NA,"Mediterranean and Western Asia","Italy",38.55,14.33,675,NA,"Subduction zone / Continental crust (>25 km)","Pleistocene",70.4224827962862,-213.96941133908,251.405019096555,"cal"
"146",211819,"Ustica","Italy","Stratovolcano(es)",NA,NA,"Mediterranean and Western Asia","Italy",38.72,13.18,248,NA,"Subduction zone / Continental crust (>25 km)","Pleistocene",65.4741643169717,-324.306939160326,271.267581502729,"cal"
"147",211820,"Iblei","Italy","Shield?",NA,NA,"Mediterranean and Western Asia","Italy",37.117,14.821,825,NA,"Subduction zone / Continental crust (>25 km)","Pleistocene",10.2665749745209,-11.2062187336746,315.077501038549,"cal"
"148",211821,"Linosa","Italy","Pyroclastic cone(s)",NA,NA,"Mediterranean and Western Asia","Italy",35.87,12.87,195,NA,"Rift zone / Continental crust (>25 km)","Pleistocene",NA,NA,NA,"cal"
"149",211822,"Gaeta Bay Volcanic Field","Italy","Submarine",NA,NA,"Mediterranean and Western Asia","Italy",40.978,13.663,0,NA,"Subduction zone / Continental crust (>25 km)","Pleistocene",52.9370375784725,-338.155354727004,150.918490929179,"cal"
"150",212801,"Volos-Atalanti","Greece","Volcanic field",NA,NA,"Mediterranean and Western Asia","Greece",39.033,22.8,900,NA,"Subduction zone / Continental crust (>25 km)","Pleistocene",NA,NA,NA,"cal"
"151",212802,"Aegina","Greece","Volcanic field",NA,NA,"Mediterranean and Western Asia","Greece",37.75,23.5,530,NA,"Subduction zone / Continental crust (>25 km)","Pleistocene",NA,NA,NA,"cal"
"152",212803,"Poros","Greece","Fissure vent",NA,NA,"Mediterranean and Western Asia","Greece",37.48,23.43,80,NA,"Subduction zone / Continental crust (>25 km)","Pleistocene",NA,NA,NA,"cal"
"153",225806,"Gharyan Volcanic Field","Libya","Stratovolcano(es)",NA,NA,"Africa and Red Sea","Africa (northern)",32,13.25,850,NA,"Intraplate / Continental crust (>25 km)","Pleistocene",NA,NA,NA,"cal"
"154",334020,"Northern EPR at 17°N","Undersea Features","Submarine","Eruption Dated","50 BCE","Hawaii and Pacific Ocean","Pacific Ocean (eastern)",16.55,-105.32,-2700,"Basalt / Picro-Basalt","Rift zone / Oceanic crust (< 15 km)","Holocene",NA,NA,NA,"cam"
"155",334021,"Northern EPR at 16°N","Undersea Features","Submarine","Eruption Dated","50 BCE","Hawaii and Pacific Ocean","Pacific Ocean (eastern)",15.83,-105.43,-2300,"Basalt / Picro-Basalt","Rift zone / Oceanic crust (< 15 km)","Holocene",NA,NA,NA,"cam"
"156",334040,"Northern EPR at 10.7°N","Undersea Features","Submarine","Eruption Observed","2003 CE","Hawaii and Pacific Ocean","Pacific Ocean (eastern)",10.73,-103.58,-2900,"Basalt / Picro-Basalt","Intraplate / Oceanic crust (< 15 km)","Holocene",NA,NA,NA,"cam"
"157",334050,"Northern EPR at 9.8°N","Undersea Features","Submarine","Eruption Observed","2006 CE","Hawaii and Pacific Ocean","Pacific Ocean (eastern)",9.83,-104.3,-2500,"Basalt / Picro-Basalt","Rift zone / Oceanic crust (< 15 km)","Holocene",NA,NA,NA,"cam"
"158",341012,"Comondu-La Purisima","Mexico","Volcanic field","Evidence Uncertain","Unknown","México and Central America","Mexico",26,-111.92,780,"Trachyandesite / Basaltic Trachyandesite","Rift zone / Continental crust (>25 km)","Holocene",NA,NA,NA,"cam"
"159",341020,"Barcena","Mexico","Pyroclastic cone(s)","Eruption Observed","1953 CE","México and Central America","Mexico",19.3,-110.82,332,"Trachyte / Trachydacite","Rift zone / Oceanic crust (< 15 km)","Holocene",NA,NA,NA,"cam"
"160",341021,"Socorro","Mexico","Shield","Eruption Observed","1994 CE","México and Central America","Mexico",18.78,-110.95,1050,"Trachyte / Trachydacite","Rift zone / Oceanic crust (< 15 km)","Holocene",NA,NA,NA,"cam"
"161",341022,"Durango Volcanic Field","Mexico","Pyroclastic cone(s)","Evidence Credible","Unknown","México and Central America","Mexico",24.15,-104.45,2075,"Trachybasalt / Tephrite Basanite","Subduction zone / Continental crust (>25 km)","Holocene",NA,NA,NA,"cam"
"162",341023,"Isabel, Isla","Mexico","Tuff cone(s)","Evidence Uncertain","Unknown","México and Central America","Mexico",21.848,-105.886,95,"Basalt / Picro-Basalt","Subduction zone / Continental crust (>25 km)","Holocene",NA,NA,NA,"cam"
"163",341024,"Sanganguey","Mexico","Stratovolcano","Evidence Credible","Unknown","México and Central America","Mexico",21.45,-104.73,2340,"Andesite / Basaltic Andesite","Subduction zone / Continental crust (>25 km)","Holocene",NA,NA,NA,"cam"
"164",341030,"Ceboruco","Mexico","Stratovolcano","Eruption Observed","1875 CE","México and Central America","Mexico",21.125,-104.508,2280,"Andesite / Basaltic Andesite","Subduction zone / Continental crust (>25 km)","Holocene",NA,NA,NA,"cam"
"165",341031,"Mascota Volcanic Field","Mexico","Pyroclastic cone(s)","Evidence Credible","Unknown","México and Central America","Mexico",20.62,-104.83,2560,"Andesite / Basaltic Andesite","Subduction zone / Continental crust (>25 km)","Holocene",26.9121780395508,-61.5744018554688,331.409149169922,"cam"
"166",341040,"Colima","Mexico","Stratovolcano(es)","Eruption Observed","2019 CE","México and Central America","Mexico",19.514,-103.62,3850,"Andesite / Basaltic Andesite","Subduction zone / Continental crust (>25 km)","Holocene",46.6385917663574,-108.711853027344,315.635772705078,"cam"
"167",341060,"Michoacan-Guanajuato","Mexico","Pyroclastic cone(s)","Eruption Observed","1952 CE","México and Central America","Mexico",19.85,-101.75,3860,"Andesite / Basaltic Andesite","Subduction zone / Continental crust (>25 km)","Holocene",51.4894828796387,-162.456909179688,248.209045410156,"cam"
"168",341061,"Zitacuaro-Valle de Bravo","Mexico","Caldera","Eruption Dated","3050 BCE","México and Central America","Mexico",19.4,-100.25,3500,"Dacite","Subduction zone / Continental crust (>25 km)","Holocene",42.975658416748,-73.5685501098633,283.562530517578,"cam"
"169",341062,"Jocotitlan","Mexico","Stratovolcano","Eruption Dated","1270 CE","México and Central America","Mexico",19.73,-99.758,3900,"Dacite","Subduction zone / Continental crust (>25 km)","Holocene",63.0614891052246,-150.466613769531,290.557708740234,"cam"
"170",341070,"Toluca, Nevado de","Mexico","Stratovolcano","Eruption Dated","1350 BCE","México and Central America","Mexico",19.108,-99.758,4680,"Andesite / Basaltic Andesite","Subduction zone / Continental crust (>25 km)","Holocene",35.8597297668457,-62.4173583984375,297.841094970703,"cam"
"171",341080,"Chichinautzin","Mexico","Volcanic field","Eruption Dated","400 CE","México and Central America","Mexico",19.08,-99.13,3930,"Andesite / Basaltic Andesite","Subduction zone / Continental crust (>25 km)","Holocene",49.2415428161621,-85.5111312866211,288.490478515625,"cam"
"172",341081,"Papayo","Mexico","Lava dome","Evidence Credible","Unknown","México and Central America","Mexico",19.308,-98.7,3600,"Dacite","Subduction zone / Continental crust (>25 km)","Holocene",62.256031036377,-145.331649780273,291.569244384766,"cam"
"173",341082,"Iztaccihuatl","Mexico","Stratovolcano","Evidence Credible","Unknown","México and Central America","Mexico",19.179,-98.642,5230,"Andesite / Basaltic Andesite","Subduction zone / Continental crust (>25 km)","Holocene",59.9931831359863,-127.059173583984,292.251098632812,"cam"
"174",341090,"Popocatepetl","Mexico","Stratovolcano(es)","Eruption Observed","2019 CE","México and Central America","Mexico",19.023,-98.622,5393,"Andesite / Basaltic Andesite","Subduction zone / Continental crust (>25 km)","Holocene",55.4845504760742,-101.939208984375,293.105255126953,"cam"
"175",341091,"Malinche, La","Mexico","Stratovolcano","Eruption Dated","1170 BCE","México and Central America","Mexico",19.231,-98.032,4461,"Andesite / Basaltic Andesite","Subduction zone / Continental crust (>25 km)","Holocene",64.591423034668,-183.306884765625,291.57861328125,"cam"
"176",341092,"Serdan-Oriental","Mexico","Tuff cone(s)","Evidence Credible","Unknown","México and Central America","Mexico",19.27,-97.47,3485,"Rhyolite","Subduction zone / Continental crust (>25 km)","Holocene",69.109992980957,-239.736892700195,286.892211914062,"cam"
"177",341093,"Humeros, Los","Mexico","Caldera(s)","Eruption Dated","4470 BCE","México and Central America","Mexico",19.68,-97.45,3150,"Rhyolite","Subduction zone / Continental crust (>25 km)","Holocene",70.1419219970703,-364.963409423828,292.573425292969,"cam"
"178",341094,"Atlixcos, Los","Mexico","Shield","Evidence Credible","Unknown","México and Central America","Mexico",19.809,-96.526,800,"Basalt / Picro-Basalt","Subduction zone / Continental crust (>25 km)","Holocene",NA,NA,NA,"cam"
"179",341095,"Naolinco Volcanic Field","Mexico","Pyroclastic cone(s)","Eruption Dated","1200 BCE","México and Central America","Mexico",19.67,-96.75,2000,"Basalt / Picro-Basalt","Subduction zone / Continental crust (>25 km)","Holocene",NA,NA,NA,"cam"
"180",341096,"Cofre de Perote","Mexico","Shield(s)","Eruption Dated","1150 CE","México and Central America","Mexico",19.492,-97.15,4282,"Andesite / Basaltic Andesite","Subduction zone / Continental crust (>25 km)","Holocene",71.5754699707031,-333.424011230469,279.433410644531,"cam"
"181",341097,"Gloria, La","Mexico","Volcanic field","Evidence Credible","Unknown","México and Central America","Mexico",19.33,-97.25,3500,"Andesite / Basaltic Andesite","Subduction zone / Continental crust (>25 km)","Holocene",70.4289398193359,-274.567413330078,281.181121826172,"cam"
"182",341098,"Cumbres,  Las","Mexico","Stratovolcano","Eruption Dated","3920 BCE","México and Central America","Mexico",19.15,-97.27,3940,"Andesite / Basaltic Andesite","Subduction zone / Continental crust (>25 km)","Holocene",67.1533889770508,-221.370651245117,282.542541503906,"cam"
"183",341100,"Orizaba, Pico de","Mexico","Stratovolcano","Eruption Observed","1846 CE","México and Central America","Mexico",19.03,-97.27,5564,"Andesite / Basaltic Andesite","Subduction zone / Continental crust (>25 km)","Holocene",63.9942588806152,-193.577651977539,284.507293701172,"cam"
"184",341110,"San Martin","Mexico","Shield","Eruption Observed","1796 CE","México and Central America","Mexico",18.57,-95.2,1650,"Trachybasalt / Tephrite Basanite","Subduction zone / Continental crust (>25 km)","Holocene",34.1250801086426,-200.818740844727,300.088775634766,"cam"
"185",341120,"Chichon, El","Mexico","Lava dome(s)","Eruption Observed","1982 CE","México and Central America","Mexico",17.36,-93.228,1150,"Trachyandesite / Basaltic Trachyandesite","Subduction zone / Continental crust (>25 km)","Holocene",52.6491851806641,-190.513137817383,319.171447753906,"cam"
"186",341130,"Tacana","Mexico-Guatemala","Stratovolcano","Eruption Observed","1986 CE","México and Central America","Mexico",15.132,-92.109,4064,"Andesite / Basaltic Andesite","Subduction zone / Continental crust (>25 km)","Holocene",41.4397010803223,-85.1483383178711,308.829650878906,"cam"
"187",342020,"Tajumulco","Guatemala","Stratovolcano","Evidence Credible","Unknown","México and Central America","Guatemala",15.043,-91.903,4203,"Dacite","Subduction zone / Continental crust (>25 km)","Holocene",45.1933097839355,-91.542350769043,306.361175537109,"cam"
"188",342030,"Santa Maria","Guatemala","Stratovolcano","Eruption Observed","2019 CE","México and Central America","Guatemala",14.757,-91.552,3745,"Dacite","Subduction zone / Continental crust (>25 km)","Holocene",44.4064750671387,-84.5186462402344,301.105987548828,"cam"
"189",342040,"Almolonga","Guatemala","Stratovolcano","Eruption Observed","1818 CE","México and Central America","Guatemala",14.797,-91.519,3173,"Dacite","Subduction zone / Continental crust (>25 km)","Holocene",47.3224143981934,-91.3577346801758,301.522491455078,"cam"
"190",342060,"Atitlan","Guatemala","Stratovolcano(es)","Eruption Observed","1853 CE","México and Central America","Guatemala",14.583,-91.186,3535,"Andesite / Basaltic Andesite","Subduction zone / Continental crust (>25 km)","Holocene",46.8183135986328,-88.1558303833008,298.23876953125,"cam"
"191",342070,"Toliman","Guatemala","Stratovolcano(es)","Evidence Credible","Unknown","México and Central America","Guatemala",14.612,-91.189,3158,"Andesite / Basaltic Andesite","Subduction zone / Continental crust (>25 km)","Holocene",48.3505325317383,-91.7304000854492,298.498352050781,"cam"
"192",342080,"Acatenango","Guatemala","Stratovolcano(es)","Eruption Observed","1972 CE","México and Central America","Guatemala",14.501,-90.876,3976,"Andesite / Basaltic Andesite","Subduction zone / Continental crust (>25 km)","Holocene",50.4978866577148,-95.1410522460938,295.067779541016,"cam"
"193",342090,"Fuego","Guatemala","Stratovolcano(es)","Eruption Observed","2019 CE","México and Central America","Guatemala",14.473,-90.88,3763,"Basalt / Picro-Basalt","Subduction zone / Continental crust (>25 km)","Holocene",48.8412780761719,-91.2326583862305,294.770629882812,"cam"
"194",342100,"Agua","Guatemala","Stratovolcano","Evidence Credible","Unknown","México and Central America","Guatemala",14.465,-90.743,3760,"Andesite / Basaltic Andesite","Subduction zone / Continental crust (>25 km)","Holocene",52.081657409668,-98.440559387207,294.261657714844,"cam"
"195",342110,"Pacaya","Guatemala","Complex","Eruption Observed","2019 CE","México and Central America","Guatemala",14.382,-90.601,2569,"Basalt / Picro-Basalt","Subduction zone / Continental crust (>25 km)","Holocene",51.5159072875977,-96.0533447265625,294.042053222656,"cam"
"196",342111,"Cuilapa-Barbarena","Guatemala","Volcanic field","Evidence Credible","Unknown","México and Central America","Guatemala",14.33,-90.4,1454,"Basalt / Picro-Basalt","Subduction zone / Continental crust (>25 km)","Holocene",53.5191383361816,-101.038505554199,294.620819091797,"cam"
"197",342120,"Tecuamburro","Guatemala","Stratovolcano","Eruption Dated","960 BCE","México and Central America","Guatemala",14.156,-90.407,1845,"Andesite / Basaltic Andesite","Subduction zone / Continental crust (>25 km)","Holocene",44.0368499755859,-79.568977355957,294.289001464844,"cam"
"198",342121,"Jumaytepeque","Guatemala","Stratovolcano","Evidence Uncertain","Unknown","México and Central America","Guatemala",14.34,-90.271,1802,"Basalt / Picro-Basalt","Subduction zone / Continental crust (>25 km)","Holocene",56.0560760498047,-109.59774017334,294.829895019531,"cam"
"199",342130,"Moyuta","Guatemala","Stratovolcano","Evidence Credible","Unknown","México and Central America","Guatemala",14.03,-90.1,1662,"Andesite / Basaltic Andesite","Subduction zone / Continental crust (>25 km)","Holocene",45.6213569641113,-81.2543792724609,294.863189697266,"cam"
"200",342140,"Flores","Guatemala","Volcanic field","Evidence Credible","Unknown","México and Central America","Guatemala",14.308,-89.992,1600,"Basalt / Picro-Basalt","Subduction zone / Continental crust (>25 km)","Holocene",59.0154838562012,-123.34351348877,295.120971679688,"cam"
"201",342141,"Tahual","Guatemala","Stratovolcano","Evidence Credible","Unknown","México and Central America","Guatemala",14.43,-89.9,1716,"Basalt / Picro-Basalt","Subduction zone / Continental crust (>25 km)","Holocene",63.4051742553711,-156.451080322266,295.070587158203,"cam"
"202",342150,"Santiago, Cerro","Guatemala","Volcanic field","Evidence Credible","Unknown","México and Central America","Guatemala",14.33,-89.87,1192,"Basalt / Picro-Basalt","Subduction zone / Continental crust (>25 km)","Holocene",61.5266799926758,-140.058807373047,295.375854492188,"cam"
"203",342160,"Suchitan","Guatemala","Stratovolcano(es)","Evidence Credible","Unknown","México and Central America","Guatemala",14.4,-89.78,2042,"Andesite / Basaltic Andesite","Subduction zone / Continental crust (>25 km)","Holocene",63.7588768005371,-160.460464477539,295.458770751953,"cam"
"204",342170,"Chingo","Guatemala-El Salvador","Stratovolcano","Evidence Credible","Unknown","México and Central America","Guatemala",14.12,-89.73,1775,"Andesite / Basaltic Andesite","Subduction zone / Continental crust (>25 km)","Holocene",56.956184387207,-113.919654846191,296.308563232422,"cam"
"205",342180,"Ixtepeque","Guatemala","Lava dome(s)","Evidence Credible","Unknown","México and Central America","Guatemala",14.42,-89.68,1292,"Rhyolite","Subduction zone / Continental crust (>25 km)","Holocene",64.7908477783203,-173.634613037109,295.614715576172,"cam"
"206",342190,"Ipala","Guatemala","Stratovolcano","Evidence Credible","Unknown","México and Central America","Guatemala",14.55,-89.63,1650,"Basalt / Picro-Basalt","Subduction zone / Continental crust (>25 km)","Holocene",66.8737945556641,-208.725448608398,295.329345703125,"cam"
"207",342200,"Chiquimula Volcanic Field","Guatemala","Pyroclastic cone(s)","Evidence Credible","Unknown","México and Central America","Guatemala",14.83,-89.55,1192,"Basalt / Picro-Basalt","Subduction zone / Continental crust (>25 km)","Holocene",69.0777359008789,-289.773406982422,294.787994384766,"cam"
"208",342210,"Quezaltepeque","Guatemala","Volcanic field","Evidence Credible","Unknown","México and Central America","Guatemala",14.57,-89.45,1200,"Basalt / Picro-Basalt","Subduction zone / Continental crust (>25 km)","Holocene",67.5885314941406,-232.719284057617,294.508575439453,"cam"
"209",343001,"San Diego","El Salvador-Guatemala","Volcanic field","Evidence Credible","Unknown","México and Central America","El Salvador and Honduras",14.27,-89.48,781,"Basalt / Picro-Basalt","Subduction zone / Continental crust (>25 km)","Holocene",63.5282669067383,-161.930145263672,295.765594482422,"cam"
"210",343002,"Singuil, Cerro","El Salvador","Pyroclastic cone(s)","Evidence Credible","Unknown","México and Central America","El Salvador and Honduras",14.054,-89.631,926,"Basalt / Picro-Basalt","Subduction zone / Continental crust (>25 km)","Holocene",56.2382507324219,-111.106307983398,296.693359375,"cam"
"211",343010,"Apaneca Range","El Salvador","Stratovolcano(es)","Evidence Credible","Unknown","México and Central America","El Salvador and Honduras",13.891,-89.786,2036,"Basalt / Picro-Basalt","Subduction zone / Continental crust (>25 km)","Holocene",45.8645057678223,-81.1073455810547,296.779418945312,"cam"
"212",343020,"Santa Ana","El Salvador","Stratovolcano","Eruption Observed","2005 CE","México and Central America","El Salvador and Honduras",13.853,-89.63,2381,"Andesite / Basaltic Andesite","Subduction zone / Continental crust (>25 km)","Holocene",47.8159027099609,-85.3884201049805,297.100494384766,"cam"
"213",343030,"Izalco","El Salvador","Stratovolcano","Eruption Observed","1966 CE","México and Central America","El Salvador and Honduras",13.813,-89.633,1950,"Andesite / Basaltic Andesite","Subduction zone / Continental crust (>25 km)","Holocene",46.1846618652344,-81.900764465332,297.109161376953,"cam"
"214",343041,"Coatepeque Caldera","El Salvador","Caldera","Evidence Credible","Unknown","México and Central America","El Salvador and Honduras",13.87,-89.55,746,"Rhyolite","Subduction zone / Continental crust (>25 km)","Holocene",50.4307022094727,-92.0717086791992,296.953338623047,"cam"
"215",343050,"San Salvador","El Salvador","Stratovolcano","Eruption Observed","1917 CE","México and Central America","El Salvador and Honduras",13.734,-89.294,1893,"Andesite / Basaltic Andesite","Subduction zone / Continental crust (>25 km)","Holocene",50.0930824279785,-90.586296081543,295.986206054688,"cam"
"216",343051,"Cinotepeque, Cerro","El Salvador","Volcanic field","Evidence Credible","Unknown","México and Central America","El Salvador and Honduras",14.02,-89.25,665,"No Data (checked)","Subduction zone / Continental crust (>25 km)","Holocene",59.9097709655762,-135.626480102539,295.996032714844,"cam"
"217",343052,"Guazapa","El Salvador","Stratovolcano","Evidence Uncertain","Unknown","México and Central America","El Salvador and Honduras",13.9,-89.12,1438,"Basalt / Picro-Basalt","Subduction zone / Continental crust (>25 km)","Holocene",58.510425567627,-126.793823242188,296.706726074219,"cam"
"218",343060,"Ilopango","El Salvador","Caldera","Eruption Observed","1880 CE","México and Central America","El Salvador and Honduras",13.672,-89.053,450,"Dacite","Subduction zone / Continental crust (>25 km)","Holocene",53.0130043029785,-97.1179580688477,296.001312255859,"cam"
"219",343070,"San Vicente","El Salvador","Stratovolcano","Evidence Credible","Unknown","México and Central America","El Salvador and Honduras",13.595,-88.837,2182,"Andesite / Basaltic Andesite","Subduction zone / Continental crust (>25 km)","Holocene",54.8608245849609,-101.693389892578,294.515472412109,"cam"
"220",343071,"Apastepeque Field","El Salvador","Volcanic field","Evidence Credible","Unknown","México and Central America","El Salvador and Honduras",13.72,-88.77,700,"Dacite","Subduction zone / Continental crust (>25 km)","Holocene",58.9031372070312,-124.638832092285,295.208221435547,"cam"
"221",343072,"Taburete","El Salvador","Stratovolcano","Evidence Uncertain","Unknown","México and Central America","El Salvador and Honduras",13.435,-88.532,1172,"Basalt / Picro-Basalt","Subduction zone / Continental crust (>25 km)","Holocene",53.5112457275391,-95.9885330200195,293.465454101562,"cam"
"222",343080,"Tecapa","El Salvador","Stratovolcano","Evidence Credible","Unknown","México and Central America","El Salvador and Honduras",13.494,-88.502,1593,"Andesite / Basaltic Andesite","Subduction zone / Continental crust (>25 km)","Holocene",56.8749961853027,-107.801109313965,293.649322509766,"cam"
"223",343081,"Usulutan","El Salvador","Stratovolcano","Evidence Credible","Unknown","México and Central America","El Salvador and Honduras",13.419,-88.471,1449,"Basalt / Picro-Basalt","Subduction zone / Continental crust (>25 km)","Holocene",54.0889434814453,-97.6391830444336,294.132263183594,"cam"
"224",343082,"Tigre, El","El Salvador","Stratovolcano","Evidence Credible","Unknown","México and Central America","El Salvador and Honduras",13.47,-88.43,1640,"Basalt / Picro-Basalt","Subduction zone / Continental crust (>25 km)","Holocene",56.7897148132324,-107.178695678711,294.388061523438,"cam"
"225",343090,"Chinameca","El Salvador","Stratovolcano","Evidence Credible","Unknown","México and Central America","El Salvador and Honduras",13.478,-88.33,1300,"Andesite / Basaltic Andesite","Subduction zone / Continental crust (>25 km)","Holocene",59.1054916381836,-117.177337646484,295.543212890625,"cam"
"226",343100,"San Miguel","El Salvador","Stratovolcano","Eruption Observed","2018 CE","México and Central America","El Salvador and Honduras",13.434,-88.269,2130,"Andesite / Basaltic Andesite","Subduction zone / Continental crust (>25 km)","Holocene",58.5877494812012,-114.117752075195,296.354187011719,"cam"
"227",343101,"Aramuaca, Laguna","El Salvador","Maar","Evidence Credible","Unknown","México and Central America","El Salvador and Honduras",13.428,-88.105,181,"No Data (checked)","Subduction zone / Continental crust (>25 km)","Holocene",61.057201385498,-128.237289428711,297.428833007812,"cam"
"228",343130,"Tigre, Isla el","Honduras","Stratovolcano","Evidence Credible","Unknown","México and Central America","El Salvador and Honduras",13.272,-87.641,783,"Basalt / Picro-Basalt","Subduction zone / Continental crust (>25 km)","Holocene",61.9205780029297,-144.128662109375,302.797393798828,"cam"
"229",343140,"Zacate Grande, Isla","Honduras","Stratovolcano","Evidence Credible","Unknown","México and Central America","El Salvador and Honduras",13.33,-87.63,640,"Basalt / Picro-Basalt","Subduction zone / Continental crust (>25 km)","Holocene",62.7767601013184,-156.083374023438,302.158721923828,"cam"
"230",343150,"Yojoa, Lake","Honduras","Volcanic field","Evidence Credible","Unknown","México and Central America","El Salvador and Honduras",14.98,-87.98,1090,"Trachybasalt / Tephrite Basanite","Subduction zone / Continental crust (>25 km)","Holocene",NA,NA,NA,"cam"
"231",343160,"Utila Island","Honduras","Pyroclastic cone(s)","Evidence Credible","Unknown","México and Central America","El Salvador and Honduras",16.12,-86.882,74,"Basalt / Picro-Basalt","Subduction zone / Continental crust (>25 km)","Holocene",NA,NA,NA,"cam"
"232",344010,"Cosiguina","Nicaragua","Stratovolcano","Eruption Observed","1859 CE","México and Central America","Nicaragua",12.98,-87.57,872,"Andesite / Basaltic Andesite","Subduction zone / Continental crust (>25 km)","Holocene",56.4003105163574,-106.433670043945,304.878875732422,"cam"
"233",344020,"San Cristobal","Nicaragua","Stratovolcano","Eruption Observed","2019 CE","México and Central America","Nicaragua",12.702,-87.004,1745,"Basalt / Picro-Basalt","Subduction zone / Continental crust (>25 km)","Holocene",64.0995559692383,-127.841285705566,310.071838378906,"cam"
"234",344040,"Telica","Nicaragua","Stratovolcano(es)","Eruption Observed","2018 CE","México and Central America","Nicaragua",12.606,-86.84,1036,"Basalt / Picro-Basalt","Subduction zone / Continental crust (>25 km)","Holocene",66.3689651489258,-135.538024902344,312.159210205078,"cam"
"235",344060,"Rota","Nicaragua","Stratovolcano","Evidence Credible","Unknown","México and Central America","Nicaragua",12.55,-86.75,832,"Andesite / Basaltic Andesite","Subduction zone / Continental crust (>25 km)","Holocene",67.50341796875,-140.213790893555,312.94091796875,"cam"
"236",344070,"Negro, Cerro","Nicaragua","Pyroclastic cone(s)","Eruption Observed","1999 CE","México and Central America","Nicaragua",12.506,-86.702,728,"Basalt / Picro-Basalt","Subduction zone / Continental crust (>25 km)","Holocene",67.6744079589844,-139.326965332031,313.070739746094,"cam"
"237",344080,"Pilas, Las","Nicaragua","Complex","Eruption Observed","1954 CE","México and Central America","Nicaragua",12.495,-86.688,1088,"Andesite / Basaltic Andesite","Subduction zone / Continental crust (>25 km)","Holocene",68.0983963012695,-142.447998046875,313.187805175781,"cam"
"238",344090,"Momotombo","Nicaragua","Stratovolcano","Eruption Observed","2016 CE","México and Central America","Nicaragua",12.423,-86.539,1270,"Basalt / Picro-Basalt","Subduction zone / Continental crust (>25 km)","Holocene",69.8121490478516,-153.967102050781,313.012878417969,"cam"
"239",344091,"Apoyeque","Nicaragua","Pyroclastic shield","Eruption Dated","50 BCE","México and Central America","Nicaragua",12.242,-86.342,518,"Dacite","Subduction zone / Continental crust (>25 km)","Holocene",69.9001922607422,-152.975051879883,311.694427490234,"cam"
"240",344092,"Nejapa-Miraflores","Nicaragua","Fissure vent(s)","Eruption Dated","1060 CE","México and Central America","Nicaragua",12.12,-86.32,360,"Basalt / Picro-Basalt","Subduction zone / Continental crust (>25 km)","Holocene",66.9047698974609,-131.086807250977,311.756042480469,"cam"
"241",344100,"Masaya","Nicaragua","Caldera","Eruption Observed","2019 CE","México and Central America","Nicaragua",11.984,-86.161,635,"Basalt / Picro-Basalt","Subduction zone / Continental crust (>25 km)","Holocene",66.7724838256836,-130.980499267578,312.803405761719,"cam"
"242",344101,"Granada","Nicaragua","Fissure vent(s)","Evidence Credible","Unknown","México and Central America","Nicaragua",11.92,-85.98,300,"Basalt / Picro-Basalt","Subduction zone / Continental crust (>25 km)","Holocene",69.6666412353516,-152.074493408203,314.360290527344,"cam"
"243",344110,"Mombacho","Nicaragua","Stratovolcano","Unrest / Holocene","Unknown","México and Central America","Nicaragua",11.826,-85.968,1344,"Andesite / Basaltic Andesite","Subduction zone / Continental crust (>25 km)","Holocene",67.7945251464844,-138.357467651367,314.927917480469,"cam"
"244",344111,"Zapatera","Nicaragua","Shield","Evidence Credible","Unknown","México and Central America","Nicaragua",11.73,-85.82,629,"Andesite / Basaltic Andesite","Subduction zone / Continental crust (>25 km)","Holocene",68.7140731811523,-147.690338134766,314.822967529297,"cam"
"245",344120,"Concepcion","Nicaragua","Stratovolcano","Eruption Observed","2011 CE","México and Central America","Nicaragua",11.538,-85.622,1700,"Andesite / Basaltic Andesite","Subduction zone / Continental crust (>25 km)","Holocene",66.9401321411133,-144.958221435547,311.858673095703,"cam"
"246",344131,"Esteli","Nicaragua","Fissure vent(s)","Evidence Uncertain","Unknown","México and Central America","Nicaragua",13.17,-86.4,899,"Basalt / Picro-Basalt","Subduction zone / Continental crust (>25 km)","Holocene",NA,NA,NA,"cam"
"247",344132,"Ciguatepe, Cerro el","Nicaragua","Stratovolcano","Evidence Uncertain","Unknown","México and Central America","Nicaragua",12.53,-86.142,603,"Basalt / Picro-Basalt","Subduction zone / Continental crust (>25 km)","Holocene",NA,NA,NA,"cam"
"248",344133,"Lajas, Las","Nicaragua","Shield","Evidence Uncertain","Unknown","México and Central America","Nicaragua",12.3,-85.73,926,"Basalt / Picro-Basalt","Subduction zone / Continental crust (>25 km)","Holocene",NA,NA,NA,"cam"
"249",344140,"Azul, Volcan","Nicaragua","Pyroclastic cone(s)","Evidence Credible","Unknown","México and Central America","Nicaragua",12.53,-83.87,201,"Trachybasalt / Tephrite Basanite","Subduction zone / Intermediate crust (15-25 km)","Holocene",NA,NA,NA,"cam"
"250",345010,"Orosi","Costa Rica","Stratovolcano(es)","Evidence Uncertain","Unknown","México and Central America","Costa Rica",10.98,-85.473,1659,"Andesite / Basaltic Andesite","Subduction zone / Continental crust (>25 km)","Holocene",51.1156387329102,-85.6097106933594,311.130981445312,"cam"
"251",345020,"Rincon de la Vieja","Costa Rica","Complex","Eruption Observed","2019 CE","México and Central America","Costa Rica",10.83,-85.324,1916,"Andesite / Basaltic Andesite","Subduction zone / Continental crust (>25 km)","Holocene",50.0636711120605,-82.9067535400391,308.841705322266,"cam"
"252",345030,"Miravalles","Costa Rica","Stratovolcano","Eruption Observed","1946 CE","México and Central America","Costa Rica",10.748,-85.153,2028,"Andesite / Basaltic Andesite","Subduction zone / Continental crust (>25 km)","Holocene",52.1119804382324,-87.6117858886719,307.059906005859,"cam"
"253",345031,"Tenorio","Costa Rica","Stratovolcano(es)","Evidence Credible","Unknown","México and Central America","Costa Rica",10.673,-85.015,1916,"Andesite / Basaltic Andesite","Subduction zone / Continental crust (>25 km)","Holocene",53.1282844543457,-89.3450775146484,306.506774902344,"cam"
"254",345033,"Arenal","Costa Rica","Stratovolcano","Eruption Observed","2010 CE","México and Central America","Costa Rica",10.463,-84.703,1670,"Andesite / Basaltic Andesite","Subduction zone / Continental crust (>25 km)","Holocene",55.0999794006348,-93.716796875,308.406311035156,"cam"
"255",345034,"Platanar","Costa Rica","Stratovolcano(es)","Evidence Credible","Unknown","México and Central America","Costa Rica",10.3,-84.366,2267,"Andesite / Basaltic Andesite","Subduction zone / Continental crust (>25 km)","Holocene",57.6014099121094,-107.806121826172,310.984802246094,"cam"
"256",345040,"Poas","Costa Rica","Stratovolcano","Eruption Observed","2019 CE","México and Central America","Costa Rica",10.2,-84.233,2708,"Andesite / Basaltic Andesite","Subduction zone / Continental crust (>25 km)","Holocene",57.2821655273438,-109.338264465332,309.106292724609,"cam"
"257",345050,"Barva","Costa Rica","Complex","Eruption Dated","6050 BCE","México and Central America","Costa Rica",10.135,-84.1,2906,"Andesite / Basaltic Andesite","Subduction zone / Continental crust (>25 km)","Holocene",57.2440910339355,-113.862144470215,304.549041748047,"cam"
"258",345060,"Irazu","Costa Rica","Stratovolcano","Eruption Observed","1994 CE","México and Central America","Costa Rica",9.979,-83.852,3432,"Andesite / Basaltic Andesite","Subduction zone / Continental crust (>25 km)","Holocene",55.9542388916016,-111.577507019043,293.134429931641,"cam"
"259",345070,"Turrialba","Costa Rica","Stratovolcano","Eruption Observed","2019 CE","México and Central America","Costa Rica",10.025,-83.767,3340,"Andesite / Basaltic Andesite","Subduction zone / Continental crust (>25 km)","Holocene",57.0308494567871,-121.935195922852,291.057159423828,"cam"
"260",346010,"Baru","Panama","Stratovolcano","Eruption Observed","1550 CE","México and Central America","Panama",8.808,-82.543,3474,"Andesite / Basaltic Andesite","Subduction zone / Continental crust (>25 km)","Holocene",NA,NA,NA,"cam"
"261",346030,"Valle, El","Panama","Stratovolcano","Evidence Uncertain","Unknown","México and Central America","Panama",8.58,-80.17,1185,"Dacite","Subduction zone / Continental crust (>25 km)","Holocene",NA,NA,NA,"cam"
"262",341804,"Pulpito, Punta","Mexico","Lava dome",NA,NA,"México and Central America","Mexico",26.517,-111.444,131,NA,"Rift zone / Continental crust (>25 km)","Pleistocene",NA,NA,NA,"cam"
"263",341805,"Mencenares, Cerro","Mexico","Lava dome(s)",NA,NA,"México and Central America","Mexico",26.28,-111.47,790,NA,"Rift zone / Continental crust (>25 km)","Pleistocene",NA,NA,NA,"cam"
"264",341808,"Santo Domingo Volcanic Field","Mexico","Maar(s)",NA,NA,"México and Central America","Mexico",22.83,-100.08,1550,NA,"Intraplate / Continental crust (>25 km)","Pleistocene",NA,NA,NA,"cam"
"265",341809,"Ventura Volcanic Field","Mexico","Maar(s)",NA,NA,"México and Central America","Mexico",22.35,-100.7,2035,NA,"Intraplate / Continental crust (>25 km)","Pleistocene",NA,NA,NA,"cam"
"266",341810,"San Juan","Mexico","Stratovolcano(es)",NA,NA,"México and Central America","Mexico",21.47,-104.97,2240,NA,"Subduction zone / Continental crust (>25 km)","Pleistocene",NA,NA,NA,"cam"
"267",341811,"Navajas, Las","Mexico","Shield",NA,NA,"México and Central America","Mexico",21.531,-104.729,1680,NA,"Subduction zone / Continental crust (>25 km)","Pleistocene",NA,NA,NA,"cam"
"268",341812,"Santa Maria del Oro","Mexico","Maar",NA,NA,"México and Central America","Mexico",21.371,-104.571,1120,NA,"Subduction zone / Continental crust (>25 km)","Pleistocene",NA,NA,NA,"cam"
"269",341813,"Tepetiltic","Mexico","Stratovolcano",NA,NA,"México and Central America","Mexico",21.27,-104.7,2020,NA,"Subduction zone / Continental crust (>25 km)","Pleistocene",NA,NA,NA,"cam"
"270",341814,"San Pedro","Mexico","Caldera",NA,NA,"México and Central America","Mexico",21.17,-104.73,2000,NA,"Subduction zone / Continental crust (>25 km)","Pleistocene",NA,NA,NA,"cam"
"271",341815,"San Sebastian Volcanic Field","Mexico","Pyroclastic cone(s)",NA,NA,"México and Central America","Mexico",20.83,-104.82,1780,NA,"Subduction zone / Continental crust (>25 km)","Pleistocene",33.033260345459,-69.5184173583984,328.602203369141,"cam"
"272",341816,"Volcanes, Los","Mexico","Volcanic field",NA,NA,"México and Central America","Mexico",20.33,-104.5,2080,NA,"Subduction zone / Continental crust (>25 km)","Pleistocene",29.3457336425781,-69.6498565673828,334.350952148438,"cam"
"273",341817,"Northern Atenguillo","Mexico","Shield(s)",NA,NA,"México and Central America","Mexico",20.75,-104.5,1700,NA,"Subduction zone / Continental crust (>25 km)","Pleistocene",39.7148818969727,-86.0846328735352,327.489288330078,"cam"
"274",341818,"Tequila","Mexico","Stratovolcano",NA,NA,"México and Central America","Mexico",20.788,-103.847,2920,NA,"Subduction zone / Continental crust (>25 km)","Pleistocene",51.3721961975098,-151.372589111328,338.844268798828,"cam"
"275",341819,"Northern Guadalajara Mesa","Mexico","Lava dome(s)",NA,NA,"México and Central America","Mexico",20.88,-103.4,1820,NA,"Subduction zone / Continental crust (>25 km)","Pleistocene",NA,NA,NA,"cam"
"276",341820,"Primavera, Sierra la","Mexico","Caldera",NA,NA,"México and Central America","Mexico",20.62,-103.52,2270,NA,"Subduction zone / Continental crust (>25 km)","Pleistocene",49.1416664123535,-186.224517822266,343.352996826172,"cam"
"277",341821,"Southern Guadalajara","Mexico","Volcanic field",NA,NA,"México and Central America","Mexico",20.525,-103.242,2160,NA,"Subduction zone / Continental crust (>25 km)","Pleistocene",41.3255271911621,-208.867858886719,335.983459472656,"cam"
"278",341822,"Acatlan Volcanic Field","Mexico","Caldera",NA,NA,"México and Central America","Mexico",20.45,-103.57,1990,NA,"Subduction zone / Continental crust (>25 km)","Pleistocene",50.8873443603516,-174.161926269531,344.198822021484,"cam"
"279",341823,"Cantaro, Volcan el","Mexico","Stratovolcano",NA,NA,"México and Central America","Mexico",19.72,-103.63,2920,NA,"Subduction zone / Continental crust (>25 km)","Pleistocene",50.26171875,-123.593727111816,323.277130126953,"cam"
"280",341824,"Azufres, Los","Mexico","Caldera",NA,NA,"México and Central America","Mexico",19.85,-100.63,3400,NA,"Subduction zone / Continental crust (>25 km)","Pleistocene",62.2211265563965,-135.557861328125,275.419830322266,"cam"
"281",341825,"Tláloc","Mexico","Stratovolcano",NA,NA,"México and Central America","Mexico",19.411,-98.713,4120,NA,"Subduction zone / Continental crust (>25 km)","Pleistocene",64.2653350830078,-168.153228759766,291.223846435547,"cam"
"282",341826,"Telapón","Mexico","Stratovolcano",NA,NA,"México and Central America","Mexico",19.37,-98.72,4080,NA,"Subduction zone / Continental crust (>25 km)","Pleistocene",63.4101905822754,-157.596969604492,291.326019287109,"cam"
"283",341827,"Acoculco","Mexico","Caldera",NA,NA,"México and Central America","Mexico",19.97,-98.2,3020,NA,"Subduction zone / Continental crust (>25 km)","Pleistocene",66.8384094238281,-348.948211669922,295.200958251953,"cam"
"284",341828,"Grande, Cerro","Mexico","Volcanic field",NA,NA,"México and Central America","Mexico",19.62,-97.93,3050,NA,"Subduction zone / Continental crust (>25 km)","Pleistocene",69.3375549316406,-289.076385498047,293.702667236328,"cam"
"285",341829,"Poza Rica","Mexico","Volcanic field",NA,NA,"México and Central America","Mexico",20.42,-97.83,2250,NA,"Subduction zone / Continental crust (>25 km)","Pleistocene",NA,NA,NA,"cam"
"286",341830,"San Martin Pajapan","Mexico","Stratovolcano(es)",NA,NA,"México and Central America","Mexico",18.303,-94.73,1250,NA,"Subduction zone / Continental crust (>25 km)","Pleistocene",38.6395034790039,-201.069915771484,298.160491943359,"cam"
"287",341831,"Apas-Navenchauc","Mexico","Caldera(s)",NA,NA,"México and Central America","Mexico",16.716,-92.786,0,NA,"Subduction zone / Continental crust (>25 km)","Pleistocene",56.4316520690918,-179.647216796875,319.004180908203,"cam"
"288",341832,"Huitepec","Mexico","Lava dome",NA,NA,"México and Central America","Mexico",16.743,-92.694,2744,NA,"Subduction zone / Continental crust (>25 km)","Pleistocene",58.4825401306152,-194.005676269531,321.259796142578,"cam"
"289",341833,"Mispia","Mexico","Lava dome(s)",NA,NA,"México and Central America","Mexico",16.447,-92.539,1750,NA,"Subduction zone / Continental crust (>25 km)","Pleistocene",61.1672630310059,-183.473526000977,323.761138916016,"cam"
"290",341836,"Aldama Volcanic Field","Mexico","Volcanic field",NA,NA,"México and Central America","Mexico",23.2,-98.02,600,NA,"Intraplate / Continental crust (>25 km)","Pleistocene",NA,NA,NA,"cam"
"291",341837,"Flores, Los","Mexico","Volcanic field",NA,NA,"México and Central America","Mexico",22.58,-99.38,520,NA,"Intraplate / Continental crust (>25 km)","Pleistocene",NA,NA,NA,"cam"
"292",341838,"Apan-Tezontepec","Mexico","Volcanic field",NA,NA,"México and Central America","Mexico",19.75,-98.5,3100,NA,"Subduction zone / Continental crust (>25 km)","Pleistocene",67.7642288208008,-267.115447998047,291.002258300781,"cam"
"293",342800,"Santo Tomas","Guatemala","Stratovolcano(es)",NA,NA,"México and Central America","Guatemala",14.71,-91.479,3542,NA,"Subduction zone / Continental crust (>25 km)","Pleistocene",44.8313255310059,-85.0567626953125,300.612518310547,"cam"
"294",342801,"Cuxliquel","Guatemala","Lava dome(s)",NA,NA,"México and Central America","Guatemala",14.889,-91.398,3029,NA,"Subduction zone / Continental crust (>25 km)","Pleistocene",53.0724716186523,-108.862014770508,302.055450439453,"cam"
"295",342802,"Barahona","Guatemala","Caldera(s)",NA,NA,"México and Central America","Guatemala",14.55,-90.78,2282,NA,"Subduction zone / Continental crust (>25 km)","Pleistocene",54.9876365661621,-107.798240661621,295.017059326172,"cam"
"296",342803,"Pueblo Nuevo Viñas","Guatemala","Stratovolcano",NA,NA,"México and Central America","Guatemala",14.199,-90.505,1939,NA,"Subduction zone / Continental crust (>25 km)","Pleistocene",44.1614952087402,-80.1969680786133,294.066619873047,"cam"
"297",342804,"Piedra Grande","Guatemala","Stratovolcano(es)",NA,NA,"México and Central America","Guatemala",14.25,-90.4,1640,NA,"Subduction zone / Continental crust (>25 km)","Pleistocene",49.4848747253418,-90.3550872802734,294.553619384766,"cam"
"298",342805,"Ixhuatan","Guatemala","Complex",NA,NA,"México and Central America","Guatemala",14.161,-90.286,1675,NA,"Subduction zone / Continental crust (>25 km)","Pleistocene",47.9913139343262,-86.8027114868164,294.656341552734,"cam"
"299",342806,"Ayarza","Guatemala","Caldera(s)",NA,NA,"México and Central America","Guatemala",14.42,-90.12,1409,NA,"Subduction zone / Continental crust (>25 km)","Pleistocene",60.9128761291504,-134.613006591797,294.778747558594,"cam"
"300",342807,"Alutate, Cerro","Guatemala","Stratovolcano",NA,NA,"México and Central America","Guatemala",14.647,-90.144,2116,NA,"Subduction zone / Continental crust (>25 km)","Pleistocene",65.4103622436523,-178.848220825195,294.228118896484,"cam"
"301",342808,"Guistepeque Volcanic Field","Guatemala","Pyroclastic cone(s)",NA,NA,"México and Central America","Guatemala",14.57,-89.78,1358,NA,"Subduction zone / Continental crust (>25 km)","Pleistocene",66.3190307617188,-196.692977905273,295.134613037109,"cam"
"302",342809,"Siete Orejas","Guatemala","Stratovolcano",NA,NA,"México and Central America","Guatemala",14.82,-91.62,3370,NA,"Subduction zone / Continental crust (>25 km)","Pleistocene",45.1885604858398,-87.1171798706055,302.039245605469,"cam"
"303",342810,"San Pedro","Guatemala","Stratovolcano",NA,NA,"México and Central America","Guatemala",14.656,-91.267,3020,NA,"Subduction zone / Continental crust (>25 km)","Pleistocene",47.7175559997559,-90.4779663085938,299.247711181641,"cam"
"304",342811,"Jumay Volcanic Field","Guatemala","Stratovolcano",NA,NA,"México and Central America","Guatemala",14.694,-89.993,2174,NA,"Subduction zone / Continental crust (>25 km)","Pleistocene",66.7789611816406,-205.259643554688,294.273742675781,"cam"
"305",342812,"Ananopa, Cerro","Guatemala","Volcanic field",NA,NA,"México and Central America","Guatemala",14.9,-89.93,386,NA,"Subduction zone / Continental crust (>25 km)","Pleistocene",68.5668334960938,-262.165771484375,294.48291015625,"cam"
"306",342813,"Redondo, Cerro","Guatemala","Shield(s)",NA,NA,"México and Central America","Guatemala",14.27,-89.62,768,NA,"Subduction zone / Continental crust (>25 km)","Pleistocene",62.5142021179199,-149.548110961914,296.042510986328,"cam"
"307",343110,"Conchagua","El Salvador","Stratovolcano",NA,NA,"México and Central America","El Salvador and Honduras",13.275,-87.845,1225,NA,"Subduction zone / Continental crust (>25 km)","Pleistocene",59.4810981750488,-122.352027893066,300.083557128906,"cam"
"308",343120,"Conchaguita","El Salvador","Stratovolcano",NA,NA,"México and Central America","El Salvador and Honduras",13.229,-87.767,505,NA,"Subduction zone / Continental crust (>25 km)","Pleistocene",59.7065925598145,-124.766372680664,301.232482910156,"cam"
"309",343800,"Masahuat Volcanic Field","El Salvador","Stratovolcano",NA,NA,"México and Central America","El Salvador and Honduras",14.2,-89.4,1005,NA,"Subduction zone / Continental crust (>25 km)","Pleistocene",62.7952919006348,-156.379348754883,295.629119873047,"cam"
"310",343801,"Tablas, Cerro las","El Salvador","Stratovolcano(es)",NA,NA,"México and Central America","El Salvador and Honduras",14.07,-89.4,782,NA,"Subduction zone / Continental crust (>25 km)","Pleistocene",59.7997512817383,-131.970626831055,296.236633300781,"cam"
"311",343802,"Limones Volcanic Field, Los","El Salvador","Pyroclastic cone(s)",NA,NA,"México and Central America","El Salvador and Honduras",14.05,-89.13,420,NA,"Subduction zone / Continental crust (>25 km)","Pleistocene",61.2124481201172,-151.251663208008,295.659790039062,"cam"
"312",343803,"Cacahuatique, Cerro","El Salvador","Stratovolcano",NA,NA,"México and Central America","El Salvador and Honduras",13.75,-88.2,1500,NA,"Subduction zone / Continental crust (>25 km)","Pleistocene",65.1285705566406,-181.58203125,297.280639648438,"cam"
"313",343804,"Buena Vista, Cerro","El Salvador","Stratovolcano",NA,NA,"México and Central America","El Salvador and Honduras",13.25,-88.15,750,NA,"Subduction zone / Continental crust (>25 km)","Pleistocene",53.4623985290527,-95.5630340576172,298.272277832031,"cam"
"314",343805,"Yayantique, Cerro","El Salvador","Stratovolcano(es)",NA,NA,"México and Central America","El Salvador and Honduras",13.435,-87.999,613,NA,"Subduction zone / Continental crust (>25 km)","Pleistocene",62.0683059692383,-137.499404907227,297.665710449219,"cam"
"315",343806,"Unnamed","El Salvador","Volcanic field",NA,NA,"México and Central America","El Salvador and Honduras",13.67,-87.82,377,NA,"Subduction zone / Continental crust (>25 km)","Pleistocene",65.1467056274414,-203.645401000977,295.389221191406,"cam"
"316",343807,"Zacatillo, Isla","El Salvador","Pyroclastic cone(s)",NA,NA,"México and Central America","El Salvador and Honduras",13.295,-87.761,158,NA,"Subduction zone / Continental crust (>25 km)","Pleistocene",61.2069511413574,-135.965774536133,300.550811767578,"cam"
"317",343815,"Lolotique, Cerro","El Salvador","Unknown",NA,NA,"México and Central America","El Salvador and Honduras",13.559,-88.364,804,NA,"Subduction zone / Continental crust (>25 km)","Pleistocene",60.898494720459,-129.060333251953,295.186584472656,"cam"
"318",343816,"Meanguera, Isla","El Salvador","Stratovolcano(es)",NA,NA,"México and Central America","El Salvador and Honduras",13.19,-87.72,468,NA,"Subduction zone / Continental crust (>25 km)","Pleistocene",59.1786308288574,-121.572860717773,302.243103027344,"cam"
"319",343817,"Izopo, Montaña de","Honduras","Shield(s)",NA,NA,"México and Central America","El Salvador and Honduras",13.92,-87.15,2020,NA,"Subduction zone / Continental crust (>25 km)","Pleistocene",NA,NA,NA,"cam"
"320",343818,"Hule, Cerro de","Honduras","Shield",NA,NA,"México and Central America","El Salvador and Honduras",13.95,-87.23,1725,NA,"Subduction zone / Continental crust (>25 km)","Pleistocene",NA,NA,NA,"cam"
"321",343819,"Gavilantepeque, Cerro","Honduras","Shield",NA,NA,"México and Central America","El Salvador and Honduras",14,-87.18,1280,NA,"Subduction zone / Continental crust (>25 km)","Pleistocene",NA,NA,NA,"cam"
"322",343820,"Pedregal, El","Honduras","Shield",NA,NA,"México and Central America","El Salvador and Honduras",14.1,-87.27,1593,NA,"Subduction zone / Continental crust (>25 km)","Pleistocene",NA,NA,NA,"cam"
"323",343821,"Calanterique, Cerro","Honduras","Lava cone",NA,NA,"México and Central America","El Salvador and Honduras",14.6,-87.87,0,NA,"Subduction zone / Continental crust (>25 km)","Pleistocene",NA,NA,NA,"cam"
"324",344130,"Maderas","Nicaragua","Stratovolcano",NA,NA,"México and Central America","Nicaragua",11.446,-85.515,1394,NA,"Subduction zone / Continental crust (>25 km)","Pleistocene",66.2221069335938,-145.280014038086,310.352172851562,"cam"
"325",344801,"Malpaisillo","Nicaragua","Pyroclastic shield",NA,NA,"México and Central America","Nicaragua",12.58,-86.6,181,NA,"Subduction zone / Continental crust (>25 km)","Pleistocene",71.3310012817383,-177.834518432617,314.575653076172,"cam"
"326",344802,"Apoyo","Nicaragua","Caldera",NA,NA,"México and Central America","Nicaragua",11.92,-86.03,600,NA,"Subduction zone / Continental crust (>25 km)","Pleistocene",68.419319152832,-142.143310546875,314.09326171875,"cam"
"327",344803,"San Jacinto, Cerro","Nicaragua","Stratovolcano",NA,NA,"México and Central America","Nicaragua",12.37,-86.02,300,NA,"Subduction zone / Continental crust (>25 km)","Pleistocene",75.7630157470703,-262.139007568359,312.477478027344,"cam"
"328",344805,"Tambor Grande","Nicaragua","Caldera",NA,NA,"México and Central America","Nicaragua",10.97,-84.08,648,NA,"Subduction zone / Intermediate crust (15-25 km)","Pleistocene",NA,NA,NA,"cam"
"329",345800,"Chopo, Cerro","Costa Rica","Pyroclastic cone",NA,NA,"México and Central America","Costa Rica",10.472,-85.07,402,NA,"Subduction zone / Continental crust (>25 km)","Pleistocene",42.6064186096191,-65.6188659667969,305.600219726562,"cam"
"330",345801,"Tilaran, Cerro","Costa Rica","Shield",NA,NA,"México and Central America","Costa Rica",10.451,-84.978,634,NA,"Subduction zone / Continental crust (>25 km)","Pleistocene",44.821834564209,-69.2359237670898,306.042572021484,"cam"
"331",345802,"Perdidos, Los","Costa Rica","Caldera",NA,NA,"México and Central America","Costa Rica",10.403,-84.675,1357,NA,"Subduction zone / Continental crust (>25 km)","Pleistocene",53.1225128173828,-87.275749206543,308.979766845703,"cam"
"332",345803,"Poco Sol, Laguna","Costa Rica","Explosion crater(?)",NA,NA,"México and Central America","Costa Rica",10.35,-84.67,789,NA,"Subduction zone / Continental crust (>25 km)","Pleistocene",51.7288856506348,-83.1775131225586,309.458160400391,"cam"
"333",345804,"San Miguel, Cerro","Costa Rica","Lava dome",NA,NA,"México and Central America","Costa Rica",10.022,-84.708,414,NA,"Subduction zone / Continental crust (>25 km)","Pleistocene",37.7024803161621,-52.5571556091309,308.938598632812,"cam"
"334",345805,"Mercedes, Cerro las","Costa Rica","Pyroclastic cone",NA,NA,"México and Central America","Costa Rica",10.97,-84.35,190,NA,"Intraplate / Continental crust (>25 km)","Pleistocene",69.7506256103516,-235.079727172852,300.824768066406,"cam"
"335",345806,"Negro, Cerro","Costa Rica","Shield",NA,NA,"México and Central America","Costa Rica",10.462,-83.855,136,NA,"Subduction zone / Continental crust (>25 km)","Pleistocene",59.6058349609375,-189.852874755859,298.977264404297,"cam"
"336",345807,"Colorado, Lomas de","Costa Rica","Shield(s)",NA,NA,"México and Central America","Costa Rica",10.658,-83.721,229,NA,"Subduction zone / Continental crust (>25 km)","Pleistocene",61.7860374450684,-233.835876464844,295.522979736328,"cam"
"337",345808,"Tortuguero","Costa Rica","Pyroclastic cone",NA,NA,"México and Central America","Costa Rica",10.586,-83.53,119,NA,"Unknown","Pleistocene",61.2093315124512,-236.401733398438,292.145477294922,"cam"
"338",345809,"Sierpe, Lomas de","Costa Rica","Shield(s)",NA,NA,"México and Central America","Costa Rica",10.376,-83.545,311,NA,"Subduction zone / Continental crust (>25 km)","Pleistocene",59.8822174072266,-198.635696411133,290.450408935547,"cam"
"339",345810,"Durika","Costa Rica","Lava dome(s)",NA,NA,"México and Central America","Costa Rica",9.374,-83.302,3257,NA,"Subduction zone / Continental crust (>25 km)","Pleistocene",41.4505386352539,-78.7417526245117,317.201934814453,"cam"
"340",345811,"Coco, Isla del","Costa Rica","Shield",NA,NA,"México and Central America","Costa Rica",5.53,-87.082,575,NA,"Intraplate / Oceanic crust (< 15 km)","Pleistocene",NA,NA,NA,"cam"
"341",346800,"Tisingal","Panama","Stratovolcano",NA,NA,"México and Central America","Panama",8.88,-82.67,2986,NA,"Subduction zone / Continental crust (>25 km)","Pleistocene",NA,NA,NA,"cam"
"342",346801,"Yeguada, La","Panama","Stratovolcano",NA,NA,"México and Central America","Panama",8.47,-80.82,1297,NA,"Subduction zone / Continental crust (>25 km)","Pleistocene",NA,NA,NA,"cam"
"343",351011,"Romeral","Colombia","Stratovolcano","Eruption Dated","5390 BCE","South America","Colombia",5.203,-75.363,3769,"Andesite / Basaltic Andesite","Subduction zone / Continental crust (>25 km)","Holocene",NA,NA,NA,"car"
"344",351012,"Bravo, Cerro","Colombia","Stratovolcano","Eruption Dated","1720 CE","South America","Colombia",5.091,-75.293,3985,"Dacite","Subduction zone / Continental crust (>25 km)","Holocene",NA,NA,NA,"car"
"345",351020,"Ruiz, Nevado del","Colombia","Stratovolcano","Eruption Observed","2019 CE","South America","Colombia",4.892,-75.324,5279,"Andesite / Basaltic Andesite","Subduction zone / Continental crust (>25 km)","Holocene",NA,NA,NA,"car"
"346",360010,"Saba","Netherlands","Stratovolcano","Eruption Observed","1640 CE","West Indies","West Indies",17.63,-63.23,887,"Andesite / Basaltic Andesite","Subduction zone / Oceanic crust (< 15 km)","Holocene",39.2657775878906,-81.9208297729492,119.989097595215,"car"
"347",360020,"Quill, The","Netherlands","Stratovolcano","Eruption Dated","250 CE","West Indies","West Indies",17.478,-62.96,601,"Andesite / Basaltic Andesite","Subduction zone / Oceanic crust (< 15 km)","Holocene",38.0950012207031,-81.8090057373047,121.985565185547,"car"
"348",360030,"Liamuiga","Saint Kitts and Nevis","Stratovolcano","Eruption Dated","160 CE","West Indies","West Indies",17.37,-62.8,1156,"Andesite / Basaltic Andesite","Subduction zone / Oceanic crust (< 15 km)","Holocene",37.5578956604004,-82.6523513793945,125.132278442383,"car"
"349",360040,"Nevis Peak","Saint Kitts and Nevis","Stratovolcano","Evidence Uncertain","Unknown","West Indies","West Indies",17.15,-62.58,985,"Andesite / Basaltic Andesite","Subduction zone / Oceanic crust (< 15 km)","Holocene",37.9188499450684,-86.1895751953125,131.781066894531,"car"
"350",360050,"Soufriere Hills","United Kingdom","Stratovolcano","Eruption Observed","2013 CE","West Indies","West Indies",16.72,-62.18,915,"Andesite / Basaltic Andesite","Subduction zone / Oceanic crust (< 15 km)","Holocene",39.1172676086426,-88.045051574707,139.870697021484,"car"
"351",360060,"Soufriere Guadeloupe","France","Stratovolcano","Eruption Observed","1977 CE","West Indies","West Indies",16.044,-61.664,1467,"Andesite / Basaltic Andesite","Subduction zone / Oceanic crust (< 15 km)","Holocene",39.9653778076172,-88.9468002319336,144.472854614258,"car"
"352",360080,"Diables, Morne aux","Dominica","Lava dome(s)","Evidence Credible","Unknown","West Indies","West Indies",15.612,-61.43,861,"Andesite / Basaltic Andesite","Subduction zone / Oceanic crust (< 15 km)","Holocene",40.7341804504395,-93.7284393310547,150.613372802734,"car"
"353",360090,"Diablotins, Morne","Dominica","Stratovolcano","Evidence Uncertain","Unknown","West Indies","West Indies",15.503,-61.397,1430,"Andesite / Basaltic Andesite","Subduction zone / Oceanic crust (< 15 km)","Holocene",41.0848960876465,-96.2478561401367,153.79443359375,"car"
"354",360100,"Trois Pitons, Morne","Dominica","Complex","Eruption Dated","920 CE","West Indies","West Indies",15.37,-61.33,1387,"Andesite / Basaltic Andesite","Subduction zone / Oceanic crust (< 15 km)","Holocene",40.8621673583984,-95.7957153320312,158.466766357422,"car"
"355",360101,"Watt, Morne","Dominica","Stratovolcano(es)","Eruption Observed","1997 CE","West Indies","West Indies",15.307,-61.305,1224,"Andesite / Basaltic Andesite","Subduction zone / Oceanic crust (< 15 km)","Holocene",40.6936531066895,-95.1253433227539,160.930633544922,"car"
"356",360110,"Plat Pays, Morne","Dominica","Stratovolcano","Eruption Dated","1270 CE","West Indies","West Indies",15.255,-61.341,940,"Dacite","Subduction zone / Oceanic crust (< 15 km)","Holocene",41.267993927002,-99.611457824707,162.328674316406,"car"
"357",360120,"Pelee","France","Stratovolcano","Eruption Observed","1932 CE","West Indies","West Indies",14.809,-61.165,1394,"Andesite / Basaltic Andesite","Subduction zone / Oceanic crust (< 15 km)","Holocene",39.037727355957,-91.7565155029297,177.006378173828,"car"
"358",360140,"Qualibou","Saint Lucia","Caldera","Eruption Observed","1766 CE","West Indies","West Indies",13.83,-61.05,777,"Andesite / Basaltic Andesite","Subduction zone / Oceanic crust (< 15 km)","Holocene",30.4108562469482,-75.7172622680664,187.829711914062,"car"
"359",360150,"Soufriere St. Vincent","Saint Vincent and the Grenadines","Stratovolcano","Eruption Observed","1979 CE","West Indies","West Indies",13.33,-61.18,1220,"Andesite / Basaltic Andesite","Subduction zone / Oceanic crust (< 15 km)","Holocene",32.5296211242676,-80.2619705200195,187.892303466797,"car"
"360",360160,"Kick 'em Jenny","Grenada","Submarine","Eruption Observed","2017 CE","West Indies","West Indies",12.3,-61.64,-185,"Basalt / Picro-Basalt","Subduction zone / Oceanic crust (< 15 km)","Holocene",34.5856094360352,-81.9944458007812,214.343353271484,"car"
"361",360170,"St. Catherine","Grenada","Stratovolcano","Evidence Credible","Unknown","West Indies","West Indies",12.15,-61.67,840,"Andesite / Basaltic Andesite","Subduction zone / Oceanic crust (< 15 km)","Holocene",32.9714088439941,-77.591194152832,215.304626464844,"car"
"362",351001,"San Diego","Colombia","Maar",NA,NA,"South America","Colombia",5.65,-74.961,1163,NA,"","Pleistocene",NA,NA,NA,"car"
"363",351002,"Escondido, El","Colombia","Lava dome",NA,NA,"South America","Colombia",5.514,-75.043,1620,NA,"","Pleistocene",NA,NA,NA,"car"
"364",360800,"Vigie, Morne la","Haiti","Pyroclastic cone",NA,NA,"West Indies","West Indies",18.78,-72.28,831,NA,"Subduction zone / Continental crust (>25 km)","Pleistocene",NA,NA,NA,"car"
"365",360801,"Thomazeau","Haiti","Pyroclastic cone(s)",NA,NA,"West Indies","West Indies",18.68,-72.08,0,NA,"Subduction zone / Continental crust (>25 km)","Pleistocene",NA,NA,NA,"car"
"366",360802,"San Juan","Dominican Republic","Pyroclastic cone(s)",NA,NA,"West Indies","West Indies",18.87,-71.33,0,NA,"Subduction zone / Continental crust (>25 km)","Pleistocene",NA,NA,NA,"car"
"367",360803,"Dos Hermanos","Dominican Republic","Volcanic field",NA,NA,"West Indies","West Indies",18.75,-70.92,0,NA,"Subduction zone / Continental crust (>25 km)","Pleistocene",33.145622253418,-55.2313766479492,91.0696411132812,"car"
"368",360804,"Valle Nuevo","Dominican Republic","Volcanic field",NA,NA,"West Indies","West Indies",18.83,-70.67,0,NA,"Subduction zone / Continental crust (>25 km)","Pleistocene",33.5570945739746,-48.6878776550293,92.0156631469727,"car"
"369",360805,"South East Range","Saint Kitts and Nevis","Stratovolcano",NA,NA,"West Indies","West Indies",17.33,-62.77,900,NA,"Subduction zone / Oceanic crust (< 15 km)","Pleistocene",37.6384887695312,-83.3926162719727,126.112449645996,"car"
"370",360806,"Northern Centres","Netherlands","Stratovolcano(es)",NA,NA,"West Indies","West Indies",17.508,-62.992,0,NA,"Subduction zone / Oceanic crust (< 15 km)","Pleistocene",38.3513221740723,-82.0108947753906,121.607688903809,"car"
"371",360807,"Silver Hills","United Kingdom","Lava dome(s)",NA,NA,"West Indies","West Indies",16.81,-62.194,403,NA,"Subduction zone / Oceanic crust (< 15 km)","Pleistocene",37.5387992858887,-83.4050216674805,139.314208984375,"car"
"372",360808,"Centre Hills","United Kingdom","Lava dome(s)",NA,NA,"West Indies","West Indies",16.759,-62.196,741,NA,"Subduction zone / Oceanic crust (< 15 km)","Pleistocene",38.4905776977539,-86.2326202392578,139.522491455078,"car"
"373",360809,"Septentrional Chain","France","Lava dome(s)",NA,NA,"West Indies","West Indies",16.23,-61.72,744,NA,"Subduction zone / Oceanic crust (< 15 km)","Pleistocene",38.3098297119141,-82.7559585571289,143.924880981445,"car"
"374",360810,"Axial Chain","France","Stratovolcano(es)",NA,NA,"West Indies","West Indies",16.12,-61.7,1354,NA,"Subduction zone / Oceanic crust (< 15 km)","Pleistocene",39.7035980224609,-87.7474822998047,144.220260620117,"car"
"375",360811,"Bouillante Chain","France","Maar(s)",NA,NA,"West Indies","West Indies",16.12,-61.75,420,NA,"Subduction zone / Oceanic crust (< 15 km)","Pleistocene",40.6232414245605,-91.405029296875,144.181900024414,"car"
"376",360812,"Caraïbes, Monts","France","Stratovolcano",NA,NA,"West Indies","West Indies",15.97,-61.68,687,NA,"Subduction zone / Oceanic crust (< 15 km)","Pleistocene",41.2077484130859,-94.7985458374023,144.81022644043,"car"
"377",360813,"Terre de Bas","France","Stratovolcano(es)",NA,NA,"West Indies","West Indies",15.87,-61.63,274,NA,"Subduction zone / Oceanic crust (< 15 km)","Pleistocene",41.4319229125977,-96.5296249389648,145.562774658203,"car"
"378",360814,"Foundland","Dominica","Stratovolcano",NA,NA,"West Indies","West Indies",15.27,-61.28,960,NA,"Subduction zone / Oceanic crust (< 15 km)","Pleistocene",40.5542335510254,-94.6747665405273,162.171417236328,"car"
"379",360815,"Carbets, Pitons de","France","Stratovolcano",NA,NA,"West Indies","West Indies",14.7,-61.12,1196,NA,"Subduction zone / Oceanic crust (< 15 km)","Pleistocene",37.7306594848633,-87.7674179077148,179.968414306641,"car"
"380",360816,"Unnamed","France","Volcanic field",NA,NA,"West Indies","West Indies",14.65,-61.08,0,NA,"Subduction zone / Oceanic crust (< 15 km)","Pleistocene",36.7741622924805,-85.0003814697266,181.003021240234,"car"
"381",360817,"Garu, Morne","Saint Vincent and the Grenadines","Stratovolcano",NA,NA,"West Indies","West Indies",13.292,-61.2,1074,NA,"Subduction zone / Continental crust (>25 km)","Pleistocene",32.967845916748,-81.057258605957,188.331817626953,"car"
"382",360818,"Grand Bonhomme","Saint Vincent and the Grenadines","Stratovolcano",NA,NA,"West Indies","West Indies",13.22,-61.208,1021,NA,"Subduction zone / Continental crust (>25 km)","Pleistocene",32.6790657043457,-80.1115417480469,189.875183105469,"car"
"383",320120,"Milbanke Sound Group","Canada","Pyroclastic cone(s)","Evidence Credible","Unknown","Canada and Western USA","Canada",52.5,-128.73,335,"Basalt / Picro-Basalt","Intraplate / Continental crust (>25 km)","Holocene",NA,NA,NA,"cas"
"384",320140,"Nazko","Canada","Pyroclastic cone(s)","Eruption Dated","5220 BCE","Canada and Western USA","Canada",52.928,-123.732,1238,"Trachybasalt / Tephrite Basanite","Intraplate / Continental crust (>25 km)","Holocene",NA,NA,NA,"cas"
"385",320150,"Wells Gray-Clearwater","Canada","Pyroclastic cone(s)","Eruption Dated","1550 CE","Canada and Western USA","Canada",52.33,-120.57,2576,"Basalt / Picro-Basalt","Intraplate / Continental crust (>25 km)","Holocene",NA,NA,NA,"cas"
"386",320160,"Silverthrone","Canada","Caldera","Evidence Credible","Unknown","Canada and Western USA","Canada",51.43,-126.3,3160,"Andesite / Basaltic Andesite","Subduction zone / Continental crust (>25 km)","Holocene",NA,NA,NA,"cas"
"387",320170,"Bridge River Cones","Canada","Volcanic field","Evidence Credible","Unknown","Canada and Western USA","Canada",50.8,-123.4,2500,"Basalt / Picro-Basalt","Subduction zone / Continental crust (>25 km)","Holocene",NA,NA,NA,"cas"
"388",320180,"Meager","Canada","Complex","Eruption Dated","410 BCE","Canada and Western USA","Canada",50.63,-123.5,2680,"Dacite","Subduction zone / Continental crust (>25 km)","Holocene",NA,NA,NA,"cas"
"389",320190,"Garibaldi Lake","Canada","Volcanic field","Evidence Credible","Unknown","Canada and Western USA","Canada",49.933,-123,2316,"Andesite / Basaltic Andesite","Subduction zone / Continental crust (>25 km)","Holocene",41.5165494444642,-90.9886831180931,325.796305341852,"cas"
"390",320200,"Garibaldi","Canada","Stratovolcano","Eruption Dated","8060 BCE","Canada and Western USA","Canada",49.85,-123,2678,"Dacite","Subduction zone / Continental crust (>25 km)","Holocene",40.1901855652252,-86.4709625759642,325.787719730041,"cas"
"391",320811,"Cayley Volcanic Field","Canada","Volcanic field","Evidence Credible","Unknown","Canada and Western USA","Canada",50.12,-123.28,2375,"Andesite / Basaltic Andesite","Subduction zone / Continental crust (>25 km)","Holocene",NA,NA,NA,"cas"
"392",321010,"Baker","United States","Stratovolcano(es)","Eruption Observed","1880 CE","Canada and Western USA","USA (Washington)",48.777,-121.813,3285,"Andesite / Basaltic Andesite","Subduction zone / Continental crust (>25 km)","Holocene",42.2838622333647,-94.8283963174002,332.894063317389,"cas"
"393",321020,"Glacier Peak","United States","Stratovolcano","Eruption Dated","1700 CE","Canada and Western USA","USA (Washington)",48.112,-121.113,3213,"Dacite","Subduction zone / Continental crust (>25 km)","Holocene",48.5359454724469,-115.380831446914,348.998409680329,"cas"
"394",321030,"Rainier","United States","Stratovolcano","Eruption Dated","1450 CE","Canada and Western USA","USA (Washington)",46.853,-121.76,4392,"Andesite / Basaltic Andesite","Subduction zone / Continental crust (>25 km)","Holocene",35.9246584698083,-71.695571914491,7.16370566850737,"cas"
